xid,name,rate,osm,wikidata,kinds,longitude,latitude,country
N1005016071,Devant le Palais universitaire (Krutenau),7.0,node/1005016071,Q3361224,"architecture,historic_architecture,interesting_places,other_buildings_and_structures",7.76088,48.5853,France
N1005016227,Angle des ponts couverts et de la rue du Cygne (Centre),7.0,node/1005016227,Q3397780,"bridges,architecture,interesting_places,other_bridges",7.7402,48.5791,France
N1005016288,Rue Sainte-Madeleine (Krutenau),7.0,node/1005016288,Q692407,"religion,churches,interesting_places,other_churches",7.75382,48.5797,France
N1005746419,San Carlos,1.0,node/1005746419,-1,"religion,other_temples,interesting_places",-78.5157,-0.220784,Ecuador
N1007724138,Cumalıkızık,7.0,node/1007724138,Q1897419,"historic,historical_places,interesting_places,historic_districts,historic_settlements",29.1727,40.1752,Turquía
N1009907749,Eagle River Lighthouse,7.0,node/1009907749,Q5325236,"lighthouses,architecture,towers,interesting_places,other_towers",-88.2985,47.4136,United States
N1010095316,Ateni Sioni Church,7.0,node/1010095316,Q247960,"religion,churches,interesting_places,other_churches",44.0959,41.9039,Geogia
N1011407261,72nd Street,7.0,node/1011407261,Q2887299,"railway_stations,industrial_facilities,interesting_places",-73.9819,40.779,United States
N1011833744,Point Iroquois Lighthouse,7.0,node/1011833744,Q7208048,"lighthouses,architecture,towers,interesting_places,other_towers",-84.6324,46.4843,United States
N1020504876,Barbrook One,7.0,node/1020504876,Q14949367,"megaliths,historic,archaeology,interesting_places",-1.5837,53.2765,United Kingdom
N102660236,Mirador Castillo Wolff,7.0,node/102660236,Q8039164,"view_points,other,fortifications,historic,monuments_and_memorials,interesting_places,castles,monuments",-71.565,-33.0194,Chile
N1029975195,Schloss Zigguln,7.0,node/1029975195,Q2244321,"fortifications,historic,interesting_places,castles",14.2918,46.6352,Austria
N1033002391,Wat Ratcha-orasaram,7.0,node/1033002391,Q1519293,"religion,buddhist_temples,interesting_places",100.466,13.7029,Tailandia
N1034877297,Fort King Chulalongkorn,7.0,node/1034877297,Q16304373,"fortifications,historic,archaeology,interesting_places,other_fortifications,other_archaeological_sites",100.584,13.5378,Tailandia
N1038357043,Sunehri Masjid,7.0,node/1038357043,Q16900896,"religion,mosques,interesting_places",77.2396,28.6505,India
N1046051207,Bath Spa Station,7.0,node/1046051207,Q637185,"railway_stations,industrial_facilities,interesting_places",-2.35677,51.3778,United Kingdom
N1048964926,Sawley Abbey,7.0,node/1048964926,Q2228344,"religion,architecture,historic_architecture,historic,monasteries,archaeology,interesting_places,destroyed_objects,other_archaeological_sites",-2.34163,53.9135,United Kingdom
N1052304324,Museo del Santuario de La Virgen Del Agua Santa,1.0,node/1052304324,-1,"cultural,museums,interesting_places,other_museums",-78.4209,-1.39733,Ecuador
N1065083094,Torna,7.0,node/1065083094,Q7825964,"mountain_peaks,fortifications,historic,geological_formations,natural,interesting_places,other_fortifications",73.6226,18.2757,India
N1066858883,Gables Takoma Park,7.0,node/1066858883,Q7678466,"historical_places,historic,interesting_places,historic_districts",-77.0188,38.9757,United States
N1069322494,Yesemek,7.0,node/1069322494,Q26959195,"historic,historical_places,archaeology,interesting_places,other_archaeological_sites,historic_settlements",36.7435,36.9046,Turquía
N1082381448,Zarautz,7.0,node/1082381448,Q5785590,"religion,architecture,historic_architecture,monasteries,interesting_places,foods,fast_food,tourist_facilities,other_buildings_and_structures",-2.17556,43.2868,España
N1083968158,Monasterio de San Isidoro del Campo,7.0,node/1083968158,Q778571,"religion,monasteries,interesting_places",-6.03643,37.4346,España
N1088903121,Museo Ferroviario Baquedano,7.0,node/1088903121,Q4075872,"railway_stations,historic,museums,museums_of_science_and_technology,railway_museums,industrial_facilities,monuments_and_memorials,cultural,interesting_places,monuments",-69.8392,-23.3352,Chile
N1088903417,Oficina Salitrera Chacabuco,7.0,node/1088903417,Q5066042,"view_points,other,architecture,historic_architecture,interesting_places,destroyed_objects",-69.6185,-23.144,Chile
N1088991258,San Francisco,7.0,node/1088991258,Q16577683,"religion,churches,interesting_places,other_churches",-68.6505,-22.3429,Argentina
N1089071728,Caspana,7.0,node/1089071728,Q62055393,"view_points,other,religion,churches,interesting_places,other_churches",-68.2137,-22.331,Chile
N1092481040,Lanslevillard,7.0,node/1092481040,Q3583203,"religion,churches,interesting_places,other_churches",6.91123,45.2896,France
N1092607007,Cerro Sombrero,7.0,node/1092607007,Q1006493,"historic,historical_places,interesting_places,historic_settlements",-69.2909,-52.7765,Chile
N1100191462,Grawa Wasserfall,7.0,node/1100191462,Q1544013,"water,natural,interesting_places,waterfalls",11.1902,47.012,Austria
N1102444727,Schloss Hilfikon,7.0,node/1102444727,Q2241557,"religion,fortifications,historic,churches,interesting_places,castles,other_churches",8.24691,47.3307,Alemania
N1109077167,Jahangiri Mahal,7.0,node/1109077167,Q6123161,"palaces,architecture,historic_architecture,fortifications,historic,interesting_places,other_fortifications",78.6442,25.3506,India
N1113577351,Flüelen railway station,7.0,node/1113577351,Q800758,"railway_stations,industrial_facilities,interesting_places",8.62401,46.9019,Alemania
N1115443794,Museo Antiguo Hospital Militar,1.0,node/1115443794,-1,"cultural,museums,interesting_places,other_museums",-78.507,-0.211384,Ecuador
N1118107678,North Broad,7.0,node/1118107678,Q7054296,"railway_stations,industrial_facilities,interesting_places",-75.1539,39.9922,United States
N1121807213,Stanley Prison,7.0,node/1121807213,Q16242214,"railway_stations,industrial_facilities,religion,mosques,interesting_places",114.218,22.2154,China
N1124066634,Faro Recalada,7.0,node/1124066634,Q2378178,"lighthouses,towers,architecture,interesting_places,other_towers",-61.2599,-38.9908,Argentina
N1125282758,Zarzma monastery,7.0,node/1125282758,Q1586089,"religion,monasteries,interesting_places",42.6538,41.6797,Geogia
N1127412522,San Juan Hill,1.0,node/1127412522,-1,"mountain_peaks,geological_formations,natural,interesting_places",-79.5821,8.95393,Panamá
N1132091660,San Francisco,7.0,node/1132091660,Q26823266,"religion,churches,monasteries,interesting_places,catholic_churches",-71.5349,-16.3951,Argentina
N1136486810,Liebfrauenberg,7.0,node/1136486810,Q19860720,"architecture,historic_architecture,interesting_places,other_buildings_and_structures",7.98934,49.1074,Alemania
N1139545898,Statue du Christ-Roi,7.0,node/1139545898,Q805439,"historic,monuments_and_memorials,urban_environment,cultural,interesting_places,sculptures,monuments",7.43757,46.2731,Alemania
N1140862123,Église Saint-Melaine de Meslan,7.0,node/1140862123,Q3580619,"fountains,religion,churches,cultural,urban_environment,interesting_places,other_churches",-3.43406,47.9946,France
N1141482187,Kecharis Monastery,7.0,node/1141482187,Q533496,"religion,churches,monasteries,interesting_places,other_churches",44.7163,40.5339,Armenia
N1141919810,Naksansa,7.0,node/1141919810,Q562760,"religion,buddhist_temples,interesting_places",128.628,38.1246,Corea del Sur
N1143026952,Ruinas Jesuiticas de Santa Ana,7.0,node/1143026952,Q2092494,"architecture,historic_architecture,historic,historical_places,archaeology,cultural,museums,interesting_places,destroyed_objects,other_museums,other_archaeological_sites,historic_settlements",-55.5806,-27.3884,Argentina
N1143796193,Saro Elementary School,7.0,node/1143796193,Q4150563,"megaliths,historic,historical_places,archaeology,interesting_places,historic_settlements",43.2804,41.5032,Geogia
N1143796273,Virgin Mary Church,7.0,node/1143796273,Q691813,"religion,monasteries,interesting_places",43.2847,41.3813,Geogia
N1147401858,Chule,7.0,node/1147401858,Q5116114,"religion,monasteries,interesting_places",42.7022,41.7035,Geogia
N1150326659,Wat Kok,7.0,node/1150326659,Q66362085,"religion,buddhist_temples,interesting_places",100.449,13.6746,Tailandia
N1150373723,Wat Kamphaeng,7.0,node/1150373723,Q66361516,"religion,buddhist_temples,interesting_places",100.448,13.679,Tailandia
N1150373926,Wat Kamphaeng School,7.0,node/1150373926,Q66361516,"religion,buddhist_temples,interesting_places",100.447,13.679,Tailandia
N1152642162,Vale Virgin Mary Orthodox Church,7.0,node/1152642162,Q25543380,"religion,churches,interesting_places,other_churches",42.8665,41.6166,Geogia
N1160892219,Sir Henry Campbell Bannerman,7.0,node/1160892219,Q17842911,"historic,monuments_and_memorials,burial_places,urban_environment,cultural,interesting_places,war_memorials,sculptures,monuments",-3.93994,56.1179,United Kingdom
N1163203519,Ruine Gilgenberg,7.0,node/1163203519,Q2175270,"architecture,historic_architecture,fortifications,historic,interesting_places,destroyed_objects,castles",7.60819,47.3822,Alemania
N1165162987,Phuket Thai Hua Museum,7.0,node/1165162987,Q64555724,"cultural,museums,interesting_places,other_museums",98.3869,7.8856,Tailandia
N1167836696,Tung Chung Battery,7.0,node/1167836696,Q7852976,"fortifications,historic,interesting_places,other_fortifications",113.936,22.2873,China
N1168038803,Bismarckturm,7.0,node/1168038803,Q866549,"view_points,other,towers,architecture,historic,monuments_and_memorials,interesting_places,observation_towers,monuments",7.56163,49.4123,Alemania
N117081598,Lighthouse La Jument,7.0,node/117081598,Q1809044,"lighthouses,architecture,towers,interesting_places,other_towers",-5.1339,48.4222,France
N117367378,Wörth (Rhein) station,7.0,node/117367378,Q15107313,"railway_stations,industrial_facilities,interesting_places",8.27315,49.0457,Alemania
N1176787065,Joly de Lotbinière Estate,7.0,node/1176787065,Q3034372,"architecture,historic_architecture,gardens_and_parks,cultural,urban_environment,natural,interesting_places,nature_reserves,manor_houses,other_nature_conservation_areas",-71.8476,46.6675,Canada
N1176960988,Forte de Santa Luzia,7.0,node/1176960988,Q10283905,"fortifications,historic,interesting_places,castles",-7.15848,38.873,Portugal
N1179612377,St. Demetre Church of Velispiri,7.0,node/1179612377,Q66916270,"religion,churches,interesting_places,other_churches",44.1048,41.4781,Geogia
N1179615170,Bolnisi Sioni,7.0,node/1179615170,Q247588,"religion,cathedrals,churches,interesting_places,eastern_orthodox_churches,catholic_churches",44.5128,41.389,Geogia
N1179616747,St. Demetre Church of Velispiri,7.0,node/1179616747,Q66916270,"religion,churches,interesting_places,other_churches",44.1034,41.4798,Geogia
N1179835155,Marugame Castle CastleTower,7.0,node/1179835155,Q250658,"fortifications,historic,interesting_places,castles",133.8,34.2863,Japón
N1180697693,James Watt,7.0,node/1180697693,Q17567460,"historic,monuments_and_memorials,urban_environment,cultural,interesting_places,sculptures,monuments",-4.25121,55.861,United Kingdom
N1184306054,Iwami Ginzan Silver Mine,7.0,node/1184306054,Q174139,"industrial_facilities,mineshafts,architecture,historic_architecture,historic,archaeology,interesting_places,destroyed_objects,other_archaeological_sites",132.445,35.1138,Japón
N1184567021,Cerro Pintado,3.0,node/1184567021,Q257173,"mountain_peaks,geological_formations,natural,interesting_places",-72.9047,10.3359,Colombia
N1187703133,Vivier Maritime gallo-romain,7.0,node/1187703133,Q13518439,"historic,archaeology,water,natural,interesting_places,other_archaeological_sites,other_lakes",6.71891,43.358,France
N1189577738,Wat Ratchanaddaram School,7.0,node/1189577738,Q1554856,"religion,buddhist_temples,interesting_places",100.504,13.7554,Tailandia
N1195241593,Steinkreuz Feucht 2,7.0,node/1195241593,Q41806869,"religion,other_temples,historic,monuments_and_memorials,interesting_places,monuments",11.2168,49.3717,Alemania
N1197363523,Locust Point,7.0,node/1197363523,Q6666145,"historical_places,historic,interesting_places,historic_districts",-76.5918,39.27,United States
N1199464727,Burg Rabeneck (Dillweißenstein),7.0,node/1199464727,Q1015462,"fortifications,historic,interesting_places,castles",8.68074,48.8678,Alemania
N1200100235,Clach an Trushal Standing Stone,7.0,node/1200100235,Q1094625,"megaliths,historic,monuments_and_memorials,archaeology,interesting_places,menhirs,monuments",-6.49293,58.3934,United Kingdom
N1203448108,Kvatakhevi Monastery,7.0,node/1203448108,Q1511534,"religion,churches,monasteries,interesting_places,other_churches",44.4584,41.7934,Geogia
N1210572475,Iglesia de Santa María la Mayor,7.0,node/1210572475,Q43113584,"religion,churches,interesting_places,other_churches",-0.00295123,41.961,España
N1211820927,Tamukeyama Hachiman Shrine,7.0,node/1211820927,Q11496939,"religion,other_temples,interesting_places",135.845,34.688,Japón
N1213265257,Metro Plaza Venezuela,7.0,node/1213265257,Q5147237,"railway_stations,industrial_facilities,interesting_places",-66.882,10.4959,Venezuela
N1214175916,Casa de Neruda (La Chascona),7.0,node/1214175916,Q5962867,"cultural,museums,interesting_places,other_museums",-70.6342,-33.4312,Chile
N1216900742,Fram,7.0,node/1216900742,Q3459381,"historic,historical_places,interesting_places,historic_settlements",15.6388,46.4538,Eslovenia
N1220024447,Casa del Virrey,7.0,node/1220024447,Q22951682,"cultural,museums,interesting_places,other_museums",-75.9147,4.74984,Colombia
N1223146098,Klang Bang Kaeo Temple,7.0,node/1223146098,Q61639055,"religion,buddhist_temples,interesting_places",100.193,13.7953,Tailandia
N1223146910,Wat Klang Bang Kaeo School,7.0,node/1223146910,Q61639055,"religion,buddhist_temples,interesting_places",100.192,13.7941,Tailandia
N1224772177,Pico La Concha,3.0,node/1224772177,Q7191014,"mountain_peaks,geological_formations,natural,interesting_places",-71.0268,8.55507,Venezuela
N1225761355,Maison Gaudin,7.0,node/1225761355,Q3278746,"architecture,historic_architecture,interesting_places,other_buildings_and_structures",6.19049,48.6885,France
N1231387299,Veliko Ubeljsko,7.0,node/1231387299,Q734770,"historic,historical_places,interesting_places,historic_settlements",14.0732,45.7717,Eslovenia
N1233731996,Cross Kirk,7.0,node/1233731996,Q2463503,"religion,architecture,historic_architecture,churches,interesting_places,destroyed_objects,other_churches",-3.1925,55.6542,United Kingdom
N1235207404,Iglesia del Buen Pastor,7.0,node/1235207404,Q34740536,"religion,churches,interesting_places,other_churches",-70.721,-32.7562,Chile
N1235745265,Oratorio di San Benedetto,7.0,node/1235745265,Q3669595,"religion,churches,interesting_places,other_churches",11.6144,44.8427,Italia
N1236937853,Faro Mar del Plata,7.0,node/1236937853,Q5856278,"lighthouses,towers,architecture,cultural,museums,interesting_places,other_museums,other_towers",-57.5449,-38.0917,Argentina
N1239235764,Planinska vas,7.0,node/1239235764,Q2835846,"historic,historical_places,interesting_places,historic_settlements",15.0316,46.1693,Eslovenia
N1241030821,Krašnji Vrh,7.0,node/1241030821,Q1959944,"historic,historical_places,interesting_places,historic_settlements",15.3495,45.7031,Eslovenia
N1242537198,El Fuerte,7.0,node/1242537198,Q5870565,"fortifications,historical_places,historic,monuments_and_memorials,interesting_places,other_fortifications,historic_settlements,monuments",-3.21585,36.9482,España
N1243321723,Torre Ancón,7.0,node/1243321723,Q43138256,"architecture,towers,fortifications,historical_places,historic,monuments_and_memorials,interesting_places,other_fortifications,watchtowers,historic_settlements,monuments",-4.93152,36.501,España
N1244779955,Dvin,7.0,node/1244779955,Q429059,"historical_places,historic,archaeology,interesting_places,other_archaeological_sites,historic_settlements",44.5764,40.0038,Armenia
N1247060163,Kurhaus,7.0,node/1247060163,Q30274663,"railway_stations,industrial_facilities,interesting_places",8.06752,50.1402,Alemania
N1253293290,Woodborough Methodist Church,7.0,node/1253293290,Q7595503,"religion,churches,interesting_places,other_churches",-1.06059,53.0233,United Kingdom
N1258954983,Museo Nacional Benjamín Vicuña Mackenna,7.0,node/1258954983,Q5390779,"cultural,museums,interesting_places,other_museums",-70.6338,-33.4412,Chile
N1264515705,Wegelnburg,7.0,node/1264515705,Q883128,"fortifications,historic,interesting_places,castles",7.78639,49.0612,Alemania
N1265448228,Natural Bridge Caverns,7.0,node/1265448228,Q10856113,"geological_formations,natural,interesting_places,nature_reserves,caves,other_nature_conservation_areas",-98.343,29.6925,United States
N1266495025,San Francisco de Mostazal,7.0,node/1266495025,Q5844736,"railway_stations,industrial_facilities,interesting_places",-70.7133,-33.9771,Chile
N1270323047,Zurich Wiedikon railway station,7.0,node/1270323047,Q679393,"railway_stations,industrial_facilities,interesting_places",8.52306,47.3717,Alemania
N1270745409,9th Avenue,7.0,node/1270745409,Q2439660,"railway_stations,industrial_facilities,interesting_places",-73.9944,40.6463,United States
N1274623366,Muñoz Mariño,1.0,node/1274623366,-1,"cultural,museums,interesting_places,other_museums",-78.5093,-0.223484,Ecuador
N1276206687,Lucca,7.0,node/1276206687,Q3078505,"fortifications,defensive_walls,historic,interesting_places",10.514,43.8433,Italia
N1276923249,Teatro Lastarria Go,7.0,node/1276923249,Q1156435,"cultural,theatres_and_entertainments,interesting_places,other_theatres",-70.6413,-33.4394,Chile
N1277885612,Susan B. Anthony Birthplace Museum,7.0,node/1277885612,Q4772743,"cultural,museums,interesting_places,other_museums",-73.1023,42.6155,United States
N1279097734,Lavagna,7.0,node/1279097734,Q1808793,"historic,historical_places,interesting_places,historic_settlements",9.44321,45.4618,Italia
N1285188119,Castillo de Trevejo,7.0,node/1285188119,Q5757654,"fortifications,historic,interesting_places,castles",-6.78053,40.1725,España
N1285547385,Faro Cabo Santa Maria,7.0,node/1285547385,Q5856382,"view_points,other,lighthouses,towers,architecture,interesting_places,other_towers",-54.1529,-34.6682,Uruguay
N1287602539,Arcagna,7.0,node/1287602539,Q3621405,"historic,historical_places,interesting_places,historic_settlements",9.45355,45.3434,Italia
N1288280679,Rezzonico,7.0,node/1288280679,Q3934044,"historic,historical_places,interesting_places,historic_settlements",9.27732,46.07,Italia
N1291189586,Gatun Locks Visitor Center,3.0,node/1291189586,Q2388548,"other,unclassified_objects,interesting_places,tourist_object",-79.9223,9.27278,Panamá
N1291928825,Old City Hall,7.0,node/1291928825,Q439501,"architecture,historic_architecture,interesting_places,other_buildings_and_structures",-79.381,43.6523,Canada
N1297478715,Gluuri Suter Huus,7.0,node/1297478715,Q15616596,"cultural,theatres_and_entertainments,interesting_places,other_theatres",8.3306,47.4662,Alemania
N1298351995,Panama Viejo Entrada,7.0,node/1298351995,Q712335,"historic,archaeology,interesting_places,other_archaeological_sites",-79.4861,9.00841,Panamá
N1298351996,Cabildo,6.0,node/1298351996,Q42885903,"historic,archaeology,interesting_places,other_archaeological_sites",-79.4851,9.00656,Argentina
N1298352008,Convento de los Jesuitas,1.0,node/1298352008,-1,"settlements,historic,archaeology,interesting_places",-79.487,9.00695,Panamá
N1298353621,Former Saint-Jean Station,7.0,node/1298353621,Q7400675,"railway_stations,industrial_facilities,interesting_places",-73.2543,45.3031,Canada
N1304329852,Prigorica,7.0,node/1304329852,Q2856250,"historic,historical_places,interesting_places,historic_settlements",14.7495,45.7133,Eslovenia
N1306627157,Catedral de Puerto Cabello,3.0,node/1306627157,Q25414204,"religion,cathedrals,churches,interesting_places,catholic_churches",-68.0089,10.4775,Venezuela
N1307117539,Pioneer Woman Museum,7.0,node/1307117539,Q7196834,"historic,monuments_and_memorials,urban_environment,cultural,museums,interesting_places,other_museums,sculptures,monuments",-97.0649,36.7103,United States
N1310327370,Dashtadem Fortress,7.0,node/1310327370,Q18623932,"fortifications,historic,interesting_places,castles",43.8569,40.3384,Armenia
N1315455452,Casa Central del Banco República,7.0,node/1315455452,Q806203,"architecture,historic_architecture,interesting_places,banks,bank,tourist_facilities,other_buildings_and_structures",-56.2071,-34.9055,Uruguay
N1316156665,Tsilkani Basilica,7.0,node/1316156665,Q12871109,"religion,churches,interesting_places,other_churches",44.6579,41.9495,Geogia
N1316343164,Castello di Caidate,7.0,node/1316343164,Q20009103,"fortifications,historic,interesting_places,castles",8.79521,45.7548,Italia
N1318999327,Museo del Indio Guaranga,1.0,node/1318999327,-1,"cultural,museums,interesting_places,other_museums",-79.0069,-1.58824,Ecuador
N1324655919,Beçin,7.0,node/1324655919,Q2900550,"historic,historical_places,interesting_places,historic_districts",27.7978,37.2734,Turquía
N1327623331,Kapelle,7.0,node/1327623331,Q37862818,"religion,churches,interesting_places,other_churches",10.7956,47.2971,Austria
N1328096816,Barchessone vecchio,7.0,node/1328096816,Q29063087,"architecture,historic_architecture,interesting_places,other_buildings_and_structures",11.224,44.919,Italia
N1329027607,Cantick Head,7.0,node/1329027607,Q17829260,"lighthouses,towers,architecture,interesting_places,other_towers",-3.13133,58.7871,United Kingdom
N1330676298,Winterthur Wülflingen railway station,7.0,node/1330676298,Q801620,"railway_stations,industrial_facilities,interesting_places",8.68096,47.5065,Alemania
N1337142834,Andrey Sakharov monument,7.0,node/1337142834,Q15077321,"historic,monuments_and_memorials,interesting_places,monuments",44.5171,40.1797,Armenia
N1338196845,Aleksandr Myasnikyan Monument,7.0,node/1338196845,Q16366530,"historic,monuments_and_memorials,urban_environment,cultural,interesting_places,sculptures,monuments",44.5061,40.1748,Armenia
N1338196874,Stepan Shahumyan monument,7.0,node/1338196874,Q16400128,"historic,monuments_and_memorials,urban_environment,cultural,interesting_places,sculptures,monuments",44.5096,40.1762,Armenia
N1342672661,Wat Phra Phutthabat Ratchaworamahawihan,7.0,node/1342672661,Q1703293,"religion,buddhist_temples,interesting_places",100.789,14.7183,Tailandia
N1345618494,Inchindown RN Underground Fuel Tanks,7.0,node/1345618494,Q17513656,"architecture,historic_architecture,interesting_places,destroyed_objects",-4.20494,57.741,United Kingdom
N1348912802,Burligo,7.0,node/1348912802,Q3647341,"historic,historical_places,interesting_places,historic_settlements",9.51576,45.7571,Italia
N1350731059,Loja interactiva de Turismo Ponte de Lima,7.0,node/1350731059,Q10351438,"roman_bridges,bridges,architecture,historic,archaeology,interesting_places,other_archaeological_sites",-8.58515,41.7673,Portugal
N1351819534,Tombeau de Merlin,7.0,node/1351819534,Q3531156,"megaliths,historic,dolmens,monuments_and_memorials,archaeology,burial_places,interesting_places,monuments",-2.11774,48.078,France
N1351920140,Monumento y Mirador Virgen de Fátima,1.0,node/1351920140,-1,"religion,other_temples,interesting_places",-78.9993,-1.70202,Ecuador
N1352886214,Rodney's Stone,7.0,node/1352886214,Q2161205,"historic,monuments_and_memorials,urban_environment,cultural,interesting_places,sculptures,monuments",-3.70109,57.5975,United Kingdom
N1354779312,Arbon,7.0,node/1354779312,Q15964072,"railway_stations,industrial_facilities,interesting_places",9.43344,47.5106,Alemania
N1360598239,historic house of Inoh Tadataka,7.0,node/1360598239,Q11379714,"historic,archaeology,interesting_places,other_archaeological_sites",140.498,35.8883,Japón
N1360598300,Katori Jingu Shrine,7.0,node/1360598300,Q372380,"religion,other_temples,interesting_places",140.529,35.8862,Japón
N1362203998,Zvartnots Cathedral,7.0,node/1362203998,Q17054090,"religion,architecture,historic_architecture,cathedrals,historic,archaeology,interesting_places,destroyed_objects,other_archaeological_sites",44.3366,40.16,Armenia
N1369987474,Shaker Museum,7.0,node/1369987474,Q5377319,"historical_places,historic,cultural,museums,interesting_places,historic_districts,open_air_museums",-72.1462,43.6201,United States
N1370799339,Phare des Barges,7.0,node/1370799339,Q2404023,"lighthouses,architecture,towers,interesting_places,other_towers",-1.84167,46.495,France
N1370799400,Phare des Dames,7.0,node/1370799400,Q3378490,"lighthouses,architecture,towers,interesting_places,other_towers",-2.22098,47.0112,France
N1370799631,Phare de la Banche,7.0,node/1370799631,Q3378463,"lighthouses,architecture,towers,interesting_places,other_towers",-2.46784,47.1771,France
N1370801434,Lighthouse Le Minou,7.0,node/1370801434,Q1364525,"view_points,other,lighthouses,architecture,towers,interesting_places,other_towers",-4.61422,48.3366,France
N1374527335,Palagnedra,7.0,node/1374527335,Q668625,"historic,historical_places,interesting_places,historic_settlements",8.63223,46.1539,Alemania
N1375271943,Acropolis of Rhodes,7.0,node/1375271943,Q3557443,"fortifications,historic,archaeology,cultural,museums,interesting_places,other_museums,other_fortifications,other_archaeological_sites",28.2128,36.4409,Grecia
N13796821,Bahnhof Dießen,7.0,node/13796821,Q14548179,"railway_stations,industrial_facilities,interesting_places",11.108,47.9503,Alemania
N1385129809,Fort St. Joseph (Ontario),7.0,node/1385129809,Q1150167,"fortifications,historic,interesting_places,other_fortifications",-83.9456,46.0639,Canada
N1388012624,Uncle Tom's Cabin Historic Site,7.0,node/1388012624,Q7882821,"cultural,museums,interesting_places,open_air_museums",-82.1965,42.5852,Canada
N1388665716,Appleby,7.0,node/1388665716,Q2169384,"railway_stations,industrial_facilities,interesting_places",-2.48654,54.5804,United Kingdom
N1392107005,Anavatos,7.0,node/1392107005,Q21682902,"architecture,historic_architecture,historic,historical_places,interesting_places,destroyed_objects,historic_settlements",26.02,38.4027,Grecia
N1395339856,Dolmen de Curton,7.0,node/1395339856,Q3034007,"megaliths,historic,dolmens,monuments_and_memorials,archaeology,burial_places,interesting_places,monuments",-0.157539,44.7723,France
N1395994502,Maclean’s Cross,7.0,node/1395994502,Q2337518,"other,unclassified_objects,interesting_places,historic_object",-6.39334,56.3324,United Kingdom
N1397568188,Wat Chedi Sao Lang,7.0,node/1397568188,Q16004209,"religion,buddhist_temples,interesting_places",99.5149,18.3222,Tailandia
N1398914878,Orientierungstafel Wegelnburg,7.0,node/1398914878,Q883128,"fortifications,historic,interesting_places,castles",7.78699,49.0613,Alemania
N1399749393,Camphill Column,7.0,node/1399749393,Q5028353,"historic,monuments_and_memorials,burial_places,interesting_places,other_burial_places,monuments",-1.71516,55.4049,United Kingdom
N1402220023,Dolmen de La Pastora,7.0,node/1402220023,Q1235860,"historic,dolmens,monuments_and_memorials,archaeology,burial_places,interesting_places,other_archaeological_sites,monuments",-6.06457,37.4132,España
N1405204674,Wat Yai Ban Bo,7.0,node/1405204674,Q98114782,"religion,buddhist_temples,interesting_places",100.183,13.513,Tailandia
N1405238265,Rimski most,7.0,node/1405238265,Q80593,"bridges,architecture,historic,archaeology,interesting_places,other_archaeological_sites,other_bridges",18.2861,43.8316,Bosnia y Herzegovina
N1406262013,David of Sasun,7.0,node/1406262013,Q16364238,"historic,monuments_and_memorials,urban_environment,cultural,interesting_places,sculptures,monuments",44.5095,40.1553,Armenia
N1408514496,Filovci,7.0,node/1408514496,Q283093,"historic,historical_places,interesting_places,historic_settlements",16.2989,46.6616,Eslovenia
N14099055,George Palmer,7.0,node/14099055,Q20712276,"historic,monuments_and_memorials,cultural,urban_environment,interesting_places,sculptures,monuments",-0.938616,51.4519,United Kingdom
N1410226586,Harichavank Monastery,7.0,node/1410226586,Q2671727,"religion,churches,monasteries,interesting_places,other_churches",43.9997,40.6065,Armenia
N1410597963,Farol de Aveiro,7.0,node/1410597963,Q3134299,"lighthouses,architecture,towers,interesting_places,other_towers",-8.74788,40.6428,Portugal
N1412651663,Museo Taima Taima,3.0,node/1412651663,Q3514036,"historic,archaeology,cultural,museums,interesting_places,other_museums,other_archaeological_sites",-69.522,11.4992,Venezuela
N1412962093,San Benedetto Po,7.0,node/1412962093,Q42943,"historic,historical_places,interesting_places,historic_settlements",10.9283,45.0419,Italia
N1413746245,Iglesia de La Merced,7.0,node/1413746245,Q5912483,"religion,churches,interesting_places,other_churches",-79.0269,-8.11123,Argentina
N1415573669,Baile Hill,7.0,node/1415573669,Q4848305,"fortifications,historic,archaeology,interesting_places,castles,other_archaeological_sites",-1.08312,53.9541,United Kingdom
N1415958734,Andranik,7.0,node/1415958734,Q20513295,"historic,monuments_and_memorials,interesting_places,monuments",43.8446,40.781,Armenia
N1415969663,Mother Armenia,7.0,node/1415969663,Q18128210,"historic,monuments_and_memorials,urban_environment,cultural,interesting_places,sculptures,monuments",43.8247,40.7805,Armenia
N1416912069,Vanis Kvabebi,7.0,node/1416912069,Q2304053,"religion,architecture,historic_architecture,monasteries,interesting_places,destroyed_objects",43.3076,41.3816,Geogia
N1418280061,Basílica del Sagrado Corazón de Jesús,1.0,node/1418280061,-1,"religion,other_temples,interesting_places",-78.6457,-1.674,Ecuador
N1418367390,Museos Casa de la Cultura,1.0,node/1418367390,-1,"cultural,museums,interesting_places,other_museums",-78.6528,-1.67041,Ecuador
N1419026328,Burgstall Falken,7.0,node/1419026328,Q1015736,"fortifications,historic,archaeology,interesting_places,castles,other_archaeological_sites",10.2748,47.88,Alemania
N1420063232,Châtel-Saint-Denis,7.0,node/1420063232,Q69517,"historic,historical_places,interesting_places,historic_settlements",6.89965,46.5265,Alemania
N1420739752,Former Hotta Estate,7.0,node/1420739752,Q11511015,"cultural,museums,interesting_places,other_museums",140.236,35.7141,Japón
N1420771104,Asakura Museum of Sculpture,7.0,node/1420771104,Q11517304,"biographical_museums,historic_house_museums,cultural,museums,interesting_places,history_museums,art_galleries",139.769,35.7268,Japón
N1420816949,Odawara Zoo,7.0,node/1420816949,Q1013437,"fortifications,historic,cultural,museums,interesting_places,zoos,other_fortifications",139.155,35.2508,Japón
N1420816954,Odawara Castle,7.0,node/1420816954,Q1013437,"fortifications,historic,cultural,museums,interesting_places,castles,other_museums",139.153,35.251,Japón
N1420834625,Tsuruoka Hachiman Shrine Treasure Hall,7.0,node/1420834625,Q701403,"religion,other_temples,cultural,museums,interesting_places,other_museums",139.556,35.3249,Japón
N1422961787,Kyoto art center,7.0,node/1422961787,Q6452114,"cultural,museums,interesting_places,other_museums",135.758,35.0057,Japón
N1423047791,Ichijō-ji,7.0,node/1423047791,Q3147650,"religion,buddhist_temples,cultural,museums,interesting_places,other_museums",134.819,34.8593,Japón
N1423618360,Iwami Ginzan Shiryōkan,7.0,node/1423618360,Q55530176,"cultural,museums,interesting_places,history_museums",132.448,35.1222,Japón
N1423629059,Itsukushima Shrine Museum,7.0,node/1423629059,Q191763,"religion,other_temples,cultural,museums,interesting_places,other_museums",132.319,34.2947,Japón
N1423656146,Iwakuni Chōkokan,7.0,node/1423656146,Q98456383,"cultural,museums,interesting_places,history_museums",132.177,34.1709,Japón
N1423758316,Dazaifu Tennmangu Treasure House,7.0,node/1423758316,Q710786,"religion,other_temples,cultural,museums,interesting_places,other_museums",130.535,33.5215,Japón
N1423985718,Tokugawa Art Museum,7.0,node/1423985718,Q3077236,"cultural,museums,interesting_places,art_galleries",136.933,35.1837,Japón
N1427422092,Joseph Lister Monument,7.0,node/1427422092,Q21541736,"historic,monuments_and_memorials,burial_places,urban_environment,cultural,interesting_places,other_burial_places,sculptures,monuments",-0.145994,51.5224,United Kingdom
N1427528389,Sturdivant Hall,7.0,node/1427528389,Q1747682,"cultural,museums,interesting_places,other_museums",-87.0289,32.413,United States
N1431242373,The Oaks House Museum,7.0,node/1431242373,Q7754598,"cultural,museums,interesting_places,other_museums",-90.1763,32.3083,United States
N1431432435,Glengorm Castle,7.0,node/1431432435,Q5568548,"fortifications,historic,interesting_places,castles",-6.17764,56.6365,United Kingdom
N1433539084,Velika Račna,7.0,node/1433539084,Q5541940,"historic,historical_places,interesting_places,historic_settlements",14.6902,45.9048,Eslovenia
N1435130153,Sheshequin Universalist Church,7.0,node/1435130153,Q16902345,"religion,other_temples,interesting_places",-76.4992,41.8745,United States
N1435156647,Iglesia Sagrados Corazones de San Carlos,1.0,node/1435156647,-1,"religion,other_temples,interesting_places",-78.5026,-0.129378,Ecuador
N1436558856,Pauček partisan hospitals,7.0,node/1436558856,Q18396745,"architecture,historic_architecture,interesting_places,other_buildings_and_structures",15.1712,46.5009,Eslovenia
N1444903676,Chiqueiro,7.0,node/1444903676,Q15053066,"historical_places,historic,interesting_places,historic_settlements",-8.23274,40.0864,Portugal
N1446051782,The Monastery of John of Zedazeni,7.0,node/1446051782,Q2363624,"religion,monasteries,interesting_places",44.7662,41.8708,Geogia
N1446075796,Port militaire de Carthage,7.0,node/1446075796,Q2743152,"historic,archaeology,interesting_places,other_archaeological_sites",10.3248,36.8456,Túnez
N1446164381,Isla Plana,7.0,node/1446164381,Q5723880,"architecture,historic_architecture,historical_places,historic,archaeology,interesting_places,baths_and_saunas,saunas,other_archaeological_sites,historic_settlements,amusements,other_buildings_and_structures",-1.20903,37.5749,España
N1447060517,Prem,7.0,node/1447060517,Q2357871,"historic,historical_places,interesting_places,historic_settlements",14.1832,45.6047,Eslovenia
N1453469565,Torrione di Via Prenestina,7.0,node/1453469565,Q56256447,"architecture,historic_architecture,historic,monuments_and_memorials,archaeology,interesting_places,destroyed_objects,other_archaeological_sites,monuments",12.5297,41.8921,Italia
N1454082735,Avetik Isahakyan,7.0,node/1454082735,Q16370033,"historic,monuments_and_memorials,urban_environment,cultural,interesting_places,sculptures,monuments",44.5218,40.1867,Armenia
N1455273183,Terlan - Terlano,7.0,node/1455273183,Q16609950,"railway_stations,industrial_facilities,interesting_places",11.2487,46.5285,Italia
N1459528357,Santo Cristo,7.0,node/1459528357,Q5912871,"religion,churches,interesting_places,other_churches",-77.0122,-12.045,Perú
N1461575533,Iglesia de Nuestra Señora de la Consolación,7.0,node/1461575533,Q30078443,"religion,churches,interesting_places,other_churches",-5.76382,37.8425,España
N1462696259,Saint Astvatsatsin Church,7.0,node/1462696259,Q13054778,"religion,churches,interesting_places,other_churches",44.5341,40.2217,Armenia
N1463993001,Vicente Rocafuerte,3.0,node/1463993001,Q18913445,"historic,monuments_and_memorials,interesting_places,monuments",-79.8816,-2.19199,Ecuador
N1464072722,Zvartnots,7.0,node/1464072722,Q505175,"settlements,historic,archaeology,interesting_places",44.3272,40.1698,Armenia
N1470948310,Wat Si Rong Mueang,7.0,node/1470948310,Q56119468,"religion,buddhist_temples,interesting_places",99.4809,18.2902,Tailandia
N1474268228,Ruesca,7.0,node/1474268228,Q34199739,"architecture,towers,fortifications,historic,interesting_places,castles,other_towers,fortified_towers",-1.48171,41.2825,España
N1486895412,Iron Pillar,7.0,node/1486895412,Q543419,"historic,urban_environment,archaeology,other_archaeological_sites,monuments_and_memorials,burial_places,cultural,interesting_places,other_burial_places,sculptures,monuments",77.1851,28.5248,India
N1492015943,Maienfeld,7.0,node/1492015943,Q64178,"historic,historical_places,interesting_places,historic_settlements",9.53092,47.0077,Alemania
N1493477380,Estación Placilla,7.0,node/1493477380,Q16564322,"railway_stations,industrial_facilities,interesting_places",-71.1205,-34.6376,Chile
N1496165543,Zuto Tower,7.0,node/1496165543,Q11664929,"religion,architecture,historic_architecture,other_temples,interesting_places,destroyed_objects,pyramids",135.839,34.6772,Japón
N1497131432,Burgstall Schlüsselstein,7.0,node/1497131432,Q1015913,"architecture,historic_architecture,historic,archaeology,interesting_places,destroyed_objects,other_archaeological_sites",11.2002,49.774,Alemania
N1504190266,Teatro Larranaga,7.0,node/1504190266,Q17274863,"cultural,theatres_and_entertainments,interesting_places,other_theatres",-57.9683,-31.3868,Uruguay
N1504213220,Museo del Hombre y la Tecnología,7.0,node/1504213220,Q957021,"cultural,museums,interesting_places,other_museums",-57.9691,-31.3858,Uruguay
N1511395335,Cranmore Tower,7.0,node/1511395335,Q5182227,"architecture,towers,interesting_places,observation_towers",-2.46425,51.2035,United Kingdom
N151336941,Panna Maria,7.0,node/151336941,Q4115369,"historic,historical_places,interesting_places,historic_settlements",-97.8975,28.9583,United States
N151364310,Raymond,7.0,node/151364310,Q7298856,"historic,historical_places,interesting_places,historic_districts,historic_settlements",-90.4226,32.2593,United States
N151364479,Moores Crossing,7.0,node/151364479,Q6908097,"historic,historical_places,interesting_places,historic_districts",-97.6638,30.1688,United States
N151372061,Shakespeare,7.0,node/151372061,Q7462781,"historic,historical_places,interesting_places,historic_settlements",-108.738,32.3259,United States
N1514331823,El Portal de San Antonio,7.0,node/1514331823,Q5748340,"religion,architecture,historic_architecture,churches,interesting_places,restaurants,foods,tourist_facilities,other_buildings_and_structures,other_churches",-76.5432,3.44803,Colombia
N151534909,Fischer,7.0,node/151534909,Q5454416,"historic,historical_places,interesting_places,historic_settlements",-98.2658,29.9769,United States
N1532708950,Mamure Kalesi,7.0,node/1532708950,Q1524213,"fortifications,historic,interesting_places,castles",32.8955,36.0815,Turquía
N153427231,Grove Hill,7.0,node/153427231,Q5611403,"historic,historical_places,interesting_places,historic_districts,historic_settlements",-87.7772,31.7088,United States
N153603552,Cahaba,7.0,node/153603552,Q2933087,"historic,historical_places,archaeology,interesting_places,other_archaeological_sites,historic_settlements",-87.103,32.3169,United States
N153612747,Fort Saint Phillip,7.0,node/153612747,Q5472085,"fortifications,historic,interesting_places,other_fortifications",-89.4648,29.3624,United States
N153614647,Monroeville,7.0,node/153614647,Q14679295,"historic,historical_places,interesting_places,historic_districts,historic_settlements",-87.3247,31.5279,United States
N153630120,Saint Stephens,7.0,node/153630120,Q1290746,"historic,historical_places,interesting_places,historic_settlements",-88.0553,31.5404,United States
N153637648,Oak Hill,7.0,node/153637648,Q7073581,"historic,historical_places,interesting_places,historic_districts,historic_settlements",-87.0828,31.921,United States
N153796159,Bagdad,7.0,node/153796159,Q4841514,"historic,historical_places,interesting_places,historic_districts,historic_settlements",-87.0311,30.5988,United States
N1538301988,Wat Matchantikaram,7.0,node/1538301988,Q17246552,"religion,buddhist_temples,interesting_places",100.518,13.8226,Tailandia
N1538872772,Miraflores Visitors Center,2.0,node/1538872772,Q100144719,"cultural,museums,interesting_places,other_museums",-79.5909,8.99724,Panamá
N1539285498,Nürnberg Hauptbahnhof,7.0,node/1539285498,Q682583,"railway_stations,industrial_facilities,interesting_places",11.0816,49.4465,Alemania
N153975721,Huron City,7.0,node/153975721,Q47004425,"historical_places,historic,interesting_places,historic_districts,historic_settlements",-82.8326,44.0293,United States
N1539859834,Wat Kuti Rai,7.0,node/1539859834,Q38267021,"architecture,historic_architecture,interesting_places,destroyed_objects",99.7866,17.4393,Tailandia
N1539859865,Wat Phra Sri Rattana Mahathat,7.0,node/1539859865,Q13020776,"religion,architecture,historic_architecture,buddhist_temples,interesting_places,destroyed_objects",99.8114,17.4293,Tailandia
N15477972,Gunzenhausen,7.0,node/15477972,Q721940,"railway_stations,industrial_facilities,interesting_places",10.7552,49.1204,Alemania
N1551726284,Miura Ayako Literature Museum,7.0,node/1551726284,Q11356532,"biographical_museums,cultural,museums,interesting_places",142.348,43.7536,Japón
N1556302102,Dubh Artach Lighthouse,7.0,node/1556302102,Q1262994,"lighthouses,architecture,towers,interesting_places,other_towers",-6.63572,56.1311,United Kingdom
N1556386877,South Bishop Lighthouse,7.0,node/1556386877,Q7566333,"lighthouses,architecture,towers,interesting_places,other_towers",-5.41189,51.8527,United Kingdom
N1559928399,Rio Negro Lighthouse,7.0,node/1559928399,Q5856309,"lighthouses,towers,architecture,interesting_places,other_towers",-62.839,-41.0578,Argentina
N1560739746,Affori,7.0,node/1560739746,Q3606188,"historic,historical_places,interesting_places,historic_districts",9.16965,45.517,Italia
N1562545059,Iglesia Parroquial de San Pedro,7.0,node/1562545059,Q19890794,"religion,churches,interesting_places,other_churches",-0.173754,40.1207,España
N1564050801,Tumulus dit Butte de la Hogue,7.0,node/1564050801,Q1798858,"tumuluses,historic,archaeology,burial_places,interesting_places,other_archaeological_sites",-0.362356,49.0957,France
N1567597873,Menhir des Demoiselles,7.0,node/1567597873,Q3305937,"megaliths,historic,monuments_and_memorials,archaeology,interesting_places,menhirs,monuments",-0.507006,49.2967,France
N1571735106,Porta Fiorentina,7.0,node/1571735106,Q55651670,"fortifications,defensive_walls,historic,interesting_places",10.6925,43.8988,Italia
N1571940335,Wat Amphawan Che Ti Ya Ram,7.0,node/1571940335,Q18121520,"religion,buddhist_temples,interesting_places",99.9536,13.4261,Tailandia
N1572033357,Wat Bang Kung,7.0,node/1572033357,Q13020714,"religion,buddhist_temples,interesting_places",99.9411,13.4461,Tailandia
N1573262140,Wat Nang Wang,7.0,node/1573262140,Q99507102,"religion,buddhist_temples,interesting_places",99.9628,13.4205,Tailandia
N1574109238,Església de l'Assumpció de Forcall,7.0,node/1574109238,Q17602031,"religion,churches,interesting_places,catholic_churches",-0.198049,40.6463,España
N157560095,Society Hill,7.0,node/157560095,Q1717906,"historical_places,historic,interesting_places,historic_districts",-75.1475,39.9444,United States
N157640622,Lyon Village,7.0,node/157640622,Q6709670,"historical_places,historic,interesting_places,historic_districts",-77.0965,38.893,United States
N1578472102,Karte Neckarbischofsheim,7.0,node/1578472102,Q1235134,"religion,churches,interesting_places,other_churches",8.9616,49.2948,Alemania
N158224276,Hampden,7.0,node/158224276,Q5645967,"historical_places,historic,interesting_places,historic_districts",-76.635,39.3309,United States
N1582440591,Inubōsaki Lighthouse,7.0,node/1582440591,Q6059232,"lighthouses,towers,architecture,interesting_places,other_towers",140.869,35.7079,Japón
N158247105,Colonial Village,7.0,node/158247105,Q14712201,"historical_places,historic,interesting_places,historic_settlements",-77.081,38.8924,United States
N158279983,Fricks Lock,7.0,node/158279983,Q5503408,"historical_places,historic,interesting_places,historic_settlements",-75.5955,40.2223,United States
N1583181884,Ingeniero Jacobacci,7.0,node/1583181884,Q5412591,"railway_stations,industrial_facilities,interesting_places",-69.5466,-41.3292,Argentina
N1583918308,Loudéac station,7.0,node/1583918308,Q2307126,"railway_stations,industrial_facilities,interesting_places",-2.76317,48.1803,France
N1584125768,Oqros Tsikhe Fortress,7.0,node/1584125768,Q16373920,"fortifications,historic,monuments_and_memorials,interesting_places,castles,monuments",42.7624,41.7085,Geogia
N1585424860,Burgruine Wulp,7.0,node/1585424860,Q1551542,"architecture,historic_architecture,fortifications,historic,archaeology,interesting_places,destroyed_objects,castles,other_archaeological_sites",8.60571,47.3216,Alemania
N158581799,Williamsport,7.0,node/158581799,Q8021273,"historical_places,historic,interesting_places,historic_districts,historic_settlements",-77.8205,39.6007,United States
N158605826,Waterville,7.0,node/158605826,Q7974546,"historical_places,historic,interesting_places,historic_districts,historic_settlements",-75.3799,42.9312,United States
N1586071745,Wat Phra Mahathat Voramahavihan,7.0,node/1586071745,Q2552354,"religion,buddhist_temples,interesting_places",99.9664,8.41109,Tailandia
N158627044,Guilford,7.0,node/158627044,Q5615899,"historical_places,historic,interesting_places,historic_districts",-76.6144,39.3396,United States
N158800794,Radburn,7.0,node/158800794,Q2738884,"historical_places,historic,interesting_places,historic_districts",-74.1188,40.9416,United States
N158804369,Fort George,7.0,node/158804369,Q5471215,"fortifications,historical_places,historic,interesting_places,historic_districts,other_fortifications",-68.8053,44.3909,United States
N158806084,Hallville,7.0,node/158806084,Q5643231,"historical_places,historic,interesting_places,historic_districts,historic_settlements",-72.0331,41.4934,United States
N158806984,Sharon Valley,7.0,node/158806984,Q7490253,"historical_places,historic,interesting_places,historic_districts,historic_settlements",-73.4923,41.884,United States
N158809148,Assonet,7.0,node/158809148,Q2868272,"historical_places,historic,interesting_places,historic_settlements",-71.0678,41.7959,United States
N158810367,Old Bennington,7.0,node/158810367,Q7083461,"historical_places,historic,interesting_places,historic_settlements",-73.2134,42.8834,United States
N158811360,City Point,7.0,node/158811360,Q5123371,"historical_places,historic,interesting_places,historic_districts",-72.9284,41.2832,United States
N158811410,Tappan,7.0,node/158811410,Q7684755,"historical_places,historic,interesting_places,historic_districts,historic_settlements",-73.9487,41.0225,United States
N158821705,Mill River,7.0,node/158821705,Q6858401,"historical_places,historic,interesting_places,historic_districts,historic_settlements",-73.2676,42.114,United States
N158822122,Grafton,7.0,node/158822122,Q25004805,"historical_places,historic,interesting_places,historic_districts,historic_settlements",-72.6066,43.1715,United States
N158837444,West Dover,7.0,node/158837444,Q22073360,"historical_places,historic,interesting_places,historic_settlements",-72.8531,42.9395,United States
N158840487,Chester Center,7.0,node/158840487,Q5093498,"historical_places,historic,interesting_places,historic_districts,historic_settlements",-72.9245,42.2904,United States
N158846837,Coleman Station,7.0,node/158846837,Q5143032,"historical_places,historic,interesting_places,historic_districts,historic_settlements",-73.5185,41.9018,United States
N158860380,South Glastonbury,7.0,node/158860380,Q4163743,"historical_places,historic,interesting_places,historic_districts,historic_settlements",-72.6028,41.6665,United States
N158860710,Flanders,7.0,node/158860710,Q5457367,"historical_places,historic,interesting_places,historic_districts,historic_settlements",-73.4551,41.7407,United States
N158862074,Days Ferry,7.0,node/158862074,Q23641770,"historical_places,historic,interesting_places,historic_districts",-69.8087,43.9492,United States
N158864514,West Whately,7.0,node/158864514,Q7986989,"historical_places,historic,interesting_places,historic_districts,historic_settlements",-72.6821,42.4378,United States
N158867933,Peacham,7.0,node/158867933,Q28153440,"historical_places,historic,interesting_places,historic_districts,historic_settlements",-72.1704,44.3285,United States
N158872569,Guildhall,7.0,node/158872569,Q28153439,"historical_places,historic,interesting_places,historic_districts,historic_settlements",-71.5604,44.5648,United States
N158877539,North Leverett,7.0,node/158877539,Q18155147,"historical_places,historic,interesting_places,historic_districts",-72.4926,42.5084,United States
N158892442,Overlook,7.0,node/158892442,Q31819519,"historical_places,historic,interesting_places,historic_districts,historic_settlements",-73.0482,41.5668,United States
N158896374,Mill Village,7.0,node/158896374,Q28153387,"historical_places,historic,interesting_places,historic_districts",-72.7473,44.3417,United States
N1591714998,Wat Bang Ka Phom,7.0,node/1591714998,Q18121549,"religion,buddhist_temples,interesting_places",99.9632,13.4148,Tailandia
N1591715126,Thesaban Wat Nag Wang School,7.0,node/1591715126,Q99507102,"religion,buddhist_temples,interesting_places",99.9629,13.4209,Tailandia
N1600298350,Fulda,7.0,node/1600298350,Q463931,"railway_stations,industrial_facilities,interesting_places",9.68438,50.5548,Alemania
N1602641101,Burgruine Rosegg,7.0,node/1602641101,Q1015487,"architecture,historic_architecture,fortifications,historic,interesting_places,destroyed_objects,castles",14.0248,46.5843,Austria
N1607991296,La Americana,7.0,node/1607991296,Q9018816,"architecture,historic_architecture,interesting_places,restaurants,cafes,foods,bars,tourist_facilities,other_buildings_and_structures",-58.4058,-34.6103,Argentina
N1611159432,Tradi Arte,1.0,node/1611159432,-1,"cultural,theatres_and_entertainments,interesting_places,other_theatres",-78.0004,-1.47709,Ecuador
N1613753272,Monastery of San Ginés de la Jara,7.0,node/1613753272,Q4407365,"religion,historical_places,historic,monasteries,interesting_places,historic_settlements",-0.822831,37.6413,España
N1615804784,Edelfingen,7.0,node/1615804784,Q46132346,"railway_stations,industrial_facilities,abandoned_railway_stations,interesting_places",9.74333,49.5129,Alemania
N1618384479,Angamarca,1.0,node/1618384479,-1,"religion,other_temples,interesting_places",-78.6177,-1.00615,Ecuador
N1628610190,Catedral de San Felipe,7.0,node/1628610190,Q5758564,"religion,cathedrals,interesting_places",-70.7244,-32.7502,Chile
N1628628258,Wat Maha Wan,7.0,node/1628628258,Q108337637,"religion,buddhist_temples,interesting_places",99.0033,18.5789,Tailandia
N1628628260,Wat Cham Thewi,7.0,node/1628628260,Q1799983,"religion,buddhist_temples,interesting_places",98.9963,18.5815,Tailandia
N1629604393,Castelo de Torres Vedras,7.0,node/1629604393,Q5049838,"fortifications,historic,interesting_places,castles",-9.26108,39.0946,Portugal
N1630327801,Coves del Cogul,7.0,node/1630327801,Q3390174,"settlements,historic,archaeology,geological_formations,natural,interesting_places,caves",0.696934,41.4647,España
N1632756090,TEMPLO HISTORICO,7.0,node/1632756090,Q3517681,"architecture,historic_architecture,interesting_places,destroyed_objects",-72.4626,7.82933,Colombia
N1635520395,Kantang,7.0,node/1635520395,Q6633206,"railway_stations,industrial_facilities,interesting_places",99.5148,7.41101,Tailandia
N1636360947,Swainston Manor,7.0,node/1636360947,Q7653046,"architecture,historic_architecture,accomodations,interesting_places,manor_houses,other_hotels",-1.37677,50.6884,United Kingdom
N1641043404,Khao Ok Thalu,7.0,node/1641043404,Q6400447,"mountain_peaks,geological_formations,natural,interesting_places",100.09,7.62914,Tailandia
N1641697605,Ermita de Santa Ana,7.0,node/1641697605,Q5655003,"religion,other_temples,interesting_places",-0.454942,40.1245,España
N1642202473,Old Madeley Manor,7.0,node/1642202473,Q6726977,"architecture,historic_architecture,fortifications,historic,interesting_places,manor_houses,destroyed_objects,castles",-2.34008,52.9775,United Kingdom
N1642946489,Burgruine Alt-Montfort,7.0,node/1642946489,Q15051232,"architecture,historic_architecture,fortifications,historic,interesting_places,destroyed_objects,castles",9.66601,47.3118,Austria
N1643188023,Miécourt,7.0,node/1643188023,Q668794,"historic,historical_places,interesting_places,historic_settlements",7.17476,47.4271,Alemania
N1643213557,Wat Khuha Sawan,7.0,node/1643213557,Q30312858,"religion,buddhist_temples,interesting_places",100.08,7.61996,Tailandia
N1643353934,Buschelberg,7.0,node/1643353934,Q1017310,"fortifications,historic,archaeology,interesting_places,castles,other_archaeological_sites",10.656,48.2988,Alemania
N1643913460,Las Violetas,7.0,node/1643913460,Q6553463,"architecture,historic_architecture,interesting_places,cafes,foods,tourist_facilities,other_buildings_and_structures",-58.4209,-34.6113,Argentina
N165005871,Kamikochi,7.0,node/165005871,Q1048234,"other,unclassified_objects,interesting_places,historic_object",137.636,36.2462,Japón
N1652929683,Vojsko,7.0,node/1652929683,Q60360182,"religion,churches,interesting_places,other_churches",13.9031,46.0238,Eslovenia
N1655253968,Kilpeck Castle,7.0,node/1655253968,Q17640925,"architecture,historic_architecture,fortifications,historic,interesting_places,destroyed_objects,castles",-2.81052,51.97,United Kingdom
N1658963947,Sanbangsan,7.0,node/1658963947,Q12600001,"mountain_peaks,geological_formations,natural,interesting_places,volcanoes",126.315,33.2441,Corea del Sur
N166078169,Aberystwyth Castle,7.0,node/166078169,Q319745,"architecture,historic_architecture,fortifications,historic,archaeology,interesting_places,destroyed_objects,castles,other_archaeological_sites",-4.08952,52.4133,United Kingdom
N1662718950,Fontaine publique,7.0,node/1662718950,Q14628611,"fountains,historic,monuments_and_memorials,urban_environment,cultural,interesting_places,sculptures,monuments",7.38763,47.6833,France
N1665866703,Qing'an Guild Hall Temple,7.0,node/1665866703,Q11062726,"cultural,museums,interesting_places,other_museums",121.559,29.875,China
N1674038922,Santa Maria del Mar,7.0,node/1674038922,Q22893601,"religion,churches,interesting_places,other_churches",1.12986,41.0761,España
N1678482317,Nation Bank,7.0,node/1678482317,Q9054506,"architecture,historic_architecture,interesting_places,banks,bank,tourist_facilities,other_buildings_and_structures",-58.3868,-34.603,Argentina
N1680803098,Monolito Barbado,7.0,node/1680803098,Q9034613,"architecture,historic_architecture,interesting_places,destroyed_objects",-68.6725,-16.5548,Bolivia
N1685927757,Château du Kochersberg,7.0,node/1685927757,Q1012697,"architecture,historic_architecture,fortifications,historic,interesting_places,destroyed_objects,castles",7.52991,48.6649,France
N1693200440,Château de Blain,7.0,node/1693200440,Q2749729,"fortifications,historic,interesting_places,castles",-1.76484,47.4657,France
N1701062194,Kunturwasi,7.0,node/1701062194,Q1792721,"architecture,historic_architecture,historic,archaeology,interesting_places,destroyed_objects,other_archaeological_sites",-78.825,-7.12206,Perú
N1703101156,Las Pozas,7.0,node/1703101156,Q11688402,"urban_environment,gardens_and_parks,cultural,interesting_places",-98.9967,21.3965,México
N1704846086,Burg Altwinnenden,7.0,node/1704846086,Q1010792,"towers,architecture,fortifications,historic,interesting_places,castles,other_towers",9.44015,48.8811,Alemania
N1712912810,Tower of Hercules,7.0,node/1712912810,Q245151,"view_points,other,architecture,towers,fortifications,historic,other_towers,fortified_towers,lighthouses,monuments_and_memorials,interesting_places,monuments",-8.40649,43.386,España
N1714498341,Sidbury Castle,7.0,node/1714498341,Q7508010,"fortifications,historic,monuments_and_memorials,archaeology,interesting_places,other_archaeological_sites,hillforts,monuments",-3.23573,50.7152,United Kingdom
N1717160542,Iglesia San Carlos de Borromeo,7.0,node/1717160542,Q6446637,"religion,churches,interesting_places,other_churches",-65.9301,-25.893,Argentina
N1718097186,Velike Loče,7.0,node/1718097186,Q556099,"historic,historical_places,interesting_places,historic_settlements",14.0572,45.5666,Eslovenia
N1725186678,Museo archeologico di Aidone,7.0,node/1725186678,Q3867682,"archaeological_museums,cultural,museums,interesting_places,history_museums",14.4474,37.4136,Italia
N1725535102,Gedenkstein für vier Husaren und drei Dragoner,7.0,node/1725535102,Q37774093,"historic,monuments_and_memorials,burial_places,interesting_places,war_memorials,monuments",15.4423,47.013,Austria
N1727027821,Burgruine Straßfried,7.0,node/1727027821,Q737948,"architecture,historic_architecture,fortifications,historic,interesting_places,destroyed_objects,castles",13.6609,46.5497,Austria
N1728415724,Kotosh,7.0,node/1728415724,Q2669852,"historic,archaeology,interesting_places,other_archaeological_sites",-76.2789,-9.93194,Perú
N1728415960,Wiñay Wayna,7.0,node/1728415960,Q1585056,"historic,archaeology,interesting_places,other_archaeological_sites",-72.5374,-13.1906,Perú
N1728416285,Pakatnamu,7.0,node/1728416285,Q16254649,"historic,archaeology,interesting_places,other_archaeological_sites",-79.5806,-7.3175,Perú
N1728416362,Pañamarka,7.0,node/1728416362,Q9057204,"historic,archaeology,interesting_places,other_archaeological_sites",-78.3717,-9.20917,Perú
N1728416578,Ruinas Ventanillas de Otuzco,7.0,node/1728416578,Q2045826,"historic,archaeology,interesting_places,other_archaeological_sites",-78.4575,-7.125,Perú
N1728416736,Tambo Colorado,7.0,node/1728416736,Q1513848,"historic,archaeology,interesting_places,other_archaeological_sites",-75.8289,-13.7061,Perú
N1728424202,Rupac,7.0,node/1728424202,Q26939478,"historic,archaeology,interesting_places,other_archaeological_sites",-76.8045,-11.3254,Perú
N1728425420,Sechin Bajo,7.0,node/1728425420,Q6123107,"historic,archaeology,interesting_places,other_archaeological_sites",-78.2648,-9.46458,Perú
N1732345683,Iglesia de Shunguna,1.0,node/1732345683,-1,"religion,other_temples,interesting_places",-79.0252,-1.60265,Ecuador
N1732856572,Iglesia de Chañaral,7.0,node/1732856572,Q16577528,"religion,churches,interesting_places,other_churches",-70.6219,-26.3478,Chile
N1735884331,Hitoyoshi Castle,7.0,node/1735884331,Q8011484,"architecture,historic_architecture,fortifications,historic,interesting_places,destroyed_objects,other_fortifications",130.767,32.2112,Japón
N1736728952,Rossena,7.0,node/1736728952,Q63495732,"fortifications,historic,historical_places,interesting_places,castles,historic_settlements",10.426,44.5821,Italia
N1740676688,Schloss Mochental,7.0,node/1740676688,Q2242440,"architecture,historic_architecture,interesting_places,restaurants,foods,tourist_facilities,other_buildings_and_structures",9.60476,48.2652,Alemania
N1741659272,Ksani Fortress,7.0,node/1741659272,Q12870372,"architecture,historic_architecture,fortifications,historic,interesting_places,destroyed_objects,castles",44.5778,41.876,Geogia
N1752913332,Pré d'Air dolmen,7.0,node/1752913332,Q3034157,"megaliths,historic,dolmens,monuments_and_memorials,archaeology,burial_places,interesting_places,monuments",-2.0662,47.0982,France
N1754574641,Tomb of Abdul Rahim Khan I Khana,7.0,node/1754574641,Q41650978,"historic,monuments_and_memorials,burial_places,archaeology,interesting_places,other_archaeological_sites,other_burial_places,monuments",77.248,28.5881,India
N1758984123,War Memorial,7.0,node/1758984123,Q6901135,"historic,burial_places,interesting_places,war_memorials",-2.71122,51.8131,United Kingdom
N1760430283,Ruine Rottenstein,7.0,node/1760430283,Q38079869,"architecture,historic_architecture,fortifications,historic,interesting_places,destroyed_objects,castles",14.4146,46.571,Austria
N1762068869,Skelmorlie Castle,7.0,node/1762068869,Q7534501,"fortifications,historic,interesting_places,castles",-4.88493,55.8518,United Kingdom
N1762867354,Museo Michelangiolesco,7.0,node/1762867354,Q3868403,"cultural,museums,interesting_places,art_galleries",11.9857,43.6444,Italia
N1765209405,Bessimo Superiore,7.0,node/1765209405,Q18472299,"historic,historical_places,interesting_places,historic_settlements",10.149,45.8697,Italia
N1766410993,Ascensor Barón,7.0,node/1766410993,Q5707950,"railway_stations,industrial_facilities,historic,monuments_and_memorials,interesting_places,monuments",-71.604,-33.0429,Chile
N1766513276,Ascensor Espíritu Santo,7.0,node/1766513276,Q16533223,"historic,monuments_and_memorials,interesting_places,monuments",-71.6212,-33.0474,Chile
N1766633220,Castell de Passanant,7.0,node/1766633220,Q11913074,"fortifications,historic,interesting_places,castles",1.1959,41.5321,España
N1767553166,Momijidani River Erosion Control Works Guide,7.0,node/1767553166,Q22120642,"industrial_facilities,dams,urban_environment,gardens_and_parks,cultural,interesting_places",132.326,34.2928,Japón
N1768324509,Volksschule St. Ulrich im Greith,7.0,node/1768324509,Q27919510,"religion,churches,interesting_places,other_churches",15.321,46.7152,Austria
N1770256921,"Lee Abbey Christian Conference, Retreat and Holiday Centre",7.0,node/1770256921,Q6512924,"religion,other_temples,historical_places,historic,interesting_places,historic_districts",-3.86565,51.2278,United Kingdom
N1774361614,Estación Central,7.0,node/1774361614,Q28163126,"railway_stations,industrial_facilities,cultural,cinemas,theatres_and_entertainments,interesting_places",-70.6784,-33.4529,Chile
N1784398926,"Church of San Andrés, Olmedo",7.0,node/1784398926,Q5909858,"religion,architecture,historic_architecture,churches,interesting_places,destroyed_objects,catholic_churches",-4.68803,41.2873,España
N1785723073,Shimizu Lighthouse,7.0,node/1785723073,Q11561057,"lighthouses,towers,architecture,interesting_places,other_towers",138.53,35.0106,Japón
N1789873399,Gare du Palais,7.0,node/1789873399,Q276785,"railway_stations,industrial_facilities,interesting_places",-71.2144,46.8183,Canada
N1790066866,Allée couverte de la Hautière,7.0,node/1790066866,Q22925451,"megaliths,historic,dolmens,monuments_and_memorials,archaeology,burial_places,interesting_places,monuments",-2.19118,48.5552,France
N1797291179,Devizes Castle,7.0,node/1797291179,Q5267588,"fortifications,historic,interesting_places,castles",-1.99775,51.351,United Kingdom
N1800203547,Inamuragasaki 1-chome,7.0,node/1800203547,Q11596647,"historic,historical_places,interesting_places,historic_districts,historic_settlements",139.526,35.3042,Japón
N1800668527,Wat Pa Pradu School,7.0,node/1800668527,Q1702650,"religion,buddhist_temples,interesting_places",101.278,12.6825,Tailandia
N1802469579,Feraklos Castle,7.0,node/1802469579,Q27061866,"architecture,historic_architecture,fortifications,historic,interesting_places,destroyed_objects,castles",28.0982,36.1706,Grecia
N1806604106,Historic Rock-cut Cellars,7.0,node/1806604106,Q1404238,"architecture,historic_architecture,interesting_places,other_buildings_and_structures",11.0759,49.4564,Alemania
N1811857904,Karain cave,7.0,node/1811857904,Q1062421,"geological_formations,natural,interesting_places,caves",30.5706,37.0778,Turquía
N1815344324,Tungurahua,3.0,node/1815344324,Q207421,"mountain_peaks,geological_formations,natural,interesting_places,volcanoes",-78.4492,-1.46691,Ecuador
N1816345209,museo internazionale delle marionette Antonio Pasqualino,7.0,node/1816345209,Q1954250,"cultural,museums,interesting_places,other_museums",13.3706,38.1185,Italia
N1816639758,San Pedro de Alcantara,7.0,node/1816639758,Q2837571,"architecture,historic_architecture,interesting_places,restaurants,foods,tourist_facilities,other_buildings_and_structures",-71.8356,-34.7689,Chile
N1819036714,Bärbach,7.0,node/1819036714,Q970302,"religion,historic,historical_places,monasteries,interesting_places,historic_settlements",7.99503,50.3168,Alemania
N1820021040,Miho Shrine,7.0,node/1820021040,Q11489249,"religion,other_temples,interesting_places",138.521,35.0001,Japón
N1820833123,Château de Brignac,7.0,node/1820833123,Q22979489,"fortifications,historic,interesting_places,castles",-0.33239,47.6205,France
N1831484891,Menhir des Faux,7.0,node/1831484891,Q3305939,"megaliths,historic,monuments_and_memorials,archaeology,interesting_places,menhirs,monuments",-1.51963,47.1593,France
N1835148412,Birtvisi,7.0,node/1835148412,Q4917129,"fortifications,historic,interesting_places,castles",44.5399,41.607,Geogia
N1835925512,Iglesia de San Francisco,7.0,node/1835925512,Q5910183,"religion,other_temples,interesting_places",-76.6086,2.4434,Colombia
N1838858878,Anavarza Castle,7.0,node/1838858878,Q219525,"settlements,fortifications,historic,archaeology,interesting_places,castles",35.9018,37.2523,Turquía
N1840023594,Duddon Furnace,7.0,node/1840023594,Q5311681,"architecture,historic_architecture,interesting_places,destroyed_objects",-3.2355,54.284,United Kingdom
N1842659765,Patmos,7.0,node/1842659765,Q12882473,"historic,historical_places,interesting_places,historic_settlements",26.5464,37.3091,Grecia
N1842686955,Arch of Charenc,7.0,node/1842686955,Q20507956,"historic,monuments_and_memorials,interesting_places,monuments",44.6366,40.1736,Armenia
N1847076645,Iglesia Julio Moreno,1.0,node/1847076645,-1,"religion,other_temples,interesting_places",-79.033,-1.59204,Ecuador
N1848800698,Brüningbrunnen,7.0,node/1848800698,Q997034,"fountains,urban_environment,cultural,natural_springs,natural,interesting_places,springs_others",8.54616,50.1,Alemania
N1854055726,Wat Phnom Da,7.0,node/1854055726,Q986338,"historic,archaeology,interesting_places,other_archaeological_sites",104.989,10.9645,Camboya
N1864393414,Nova Gorica,7.0,node/1864393414,Q3970319,"railway_stations,industrial_facilities,interesting_places",13.6356,45.9552,Eslovenia
N1865044936,Museo del Carmen,7.0,node/1865044936,Q56318282,"cultural,museums,interesting_places,other_museums",-70.7661,-33.5105,Chile
N1865212751,Policarpa Salavarrieta,3.0,node/1865212751,Q125816,"historic,monuments_and_memorials,cultural,urban_environment,interesting_places,sculptures,monuments",-74.0675,4.60166,Colombia
N1875557706,Belper Mills,7.0,node/1875557706,Q4884648,"factories,industrial_facilities,interesting_places",-1.48582,53.0278,United Kingdom
N1881532766,Villa Los Penitentes,7.0,node/1881532766,Q3259759,"historic,historical_places,archaeology,interesting_places,other_archaeological_sites,historic_settlements",-69.8412,-32.8411,Argentina
N1883305093,Glen Line Building,7.0,node/1883305093,Q11111157,"architecture,historic_architecture,interesting_places,other_buildings_and_structures",121.486,31.2428,China
N1886588069,Wat Pradoobangjak,7.0,node/1886588069,Q16004328,"religion,buddhist_temples,interesting_places",100.456,13.7231,Tailandia
N1886728422,Santo Adriao Fountain,7.0,node/1886728422,Q10283324,"architecture,historic,urban_environment,restaurants,tourist_facilities,fountains,historic_architecture,monuments_and_memorials,cultural,interesting_places,foods,sculptures,monuments,other_buildings_and_structures",-8.41098,41.5422,Portugal
N1886961362,Memorial of Expeditionary Force,7.0,node/1886961362,Q13023636,"historic,monuments_and_memorials,burial_places,interesting_places,war_memorials,monuments",100.493,13.7582,Tailandia
N1886961632,Mae Toranee Statue,7.0,node/1886961632,Q13024171,"religion,other_temples,interesting_places",100.495,13.7566,Tailandia
N1888176574,Museo San Francisco,7.0,node/1888176574,Q5910160,"religion,churches,cultural,museums,interesting_places,other_museums,other_churches",-78.5162,-7.15803,Perú
N1905407805,Menhirs de Kerfland,7.0,node/1905407805,Q22990320,"megaliths,historic,archaeology,interesting_places",-4.2753,47.8262,France
N1907079334,Two Lights,7.0,node/1907079334,Q5034765,"lighthouses,architecture,towers,interesting_places,other_towers",-70.2,43.5661,United States
N1908903921,Paso de Uspallata,7.0,node/1908903921,Q1561072,"other,unclassified_objects,interesting_places,historic_object",-70.0708,-32.8247,Argentina
N1909481128,Colonial Ethnographic Museum Juan de Garay,7.0,node/1909481128,Q10862986,"religion,monasteries,cultural,museums,interesting_places,other_museums",-60.7087,-31.6587,Argentina
N1909481129,Convento de San Francisco,7.0,node/1909481129,Q10862986,"religion,monasteries,interesting_places",-60.71,-31.6596,Panamá
N1910083195,Bočna,7.0,node/1910083195,Q2390598,"historic,historical_places,interesting_places,historic_settlements",14.8541,46.2895,Eslovenia
N1910106247,Kernourz dolmen,7.0,node/1910106247,Q1235878,"tumuluses,historic,dolmens,monuments_and_memorials,archaeology,burial_places,interesting_places,other_archaeological_sites,monuments",-2.95675,47.6349,France
N1910147366,Casona de El Carmen,7.0,node/1910147366,Q6058695,"religion,palaces,architecture,historic_architecture,churches,interesting_places,other_churches",-3.50593,43.4119,España
N1912464484,Manoir d'Émiéville,7.0,node/1912464484,Q22963872,"architecture,historic_architecture,interesting_places,manor_houses,farms",-0.219016,49.1629,France
N1912757272,Museum aft. Hovhanes Hovhanisyan,7.0,node/1912757272,Q16388700,"biographical_museums,cultural,museums,interesting_places",44.2928,40.1636,Armenia
N1915094154,La Maison d'Anneville,7.0,node/1915094154,Q22963166,"fortifications,historic,interesting_places,castles",-1.2891,49.6335,France
N1915346803,Frog King fountain,7.0,node/1915346803,Q15720952,"historic,urban_environment,natural_springs,natural,springs_others,monuments_and_memorials,cultural,interesting_places,sculptures,monuments",15.4671,47.0667,Austria
N1918767666,Maruoka Castle,7.0,node/1918767666,Q1143892,"fortifications,historic,interesting_places,castles",136.272,36.1524,Japón
N1921487081,Wat Si Chum,7.0,node/1921487081,Q56119431,"religion,buddhist_temples,interesting_places",99.5001,18.2844,Tailandia
N1922224279,Isla Pinguino Lighthouse,7.0,node/1922224279,Q5856188,"lighthouses,towers,architecture,interesting_places,other_towers",-65.7191,-47.914,
N1922226295,Faro Punta Delgada,7.0,node/1922226295,Q5856257,"lighthouses,towers,architecture,interesting_places,other_towers",-63.6371,-42.7663,Chile
N1928292967,Nahuel Pan,7.0,node/1928292967,Q5843873,"railway_stations,industrial_facilities,interesting_places",-71.176,-42.9577,Argentina
N1932068150,Casa Museo Ricardo Palma,7.0,node/1932068150,Q96756883,"biographical_museums,historic_house_museums,cultural,museums,interesting_places,history_museums",-77.0276,-12.1184,Perú
N1932068156,Museo del Banco Central de Reserva del Perú,7.0,node/1932068156,Q42849962,"national_museums,cultural,museums,interesting_places",-77.0301,-12.0481,Perú
N1932068186,Museo Convento de Santo Domingo,7.0,node/1932068186,Q5722131,"religion,churches,cultural,museums,interesting_places,other_museums,other_churches",-77.0316,-12.0441,Perú
N1932068250,Plaza de toros de Acho,7.0,node/1932068250,Q2744878,"sport,architecture,historic_architecture,interesting_places,stadiums,other_buildings_and_structures",-77.0233,-12.0414,Perú
N1932068313,Puruchuco,7.0,node/1932068313,Q2615433,"historic,archaeology,cultural,museums,interesting_places,other_museums,other_archaeological_sites",-76.9344,-12.0481,Perú
N1932068320,Museo de Sitio Huallamarca,7.0,node/1932068320,Q9005094,"architecture,historic_architecture,historic,archaeology,cultural,museums,interesting_places,pyramids,other_museums,other_archaeological_sites",-77.0402,-12.0968,Perú
N1932068321,Huaca Pucllana In-Site Museum,7.0,node/1932068321,Q677387,"historic,archaeology,cultural,museums,interesting_places,other_museums,other_archaeological_sites",-77.0334,-12.1111,Perú
N1932672579,"Château de la Roche, Doubs",7.0,node/1932672579,Q2969580,"fortifications,historic,interesting_places,castles",6.19169,47.401,France
N1937262733,Pierre du Domaine,7.0,node/1937262733,Q22927000,"megaliths,historic,monuments_and_memorials,archaeology,interesting_places,menhirs,monuments",-1.81388,48.5092,France
N1937775752,Ascensor Florida,7.0,node/1937775752,Q16533228,"historic,monuments_and_memorials,interesting_places,monuments",-71.6193,-33.0495,Chile
N1937775754,Ascensor Florida,7.0,node/1937775754,Q16533228,"historic,monuments_and_memorials,interesting_places,monuments",-71.6205,-33.0502,Chile
N1937775756,Ascensor Larraín,7.0,node/1937775756,Q16533233,"railway_stations,industrial_facilities,historic,monuments_and_memorials,interesting_places,monuments",-71.6026,-33.0465,Chile
N1937775761,Ascensor Larraín,7.0,node/1937775761,Q16533233,"railway_stations,industrial_facilities,historic,monuments_and_memorials,interesting_places,monuments",-71.602,-33.0467,Chile
N1937775763,Ascensor Cerro Los Lecheros,7.0,node/1937775763,Q16533238,"railway_stations,industrial_facilities,historic,monuments_and_memorials,interesting_places,monuments",-71.6029,-33.0444,Chile
N1937775768,Ascensor Monjas,7.0,node/1937775768,Q16533246,"railway_stations,industrial_facilities,historic,monuments_and_memorials,interesting_places,monuments",-71.6139,-33.052,Chile
N1937775769,Ascensor Monjas,7.0,node/1937775769,Q16533246,"railway_stations,industrial_facilities,historic,monuments_and_memorials,interesting_places,monuments",-71.6148,-33.0526,Chile
N1937775773,Ascensor San Agustín,7.0,node/1937775773,Q16533255,"railway_stations,industrial_facilities,historic,monuments_and_memorials,interesting_places,monuments",-71.6324,-33.0404,Chile
N1937775775,Ascensor San Agustín,7.0,node/1937775775,Q16533255,"railway_stations,industrial_facilities,historic,monuments_and_memorials,interesting_places,monuments",-71.6319,-33.0405,Chile
N1938470550,Ascensor Carlos van Buren,7.0,node/1938470550,Q16533263,"railway_stations,industrial_facilities,historic,monuments_and_memorials,interesting_places,monuments",-71.6105,-33.0516,Chile
N1938470554,Ascensor Carlos van Buren,7.0,node/1938470554,Q16533263,"railway_stations,industrial_facilities,historic,monuments_and_memorials,interesting_places,monuments",-71.6104,-33.0518,Chile
N1941881796,Château d'Olonde,7.0,node/1941881796,Q22979504,"fortifications,historic,interesting_places,castles",-1.65039,49.344,France
N1941980717,Dolmen des Trois Pierres,7.0,node/1941980717,Q3034134,"megaliths,historic,dolmens,monuments_and_memorials,archaeology,burial_places,interesting_places,monuments",-2.20603,47.2796,France
N1945044787,Morioka Castle,7.0,node/1945044787,Q251650,"fortifications,historic,interesting_places,castles",141.15,39.7001,Japón
N1945272848,"Palais Universitaire, Strasbourg",7.0,node/1945272848,Q3361224,"architecture,historic_architecture,interesting_places,banks,bank,tourist_facilities,other_buildings_and_structures",7.76307,48.5859,France
N1946250346,Hachigata Castle,7.0,node/1946250346,Q2969388,"architecture,historic_architecture,fortifications,historic,interesting_places,destroyed_objects,castles",139.196,36.1093,Japón
N1948765554,Kasugayama Castle,7.0,node/1948765554,Q1197131,"fortifications,historic,interesting_places,castles",138.206,37.1468,Japón
N1948889842,Yamanaka Fort Ruins,7.0,node/1948889842,Q8047874,"architecture,historic_architecture,fortifications,historic,interesting_places,destroyed_objects,castles",138.992,35.1564,Japón
N1950577373,Château de Franquetot,7.0,node/1950577373,Q22963210,"fortifications,historic,interesting_places,castles",-1.3932,49.3317,France
N1950779723,Buckfast Abbey,7.0,node/1950779723,Q999611,"religion,monasteries,interesting_places",-3.77536,50.493,United Kingdom
N1957083510,Ptghni Church,7.0,node/1957083510,Q2353723,"religion,other_temples,interesting_places",44.5841,40.255,Armenia
N1957113285,Ervand Kochar Museum,7.0,node/1957113285,Q13052794,"biographical_museums,cultural,museums,interesting_places",44.5162,40.1884,Armenia
N1957114625,SERGEY PARAJANOV MUSEUM,7.0,node/1957114625,Q7453721,"biographical_museums,cultural,museums,interesting_places,art_galleries",44.5001,40.1789,Armenia
N1964845179,Wernerkapelle,7.0,node/1964845179,Q1386789,"religion,churches,interesting_places,other_churches",7.7236,50.1102,Alemania
N1967209289,Església del Sagrat Cor,7.0,node/1967209289,Q18004027,"religion,churches,interesting_places,other_churches",0.577613,40.706,España
N1968369604,Office de toursime de Saint-Philbert-de-Grand-Lieu,7.0,node/1968369604,Q2401119,"religion,churches,interesting_places,other_churches",-1.64068,47.0389,France
N1971135978,Pelourinho de Palmela,7.0,node/1971135978,Q10348156,"architecture,historic_architecture,interesting_places,other_buildings_and_structures",-8.89967,38.5678,Portugal
N1972658962,Palacio Barolo,7.0,node/1972658962,Q571763,"skyscrapers,architecture,interesting_places",-58.3858,-34.6096,Argentina
N197504455,Saint-Maurice,7.0,node/197504455,Q69545,"historic,historical_places,interesting_places,historic_settlements",7.00452,46.2198,France
N1978951459,State Agricultural University,7.0,node/1978951459,Q8213985,"architecture,historic_architecture,interesting_places,other_buildings_and_structures",44.5254,40.1907,Armenia
N1978951462,"""Yerevan State Medical University""",7.0,node/1978951462,Q2082826,"architecture,historic_architecture,interesting_places,other_buildings_and_structures",44.5245,40.1882,Armenia
N1979454156,Pregarje,7.0,node/1979454156,Q1969802,"historic,historical_places,interesting_places,historic_settlements",14.1344,45.5792,Eslovenia
N198397290,Pueblo Liebig,7.0,node/198397290,Q7258456,"historic,historical_places,interesting_places,historic_settlements",-58.1929,-32.155,Argentina
N198408160,San José palace,7.0,node/198408160,Q2483110,"national_museums,palaces,architecture,historic_architecture,cultural,museums,interesting_places,history_museums",-58.5239,-32.4266,Argentina
N198414310,Puerto San Julián,7.0,node/198414310,Q955668,"historic,historical_places,interesting_places,historic_settlements",-67.7298,-49.307,Argentina
N198414366,Puerto Santa Cruz,7.0,node/198414366,Q932809,"historic,historical_places,interesting_places,historic_settlements",-68.5231,-50.0192,Argentina
N198414983,Purmamarca,7.0,node/198414983,Q1025405,"historic,historical_places,interesting_places,historic_settlements",-65.4992,-23.7461,Argentina
N198424777,Santa Rosa de Tastil,7.0,node/198424777,Q370723,"historic,historical_places,archaeology,interesting_places,other_archaeological_sites,historic_settlements",-65.9519,-24.4509,Argentina
N198437014,Yapeyú,7.0,node/198437014,Q55854,"historic,historical_places,interesting_places,historic_settlements",-56.8164,-29.4667,Argentina
N198437091,Yavi,7.0,node/198437091,Q1024040,"historic,historical_places,interesting_places,historic_settlements",-65.4623,-22.1311,Argentina
N198453670,José de San Martín,7.0,node/198453670,Q1015513,"historic,historical_places,interesting_places,historic_settlements",-70.4706,-44.0515,Argentina
N1986388742,Murray Springs Clovis Site,7.0,node/1986388742,Q6939471,"historic,archaeology,interesting_places,other_archaeological_sites",-110.179,31.5705,United States
N1991622297,Rothenburg Castle,7.0,node/1991622297,Q179549,"architecture,historic_architecture,fortifications,historic,interesting_places,destroyed_objects,castles",7.57554,49.0246,France
N2001818936,Great St Bernard Pass,7.0,node/2001818936,Q623424,"other,unclassified_objects,interesting_places,historic_object",7.17088,45.8689,Alemania
N2004300269,Capilla de Tegua,7.0,node/2004300269,Q25404103,"religion,other_temples,interesting_places",-64.2828,-32.6402,Argentina
N2004728367,Teatro Juares,7.0,node/2004728367,Q6139768,"cultural,theatres_and_entertainments,interesting_places,other_theatres",-69.3163,10.0657,Venezuela
N2013879310,Avenue H,7.0,node/2013879310,Q2338494,"railway_stations,industrial_facilities,interesting_places",-73.9616,40.6293,United States
N2018208570,Porta San Giovanni,7.0,node/2018208570,Q2104896,"fortifications,defensive_walls,historic,archaeology,interesting_places,other_archaeological_sites",12.5093,41.8859,Italia
N2021222109,Chōkyū temple,7.0,node/2021222109,Q11652985,"religion,buddhist_temples,interesting_places",135.727,34.7186,Japón
N2023937613,"Iglesia María Magdalena, Pueblo Libre",7.0,node/2023937613,Q42850567,"religion,other_temples,interesting_places",-77.0633,-12.0782,Perú
N2024730426,GR 89,7.0,node/2024730426,Q1032560,"architecture,historic_architecture,historical_places,historic,water,natural,interesting_places,canals,historic_settlements,other_buildings_and_structures",-4.73678,41.6678,España
N2028343800,Begunje,7.0,node/2028343800,Q814409,"historic,historical_places,interesting_places,historic_settlements",14.1998,46.3746,Eslovenia
N2030457748,Labor / Laura,7.0,node/2030457748,Q3272823,"historic,historical_places,interesting_places,historic_settlements",13.7732,45.4761,Eslovenia
N2030458261,Boršt,7.0,node/2030458261,Q762689,"historic,historical_places,interesting_places,historic_settlements",13.7982,45.4853,Eslovenia
N2032299657,Palestra Sannitica,7.0,node/2032299657,Q3891745,"architecture,historic_architecture,interesting_places,destroyed_objects",14.488,40.7489,Italia
N2038426438,Bar Britanico,7.0,node/2038426438,Q16535985,"architecture,historic_architecture,interesting_places,cafes,foods,bars,tourist_facilities,other_buildings_and_structures",-58.371,-34.6253,Argentina
N2047626332,Bamberger Bahnhof,7.0,node/2047626332,Q800444,"railway_stations,industrial_facilities,interesting_places",10.8983,49.9003,Alemania
N2050764158,"Cathedral of Mercedes, Uruguay",7.0,node/2050764158,Q5758499,"religion,cathedrals,interesting_places",-58.0301,-33.2488,Uruguay
N2052100211,Fowler House,7.0,node/2052100211,Q8565171,"architecture,historic_architecture,interesting_places,other_buildings_and_structures",-97.3228,30.1151,United States
N2052100249,Jenkins House,7.0,node/2052100249,Q6177605,"architecture,historic_architecture,interesting_places,other_buildings_and_structures",-97.3205,30.1188,United States
N2052100263,White House,7.0,node/2052100263,Q7994844,"architecture,historic_architecture,interesting_places,other_buildings_and_structures",-97.3198,30.1144,United States
N2052185892,Kerr Community Center,7.0,node/2052185892,Q6394315,"architecture,historic_architecture,interesting_places,other_buildings_and_structures",-97.3118,30.1086,United States
N2052185904,T. A. Hasler House,7.0,node/2052185904,Q14711347,"architecture,historic_architecture,interesting_places,other_buildings_and_structures",-97.3173,30.1125,United States
N2052220939,Bee County Courthouse,7.0,node/2052220939,Q54871487,"architecture,historic_architecture,interesting_places,other_buildings_and_structures",-97.7485,28.4014,United States
N2052220941,NAS Chase Field - Building 1001,7.0,node/2052220941,Q6952558,"architecture,historic_architecture,interesting_places,other_buildings_and_structures",-97.6637,28.3732,United States
N2052220942,NAS Chase Field - Building 1009,7.0,node/2052220942,Q6952558,"architecture,historic_architecture,interesting_places,other_buildings_and_structures",-97.6614,28.3731,United States
N2052220944,NAS Chase Field - Building 1042,7.0,node/2052220944,Q6952558,"architecture,historic_architecture,interesting_places,other_buildings_and_structures",-97.6608,28.3727,United States
N2052220945,NAS Chase Field - Quarters R,7.0,node/2052220945,Q6952558,"architecture,historic_architecture,interesting_places,other_buildings_and_structures",-97.6642,28.3744,United States
N2054888800,Puente romano de Masegoso,7.0,node/2054888800,Q4966441,"roman_bridges,bridges,architecture,historic,monuments_and_memorials,archaeology,interesting_places,other_archaeological_sites,monuments",-2.14734,41.7638,España
N2055364709,Casa Solans,7.0,node/2055364709,Q8341677,"historic,monuments_and_memorials,interesting_places,monuments",-0.867657,41.6608,España
N2055889044,Faro de Cabo Polonio,7.0,node/2055889044,Q5856367,"lighthouses,towers,architecture,interesting_places,other_towers",-53.7778,-34.4054,Uruguay
N2056465882,Sant Salvador,7.0,node/2056465882,Q47171108,"religion,churches,interesting_places,other_churches",0.98895,41.8409,España
N2058688260,Whitford,7.0,node/2058688260,Q7996468,"railway_stations,industrial_facilities,interesting_places",-75.6381,40.0146,United States
N2062223647,Santa Eulalia,7.0,node/2062223647,Q9018423,"historical_places,historic,interesting_places,historic_settlements",-0.850454,38.5682,España
N2066042913,Prang Khaek,7.0,node/2066042913,Q3401317,"towers,architecture,historic_architecture,interesting_places,destroyed_objects,other_towers",100.612,14.8023,Tailandia
N2066970671,Sapara,7.0,node/2066970671,Q7420914,"religion,historic,historical_places,monasteries,interesting_places,historic_settlements",43.0311,41.6019,Geogia
N207115320,Porta Calcinara,7.0,node/207115320,Q100271582,"architecture,historic_architecture,fortifications,defensive_walls,historic,interesting_places,destroyed_objects",9.14925,45.1823,Italia
N2071876333,Basilica of the Immaculate Conception,7.0,node/2071876333,Q4867409,"religion,churches,interesting_places,other_churches",-93.0877,31.7612,United States
N2074158265,Teatro Municipal de Iquique,7.0,node/2074158265,Q6139822,"cultural,theatres_and_entertainments,interesting_places,other_theatres",-70.1524,-20.2148,Chile
N2075162134,Château de Wendel,7.0,node/2075162134,Q22959742,"fortifications,historic,interesting_places,castles",6.07074,49.325,France
N2077419755,Wat Nok,7.0,node/2077419755,Q106938054,"architecture,historic_architecture,historic,archaeology,interesting_places,destroyed_objects,other_archaeological_sites",100.567,14.3561,Tailandia
N2077632382,Santa Maria,7.0,node/2077632382,Q18007638,"religion,churches,interesting_places,other_churches",1.08759,41.47,España
N2077688926,Sant Jaume,7.0,node/2077688926,Q28057482,"religion,churches,interesting_places,other_churches",1.01747,41.5614,España
N2078630168,Castell de Castellnou d'Ossó,7.0,node/2078630168,Q11680594,"fortifications,historic,interesting_places,castles",1.14427,41.768,España
N2079322203,Wat Thung Si Muang,7.0,node/2079322203,Q57833223,"religion,buddhist_temples,interesting_places",104.861,15.2303,Tailandia
N2080804375,Kunouzan Toshogu,7.0,node/2080804375,Q712162,"religion,other_temples,interesting_places",138.468,34.9648,Japón
N2084544446,Ghoom,7.0,node/2084544446,Q60181073,"railway_stations,industrial_facilities,interesting_places",88.2536,27.0084,India
N2088966959,Castelo Novo,7.0,node/2088966959,Q1024355,"historical_places,historic,interesting_places,historic_districts,historic_settlements",-7.49538,40.078,Portugal
N2089869683,Mare de Déu del Lledó de Valls,7.0,node/2089869683,Q15407990,"religion,churches,interesting_places,other_churches",1.252,41.2891,España
N2090403361,Wat Dokmai,7.0,node/2090403361,Q16004169,"railway_stations,industrial_facilities,religion,buddhist_temples,interesting_places",100.525,13.6824,Tailandia
N2093188429,Wat Phra Non Khon Muang,7.0,node/2093188429,Q13020758,"religion,buddhist_temples,interesting_places",98.9778,18.8453,Tailandia
N2095992767,Ringwallanlage Buschelberg,7.0,node/2095992767,Q1017310,"fortifications,historic,archaeology,interesting_places,castles,other_archaeological_sites",10.6539,48.2969,Alemania
N2095992768,Ringwallanlage Buschelberg,7.0,node/2095992768,Q1017310,"fortifications,historic,archaeology,interesting_places,castles,other_archaeological_sites",10.6571,48.2975,Alemania
N2095992769,Ringwallanlage Buschelberg,7.0,node/2095992769,Q1017310,"fortifications,historic,archaeology,interesting_places,castles,other_archaeological_sites",10.6551,48.2996,Alemania
N2105949495,The Aviator Statue - James Rogers McConnell,7.0,node/2105949495,Q14713293,"historic,monuments_and_memorials,cultural,urban_environment,interesting_places,sculptures,monuments",-78.5058,38.0364,United States
N2106295440,Kompolje,7.0,node/2106295440,Q2703046,"historic,historical_places,interesting_places,historic_settlements",15.2658,46.0402,Eslovenia
N2118702237,Ascensor Cordillera,7.0,node/2118702237,Q5707956,"railway_stations,industrial_facilities,historic,monuments_and_memorials,interesting_places,monuments",-71.6306,-33.038,Chile
N2118702244,Ascensor Cordillera,7.0,node/2118702244,Q5707956,"railway_stations,industrial_facilities,historic,monuments_and_memorials,interesting_places,monuments",-71.6302,-33.0378,Chile
N2118707971,Artillería funicular railway,7.0,node/2118707971,Q4801155,"railway_stations,industrial_facilities,historic,monuments_and_memorials,interesting_places,monuments",-71.6301,-33.0337,Chile
N2119505577,Mare de Déu d'Horta d'Ivars d'Urgell,7.0,node/2119505577,Q17619046,"religion,churches,interesting_places,other_churches",0.991837,41.6813,España
N2119505578,Mare de Déu d'Horta d'Ivars d'Urgell,7.0,node/2119505578,Q17619046,"religion,churches,interesting_places,other_churches",0.991634,41.6803,España
N2120525368,Inuyama Castle Tourist Information,7.0,node/2120525368,Q1155484,"fortifications,historic,interesting_places,other_fortifications",136.938,35.3863,Japón
N2120569991,Església de Nostra Senyora de l'Assumpció,7.0,node/2120569991,Q5909505,"religion,churches,interesting_places,other_churches",-1.20563,39.5672,España
N2122906064,Museo de la Casa de Castañares,7.0,node/2122906064,Q20015064,"cultural,museums,interesting_places,history_museums",-65.3959,-24.7318,Argentina
N2127719602,Dolmen de Roscasquen,7.0,node/2127719602,Q22926431,"megaliths,historic,dolmens,monuments_and_memorials,archaeology,burial_places,interesting_places,monuments",-3.51234,47.8642,France
N2128423970,Teatro Municipal de Valencia,7.0,node/2128423970,Q9082177,"cultural,theatres_and_entertainments,interesting_places,other_theatres",-68.0063,10.1824,Venezuela
N2131396854,Nirayama Reverberatory Furnaces,7.0,node/2131396854,Q20042067,"architecture,historic_architecture,interesting_places,other_buildings_and_structures",138.962,35.0397,Japón
N2133325245,Faro de San Juan de Salvamento,7.0,node/2133325245,Q3378548,"lighthouses,towers,architecture,interesting_places,other_towers",-63.8569,-54.7324,Argentina
N2137276238,Batalla de Pichincha,2.0,node/2137276238,Q1402751,"historic,battlefields,historical_places,interesting_places",-78.5275,-0.218714,Ecuador
N2137315334,Combate de Riobamba,3.0,node/2137315334,Q3019677,"historic,battlefields,historical_places,interesting_places",-78.7003,-1.60483,Ecuador
N2137755757,Santa Cecília del Tarròs,7.0,node/2137755757,Q28841904,"religion,churches,interesting_places,other_churches",1.03363,41.7079,España
N214190981,Oficina Pedro de Valdivia,7.0,node/214190981,Q6049300,"historic,historical_places,interesting_places,historic_settlements",-69.6695,-22.5961,Chile
N214200463,Montegrande,7.0,node/214200463,Q16608822,"historic,historical_places,interesting_places,historic_settlements",-70.4944,-30.0939,Chile
N214202783,Caleta Tortel,7.0,node/214202783,Q200955,"historic,historical_places,interesting_places,historic_settlements",-73.5376,-47.8035,Chile
N214228350,Sewell,7.0,node/214228350,Q588417,"historic,historical_places,interesting_places,historic_settlements",-70.3829,-34.0849,Chile
N2142452305,Fireman's Drinking Fountain,7.0,node/2142452305,Q5451890,"fountains,historic,monuments_and_memorials,cultural,urban_environment,interesting_places,sculptures,monuments",-75.613,40.752,United States
N2143378412,The Old Mill,7.0,node/2143378412,Q7084525,"guest_houses,architecture,historic_architecture,accomodations,interesting_places,foods,bars,tourist_facilities,other_buildings_and_structures",-79.4929,43.6507,Canada
N2143890047,Betalov spodmol,7.0,node/2143890047,Q10428977,"historic,archaeology,interesting_places,other_archaeological_sites",14.1878,45.7922,Eslovenia
N2143998226,Kanazawa Citizens' Art Center,7.0,node/2143998226,Q11647432,"architecture,historic_architecture,interesting_places,other_buildings_and_structures",136.64,36.5684,Japón
N2146147851,Kazuemachi,7.0,node/2146147851,Q11368794,"historic,historical_places,urban_environment,cultural,interesting_places,historic_districts,squares",136.664,36.5723,Japón
N2150848970,Trethevy Quoit,7.0,node/2150848970,Q1403777,"megaliths,historic,dolmens,archaeology,burial_places,interesting_places",-4.45543,50.4932,United Kingdom
N2152896668,Creu del Terme,7.0,node/2152896668,Q20901160,"religion,other_temples,interesting_places",0.442934,40.5919,España
N2158247319,Catedral,7.0,node/2158247319,Q16490514,"religion,architecture,historic_architecture,churches,interesting_places,restaurants,foods,tourist_facilities,other_buildings_and_structures,other_churches",-60.7099,-31.6569,Colombia
N2159348006,Menhir de la Baudouinais,7.0,node/2159348006,Q22926895,"megaliths,historic,monuments_and_memorials,archaeology,interesting_places,menhirs,monuments",-1.39591,48.2259,France
N2166050864,Balthayock Castle,7.0,node/2166050864,Q17844840,"architecture,historic_architecture,fortifications,historic,interesting_places,manor_houses,castles",-3.33933,56.3915,United Kingdom
N2169513303,Restaurante Huaca Pucllana,7.0,node/2169513303,Q677387,"architecture,historic_architecture,historic,archaeology,interesting_places,other_archaeological_sites,restaurants,foods,tourist_facilities,other_buildings_and_structures",-77.033,-12.1111,Perú
N2177334018,Santa Cruz Church,7.0,node/2177334018,Q5885120,"religion,churches,interesting_places,other_churches",-8.42414,41.5494,Tailandia
N2180540247,Cerro Gaital,3.0,node/2180540247,Q5762999,"mountain_peaks,geological_formations,natural,interesting_places",-80.1235,8.62462,Panamá
N2181536063,Santa Fe,7.0,node/2181536063,Q17389618,"religion,churches,interesting_places,other_churches",1.36008,41.5431,España
N2182066777,Pelourinho de Ponte da Barca,7.0,node/2182066777,Q10348172,"architecture,historic_architecture,interesting_places,other_buildings_and_structures",-8.42052,41.8087,Portugal
N2183905593,Banc-reposoir napoléonien,7.0,node/2183905593,Q14628636,"architecture,historic_architecture,interesting_places,other_buildings_and_structures",7.24214,48.8697,France
N218549971,Vardzia,7.0,node/218549971,Q691813,"religion,fortifications,historic,historical_places,monasteries,interesting_places,castles,historic_settlements",43.2845,41.381,Geogia
N2186441528,Santuario di Santa Maria Aula Regia,7.0,node/2186441528,Q24913059,"religion,churches,interesting_places,other_churches",12.1721,44.6999,Italia
N2187020333,Oflings,7.0,node/2187020333,Q1013418,"fortifications,historic,interesting_places,castles",9.84582,47.7067,Alemania
N218883287,Tipón,7.0,node/218883287,Q2003624,"architecture,historic_architecture,historic,archaeology,interesting_places,destroyed_objects,other_archaeological_sites",-71.7838,-13.571,Perú
N2191179638,Santa Maria de Vallsanta,7.0,node/2191179638,Q6021546,"religion,architecture,historic_architecture,monasteries,interesting_places,destroyed_objects",1.16205,41.5669,España
N2192860700,Església de Sant Gallard,7.0,node/2192860700,Q17602095,"religion,churches,interesting_places,other_churches",1.39161,41.513,España
N2196765773,Wat Phra That Khao Noi,7.0,node/2196765773,Q13017426,"religion,buddhist_temples,interesting_places",100.751,18.7695,Tailandia
N2198699522,Boca del Drago,2.0,node/2198699522,Q104540817,"other,unclassified_objects,interesting_places,tourist_object",-82.3311,9.41456,Panamá
N2199502251,Manoir de Gonneville,7.0,node/2199502251,Q3286186,"architecture,historic_architecture,fortifications,historic,interesting_places,manor_houses,castles",-1.58732,49.0813,France
N2202721738,Millers Run Covered Bridge,7.0,node/2202721738,Q897004,"view_points,other,bridges,architecture,interesting_places,other_bridges",-72.01,44.542,United States
N2202721740,Sanborn Covered Bridge,7.0,node/2202721740,Q28124192,"view_points,other,bridges,architecture,interesting_places,other_bridges",-72.0009,44.5441,United States
N2202727411,Mount Orne Covered Bridge,7.0,node/2202727411,Q14629040,"view_points,other,bridges,architecture,interesting_places,other_bridges",-71.6527,44.4602,United States
N2202863060,Fisher Covered Railroad Bridge,7.0,node/2202863060,Q22073303,"view_points,other,bridges,architecture,interesting_places,other_bridges",-72.4278,44.5323,United States
N2202867971,Jaynes Covered Bridge,7.0,node/2202867971,Q28124198,"view_points,other,interesting_places",-72.7562,44.712,United States
N2202883130,Larkin Covered Bridge,7.0,node/2202883130,Q28123631,"view_points,other,bridges,architecture,interesting_places,other_bridges",-72.4654,43.923,United States
N2203515987,Sant Martí de les Piles,7.0,node/2203515987,Q18007067,"religion,churches,interesting_places,other_churches",1.34228,41.5036,España
N2203931291,Bartonsville Covered Bridge,7.0,node/2203931291,Q4865725,"view_points,other,bridges,architecture,interesting_places,other_bridges",-72.5368,43.2239,United States
N2203931296,Creamery Covered Bridge,7.0,node/2203931296,Q22073301,"bridges,architecture,interesting_places,other_bridges",-72.5858,42.8498,United States
N2203946798,Williamsville Covered Bridge,7.0,node/2203946798,Q23823832,"view_points,other,bridges,architecture,interesting_places,other_bridges",-72.6868,42.9429,United States
N2203954765,Willard Twin Covered Bridges,7.0,node/2203954765,Q28123666,"view_points,other,bridges,architecture,interesting_places,other_bridges",-72.3497,43.5937,United States
N2206002147,Itzenplitz 2,7.0,node/2206002147,Q1550017,"industrial_facilities,abandoned_mineshafts,mineshafts,interesting_places",7.09269,49.3529,Alemania
N2206002148,Itzenplitz 3,7.0,node/2206002148,Q1550017,"industrial_facilities,abandoned_mineshafts,mineshafts,interesting_places",7.09223,49.3531,Alemania
N2207570062,Brest,7.0,node/2207570062,Q2255490,"railway_stations,industrial_facilities,interesting_places",-4.48009,48.3877,France
N2212067430,Wat Pha Khao Pan,7.0,node/2212067430,Q59614398,"religion,buddhist_temples,interesting_places",100.088,20.2777,Tailandia
N2218137438,Château de Gréolières,7.0,node/2218137438,Q15944479,"architecture,historic_architecture,fortifications,historic,interesting_places,destroyed_objects,castles",6.9426,43.7949,France
N2218699046,Mendig,7.0,node/2218699046,Q801173,"railway_stations,industrial_facilities,interesting_places",7.29102,50.3696,Alemania
N2230835962,San Fransisco,7.0,node/2230835962,Q5116751,"religion,churches,interesting_places,other_churches",-78.5145,-0.220483,Ecuador
N2240285031,Rock-carved Seated Buddha of Beopjusa Temple,7.0,node/2240285031,Q484931,"religion,buddhist_temples,historic,archaeology,interesting_places,other_archaeological_sites",127.832,36.5414,Corea del Sur
N2240285179,Stone Standing Bodhisattva of Beopjusa Temple,7.0,node/2240285179,Q484931,"religion,buddhist_temples,historic,archaeology,interesting_places,other_archaeological_sites",127.833,36.5424,Corea del Sur
N2240285212,Stone Lantern of the Four Guardian Kings at Beopjusa Temple,7.0,node/2240285212,Q484931,"religion,buddhist_temples,historic,archaeology,interesting_places,other_archaeological_sites",127.833,36.5425,Corea del Sur
N2248515658,Kibyra,7.0,node/2248515658,Q1643467,"settlements,historic,archaeology,interesting_places",29.4916,37.1596,Turquía
N2259047388,Santisima Cruz de los Milagros,7.0,node/2259047388,Q16915912,"religion,churches,interesting_places,other_churches",-58.8402,-27.4721,Argentina
N2260257903,Rüdberg castle ruin,7.0,node/2260257903,Q29786711,"architecture,historic_architecture,fortifications,historic,archaeology,interesting_places,destroyed_objects,castles,other_archaeological_sites",9.08829,47.3498,Alemania
N2261309382,Mayravanq,7.0,node/2261309382,Q21513737,"religion,monasteries,interesting_places",44.6894,40.4853,Armenia
N2261309386,Kaptavanq,7.0,node/2261309386,Q42972120,"religion,churches,interesting_places,other_churches",44.6961,40.3285,Armenia
N2262105229,San Romedio,7.0,node/2262105229,Q1283479,"religion,churches,interesting_places,other_churches",11.1067,46.3689,Italia
N2266613531,Bundesfestung Ulm,7.0,node/2266613531,Q50709,"fortifications,historic,interesting_places,castles",9.98461,48.4115,Alemania
N2266660204,Aparan Basilica,7.0,node/2266660204,Q2664877,"religion,churches,interesting_places,other_churches",44.3567,40.5934,Armenia
N2268894728,Charles Wesley & Samuel Wesley,7.0,node/2268894728,Q5083451,"biographical_museums,historic_house_museums,cultural,museums,interesting_places,history_museums",-2.59238,51.4603,United Kingdom
N2270104135,Panadería Plaza Páez,7.0,node/2270104135,Q6079766,"architecture,historic_architecture,interesting_places,shops,bakeries,tourist_facilities,other_buildings_and_structures",-66.9252,10.4908,Venezuela
N2271243041,Municipal,7.0,node/2271243041,Q9082170,"architecture,historic_architecture,cultural,theatres_and_entertainments,interesting_places,other_theatres,restaurants,foods,tourist_facilities,other_buildings_and_structures",-66.9173,10.5016,Venezuela
N2272933285,Ermita de San Miguel,7.0,node/2272933285,Q5836151,"religion,churches,interesting_places,catholic_churches",-4.17605,42.9379,España
N2273752702,Château de Tourville,7.0,node/2273752702,Q22979554,"fortifications,historic,interesting_places,castles",-1.32896,49.5189,France
N2275111021,Ussuriysk drama theatre,7.0,node/2275111021,Q4453465,"cultural,theatres_and_entertainments,interesting_places,music_venues",131.945,43.792,Rusia
N2276227277,Historisches Stadttheater,7.0,node/2276227277,Q124849,"religion,other_temples,cultural,theatres_and_entertainments,interesting_places,other_theatres",10.1565,48.3052,Alemania
N2281099893,Saint Hakob Church,7.0,node/2281099893,Q16399811,"religion,churches,interesting_places,other_churches",44.535,40.2203,Armenia
