[{"xid": "W477208865", "name": "Railway Museum", "rate": 7, "osm": "way/477208865", "wikidata": "Q20016778", "kinds": "cultural,museums,interesting_places,museums_of_science_and_technology,railway_museums", "point": {"lon": -70.6855697631836, "lat": -33.443023681640625}}, {"xid": "N8197637768", "name": "National Museum of Fine Arts", "rate": 7, "osm": "node/8197637768", "wikidata": "Q775376", "kinds": "national_museums,cultural,museums,interesting_places,art_galleries", "point": {"lon": -70.64344024658203, "lat": -33.435367584228516}}, {"xid": "W203637539", "name": "Fuerte La Planchada", "rate": 7, "osm": "way/203637539", "wikidata": "Q5861129", "kinds": "fortifications,historic,interesting_places,other_fortifications", "point": {"lon": -72.99592590332031, "lat": -36.736568450927734}}, {"xid": "W147350352", "name": "Iglesia de Las Carmelitas", "rate": 7, "osm": "way/147350352", "wikidata": "Q39082140", "kinds": "religion,other_temples,interesting_places", "point": {"lon": -72.11054992675781, "lat": -36.60499572753906}}, {"xid": "W173380683", "name": "Buen Pastor", "rate": 7, "osm": "way/173380683", "wikidata": "Q16493425", "kinds": "religion,other_temples,interesting_places", "point": {"lon": -70.66049194335938, "lat": -33.42601013183594}}, {"xid": "W221141596", "name": "Escuela Pedro Quintana Mansilla", "rate": 7, "osm": "way/221141596", "wikidata": "Q16563663", "kinds": "architecture,historic_architecture,interesting_places,other_buildings_and_structures", "point": {"lon": -72.07134246826172, "lat": -45.57049560546875}}, {"xid": "W637360967", "name": "Ex Asilo de las Hermanitas de los Pobres de Santiago", "rate": 7, "osm": "way/637360967", "wikidata": "Q16488991", "kinds": "architecture,historic_architecture,interesting_places,other_buildings_and_structures", "point": {"lon": -70.63825225830078, "lat": -33.45969772338867}}, {"xid": "W313299263", "name": "Casa Central de la Pontificia Universidad Cat\u00f3lica de Valpara\u00edso", "rate": 7, "osm": "way/313299263", "wikidata": "Q5754117", "kinds": "historic,monuments_and_memorials,interesting_places,monuments", "point": {"lon": -71.60567474365234, "lat": -33.04487609863281}}, {"xid": "W476366464", "name": "hotel la perla", "rate": 7, "osm": "way/476366464", "wikidata": "Q9018816", "kinds": "architecture,historic_architecture,accomodations,interesting_places,other_hotels,cafes,foods,bars,tourist_facilities,other_buildings_and_structures", "point": {"lon": -58.40571212768555, "lat": -34.61041259765625}}, {"xid": "N4612980698", "name": "Academia Buenos Aires", "rate": 7, "osm": "node/4612980698", "wikidata": "Q1024829", "kinds": "historic,monuments_and_memorials,cultural,museums,interesting_places,other_museums,monuments", "point": {"lon": -58.37432098388672, "lat": -34.608829498291016}}, {"xid": "N1937775761", "name": "Ascensor Larra\u00edn", "rate": 7, "osm": "node/1937775761", "wikidata": "Q16533233", "kinds": "railway_stations,industrial_facilities,historic,monuments_and_memorials,interesting_places,monuments", "point": {"lon": -71.60197448730469, "lat": -33.04668045043945}}, {"xid": "N5536306685", "name": "Escuela Nacional 18 Rio Corintos", "rate": 7, "osm": "node/5536306685", "wikidata": "Q5838727", "kinds": "architecture,historic_architecture,interesting_places,other_buildings_and_structures", "point": {"lon": -71.39801788330078, "lat": -43.0877799987793}}, {"xid": "N1607991296", "name": "La Americana", "rate": 7, "osm": "node/1607991296", "wikidata": "Q9018816", "kinds": "architecture,historic_architecture,interesting_places,restaurants,cafes,foods,bars,tourist_facilities,other_buildings_and_structures", "point": {"lon": -58.4057731628418, "lat": -34.61028289794922}}, {"xid": "R3494827", "name": "Mart\u00edn Garc\u00eda Island", "rate": 7, "osm": "relation/3494827", "wikidata": "Q719903", "kinds": "natural,interesting_places,islands,other_islands", "point": {"lon": -58.25126266479492, "lat": -34.1826057434082}}, {"xid": "N370752749", "name": "Cerro El Plomo", "rate": 7, "osm": "node/370752749", "wikidata": "Q1324530", "kinds": "mountain_peaks,geological_formations,natural,interesting_places", "point": {"lon": -70.21444702148438, "lat": -33.236839294433594}}, {"xid": "W256575707", "name": "Iglesia de San Pedro", "rate": 7, "osm": "way/256575707", "wikidata": "Q16577792", "kinds": "religion,churches,interesting_places,other_churches", "point": {"lon": -70.64768981933594, "lat": -33.43525314331055}}, {"xid": "W374149682", "name": "Iglesia de Guayac\u00e1n", "rate": 7, "osm": "way/374149682", "wikidata": "Q5909244", "kinds": "religion,other_temples,interesting_places", "point": {"lon": -71.34664154052734, "lat": -29.966970443725586}}, {"xid": "W36001728", "name": "Plaza Independencia", "rate": 7, "osm": "way/36001728", "wikidata": "Q2099121", "kinds": "urban_environment,cultural,interesting_places,squares", "point": {"lon": -56.19975662231445, "lat": -34.90647506713867}}, {"xid": "W9937501", "name": "Buenos Aires Botanical Garden", "rate": 7, "osm": "way/9937501", "wikidata": "Q831148", "kinds": "urban_environment,gardens_and_parks,cultural,interesting_places", "point": {"lon": -58.417259216308594, "lat": -34.58259963989258}}, {"xid": "W219731998", "name": "Museo Sitio de Memoria ESMA", "rate": 7, "osm": "way/219731998", "wikidata": "Q28663704", "kinds": "cultural,museums,interesting_places,other_museums", "point": {"lon": -58.46532440185547, "lat": -34.536678314208984}}, {"xid": "N807252331", "name": "Casa de Antonio Montero", "rate": 7, "osm": "node/807252331", "wikidata": "Q1046531", "kinds": "cultural,museums,interesting_places,other_museums", "point": {"lon": -56.207008361816406, "lat": -34.90641403198242}}, {"xid": "W655715531", "name": "Casa do Ex-Presidente Jo\u00e3o Goulart", "rate": 7, "osm": "way/655715531", "wikidata": "Q65971000", "kinds": "cultural,museums,interesting_places,other_museums", "point": {"lon": -56.00392150878906, "lat": -28.6596622467041}}, {"xid": "W293947112", "name": "Cabildo de Buenos Aires", "rate": 7, "osm": "way/293947112", "wikidata": "Q1024829", "kinds": "national_museums,historic,monuments_and_memorials,cultural,museums,interesting_places,history_museums,monuments", "point": {"lon": -58.37370300292969, "lat": -34.60889434814453}}, {"xid": "R2639206", "name": "Igua\u00e7u National Park", "rate": 7, "osm": "relation/2639206", "wikidata": "Q742315", "kinds": "urban_environment,gardens_and_parks,cultural,museums,natural,interesting_places,nature_reserves,other_museums,national_parks", "point": {"lon": -53.77687072753906, "lat": -25.37560272216797}}, {"xid": "W317143547", "name": "Cabildo", "rate": 7, "osm": "way/317143547", "wikidata": "Q5202722", "kinds": "cultural,museums,interesting_places,other_museums", "point": {"lon": -64.18437194824219, "lat": -31.41631317138672}}, {"xid": "W350761720", "name": "Posta de Yatasto", "rate": 7, "osm": "way/350761720", "wikidata": "Q8050174", "kinds": "cultural,museums,interesting_places,other_museums", "point": {"lon": -64.94977569580078, "lat": -25.5900821685791}}, {"xid": "N767690911", "name": "Buenos Aires Cabildo", "rate": 7, "osm": "node/767690911", "wikidata": "Q1024829", "kinds": "national_museums,historic,monuments_and_memorials,cultural,museums,interesting_places,history_museums,monuments", "point": {"lon": -58.37388229370117, "lat": -34.608768463134766}}, {"xid": "W32841204", "name": "Plaza Arsenales de Guerra", "rate": 7, "osm": "way/32841204", "wikidata": "Q16565561", "kinds": "urban_environment,gardens_and_parks,cultural,interesting_places", "point": {"lon": -70.65769958496094, "lat": -33.4558219909668}}, {"xid": "W127256445", "name": "Museo Ferroviario Pablo Neruda", "rate": 7, "osm": "way/127256445", "wikidata": "Q6033577", "kinds": "urban_environment,gardens_and_parks,cultural,museums,interesting_places,museums_of_science_and_technology,railway_museums", "point": {"lon": -72.570556640625, "lat": -38.72744369506836}}, {"xid": "N214228350", "name": "Sewell", "rate": 7, "osm": "node/214228350", "wikidata": "Q588417", "kinds": "historic,historical_places,interesting_places,historic_settlements", "point": {"lon": -70.38294219970703, "lat": -34.08488464355469}}, {"xid": "N410025424", "name": "Iglesia de las Carmelitas", "rate": 7, "osm": "node/410025424", "wikidata": "Q39082140", "kinds": "religion,other_temples,interesting_places", "point": {"lon": -72.1103515625, "lat": -36.60497283935547}}, {"xid": "W800856131", "name": "Iglesia de San Agust\u00edn", "rate": 7, "osm": "way/800856131", "wikidata": "Q47373340", "kinds": "religion,churches,interesting_places,other_churches", "point": {"lon": -71.21085357666016, "lat": -33.6865348815918}}, {"xid": "W224914981", "name": "Museo de la Ciudad de Luj\u00e1n", "rate": 7, "osm": "way/224914981", "wikidata": "Q5738206", "kinds": "cultural,museums,interesting_places,local_museums", "point": {"lon": -59.123111724853516, "lat": -34.562950134277344}}, {"xid": "W173065810", "name": "Buque Museo Fragata A.R.A. 'Presidente Sarmiento'", "rate": 7, "osm": "way/173065810", "wikidata": "Q296436", "kinds": "national_museums,cultural,museums,interesting_places,military_museums", "point": {"lon": -58.365665435791016, "lat": -34.6088981628418}}, {"xid": "R3228119", "name": "Manzana de las Luces", "rate": 7, "osm": "relation/3228119", "wikidata": "Q263127", "kinds": "national_museums,cultural,museums,interesting_places,history_museums", "point": {"lon": -58.3747444152832, "lat": -34.61052322387695}}, {"xid": "W204263802", "name": "Museo Mitre", "rate": 7, "osm": "way/204263802", "wikidata": "Q1290362", "kinds": "national_museums,cultural,museums,interesting_places,history_museums", "point": {"lon": -58.3741455078125, "lat": -34.6041145324707}}, {"xid": "W377544437", "name": "Palacio Presidencial de Cerro Castillo", "rate": 7, "osm": "way/377544437", "wikidata": "Q11697370", "kinds": "fortifications,historic,interesting_places,castles", "point": {"lon": -71.56430053710938, "lat": -33.02000045776367}}, {"xid": "W314245869", "name": "Templo Parroquial de los Santos \u00c1ngeles Custodios", "rate": 7, "osm": "way/314245869", "wikidata": "Q20011678", "kinds": "religion,other_temples,interesting_places", "point": {"lon": -70.62983703613281, "lat": -33.436378479003906}}, {"xid": "W117948869", "name": "Sewell", "rate": 7, "osm": "way/117948869", "wikidata": "Q588417", "kinds": "architecture,historic_architecture,historic,historical_places,interesting_places,manor_houses,historic_settlements", "point": {"lon": -70.38238525390625, "lat": -34.08348083496094}}, {"xid": "W84880198", "name": "Castle of the Pure and Clean Conception of Monfort de Lemus", "rate": 7, "osm": "way/84880198", "wikidata": "Q18809829", "kinds": "architecture,historic_architecture,fortifications,historic,interesting_places,destroyed_objects,castles", "point": {"lon": -73.402099609375, "lat": -39.869911193847656}}, {"xid": "N1937775756", "name": "Ascensor Larra\u00edn", "rate": 7, "osm": "node/1937775756", "wikidata": "Q16533233", "kinds": "railway_stations,industrial_facilities,historic,monuments_and_memorials,interesting_places,monuments", "point": {"lon": -71.60259246826172, "lat": -33.0464973449707}}, {"xid": "N2881141608", "name": "Espiritu Santo", "rate": 7, "osm": "node/2881141608", "wikidata": "Q16533223", "kinds": "architecture,historic_architecture,historic,monuments_and_memorials,interesting_places,restaurants,foods,monuments,tourist_facilities,other_buildings_and_structures", "point": {"lon": -71.62239837646484, "lat": -33.04889678955078}}, {"xid": "N4404169690", "name": "Casa Curutchet", "rate": 7, "osm": "node/4404169690", "wikidata": "Q2982737", "kinds": "architecture,historic_architecture,interesting_places,other_buildings_and_structures", "point": {"lon": -57.9417839050293, "lat": -34.91142654418945}}, {"xid": "N8398339869", "name": "Port Howard", "rate": 7, "osm": "node/8398339869", "wikidata": "Q1754464", "kinds": "historic,historical_places,interesting_places,historic_settlements", "point": {"lon": -59.5205192565918, "lat": -51.611724853515625}}, {"xid": "N2535946576", "name": "Monte Verde", "rate": 7, "osm": "node/2535946576", "wikidata": "Q975775", "kinds": "historic,historical_places,archaeology,interesting_places,other_archaeological_sites,historic_settlements", "point": {"lon": -73.20616912841797, "lat": -41.503578186035156}}, {"xid": "W232539475", "name": "Casona Alemana", "rate": 7, "osm": "way/232539475", "wikidata": "Q16490473", "kinds": "architecture,historic_architecture,interesting_places,other_buildings_and_structures", "point": {"lon": -72.9891128540039, "lat": -41.31414794921875}}, {"xid": "W617256884", "name": "Iglesia de Jes\u00fas Obrero, Schwager", "rate": 7, "osm": "way/617256884", "wikidata": "Q105757158", "kinds": "religion,churches,interesting_places,other_churches", "point": {"lon": -73.17704010009766, "lat": -37.025718688964844}}, {"xid": "W104029837", "name": "Liceo Neandro Schilling", "rate": 7, "osm": "way/104029837", "wikidata": "Q16975913", "kinds": "architecture,historic_architecture,interesting_places,other_buildings_and_structures", "point": {"lon": -70.98863983154297, "lat": -34.582672119140625}}, {"xid": "R8665499", "name": "Sewell Mining Town", "rate": 7, "osm": "relation/8665499", "wikidata": "Q588417", "kinds": "historic,historical_places,interesting_places,historic_settlements", "point": {"lon": -70.3828353881836, "lat": -34.084373474121094}}, {"xid": "W502504059", "name": "Iglesia de San Agust\u00edn", "rate": 7, "osm": "way/502504059", "wikidata": "Q47373340", "kinds": "religion,churches,interesting_places,other_churches", "point": {"lon": -71.21096801757812, "lat": -33.68687438964844}}, {"xid": "N3402794698", "name": "Ascensor Esp\u00edritu Santo", "rate": 7, "osm": "node/3402794698", "wikidata": "Q16533223", "kinds": "historic,monuments_and_memorials,interesting_places,monuments", "point": {"lon": -71.62108612060547, "lat": -33.04792404174805}}, {"xid": "N1766513276", "name": "Ascensor Esp\u00edritu Santo", "rate": 7, "osm": "node/1766513276", "wikidata": "Q16533223", "kinds": "historic,monuments_and_memorials,interesting_places,monuments", "point": {"lon": -71.62116241455078, "lat": -33.047367095947266}}, {"xid": "N3457670070", "name": "Ascensor Polanco", "rate": 7, "osm": "node/3457670070", "wikidata": "Q1155344", "kinds": "railway_stations,industrial_facilities,historic,monuments_and_memorials,interesting_places,monuments", "point": {"lon": -71.59892272949219, "lat": -33.050559997558594}}, {"xid": "W332224166", "name": "Plaza Sim\u00f3n Bol\u00edvar", "rate": 7, "osm": "way/332224166", "wikidata": "Q6079817", "kinds": "urban_environment,gardens_and_parks,cultural,interesting_places", "point": {"lon": -71.6195297241211, "lat": -33.04549026489258}}, {"xid": "W337710273", "name": "Plaza Sotomayor", "rate": 7, "osm": "way/337710273", "wikidata": "Q7203651", "kinds": "squares,interesting_places,cultural,urban_environment", "point": {"lon": -71.62906646728516, "lat": -33.038753509521484}}, {"xid": "N6154344167", "name": "Casa Central de la Pontificia Universidad Cat\u00f3lica de Valpara\u00edso", "rate": 7, "osm": "node/6154344167", "wikidata": "Q5754117", "kinds": "historic,monuments_and_memorials,interesting_places,monuments", "point": {"lon": -71.60588073730469, "lat": -33.044952392578125}}, {"xid": "W301958774", "name": "Campus Isabel Bongard (ULS)", "rate": 7, "osm": "way/301958774", "wikidata": "Q5818150", "kinds": "architecture,historic_architecture,interesting_places,other_buildings_and_structures", "point": {"lon": -71.24546813964844, "lat": -29.911462783813477}}, {"xid": "N977936426", "name": "Copiap\u00f3", "rate": 7, "osm": "node/977936426", "wikidata": "Q5841733", "kinds": "railway_stations,industrial_facilities,interesting_places", "point": {"lon": -70.3442611694336, "lat": -27.359207153320312}}, {"xid": "N1236937853", "name": "Faro Mar del Plata", "rate": 7, "osm": "node/1236937853", "wikidata": "Q5856278", "kinds": "lighthouses,towers,architecture,cultural,museums,interesting_places,other_museums,other_towers", "point": {"lon": -57.54490661621094, "lat": -38.09172821044922}}, {"xid": "W488587588", "name": "Faro Punta Mogotes", "rate": 7, "osm": "way/488587588", "wikidata": "Q5856278", "kinds": "lighthouses,towers,architecture,cultural,museums,interesting_places,other_museums,other_towers", "point": {"lon": -57.54490280151367, "lat": -38.09172058105469}}, {"xid": "N4675328328", "name": "de Las Luces", "rate": 7, "osm": "node/4675328328", "wikidata": "Q263127", "kinds": "architecture,historic_architecture,interesting_places,restaurants,foods,tourist_facilities,other_buildings_and_structures", "point": {"lon": -58.37447738647461, "lat": -34.61031723022461}}, {"xid": "N3197655861", "name": "Hotel Palacio", "rate": 7, "osm": "node/3197655861", "wikidata": "Q1630859", "kinds": "architecture,historic_architecture,accomodations,interesting_places,other_hotels,other_buildings_and_structures", "point": {"lon": -56.202083587646484, "lat": -34.90631103515625}}, {"xid": "N1285547385", "name": "Faro Cabo Santa Maria", "rate": 7, "osm": "node/1285547385", "wikidata": "Q5856382", "kinds": "view_points,other,lighthouses,towers,architecture,interesting_places,other_towers", "point": {"lon": -54.15289306640625, "lat": -34.6682014465332}}, {"xid": "N2055889044", "name": "Faro de Cabo Polonio", "rate": 7, "osm": "node/2055889044", "wikidata": "Q5856367", "kinds": "lighthouses,towers,architecture,interesting_places,other_towers", "point": {"lon": -53.77780532836914, "lat": -34.40536880493164}}, {"xid": "R8757203", "name": "Santa Mar\u00eda la Mayor", "rate": 7, "osm": "relation/8757203", "wikidata": "Q2036701", "kinds": "architecture,historic_architecture,historic,historical_places,archaeology,interesting_places,destroyed_objects,other_archaeological_sites,historic_settlements", "point": {"lon": -55.344703674316406, "lat": -27.889705657958984}}, {"xid": "W129262177", "name": "Jes\u00fas de Tavarang\u00fc\u00e9", "rate": 7, "osm": "way/129262177", "wikidata": "Q318338", "kinds": "architecture,historic_architecture,historic,historical_places,archaeology,interesting_places,destroyed_objects,other_archaeological_sites,historic_settlements", "point": {"lon": -55.75310516357422, "lat": -27.055971145629883}}, {"xid": "R8739583", "name": "Jes\u00fas de Tavarang\u00fc\u00e9", "rate": 7, "osm": "relation/8739583", "wikidata": "Q318338", "kinds": "architecture,historic_architecture,historic,historical_places,archaeology,interesting_places,destroyed_objects,other_archaeological_sites,historic_settlements", "point": {"lon": -55.75310516357422, "lat": -27.055971145629883}}, {"xid": "N3885370859", "name": "Jes\u00fas de Tavarang\u00fc\u00e9", "rate": 7, "osm": "node/3885370859", "wikidata": "Q318338", "kinds": "architecture,historic_architecture,historic,historical_places,archaeology,interesting_places,destroyed_objects,other_archaeological_sites,historic_settlements", "point": {"lon": -55.75327682495117, "lat": -27.056081771850586}}, {"xid": "N5405921752", "name": "Museo Fotogr\u00e1fico Simik", "rate": 7, "osm": "node/5405921752", "wikidata": "Q6033370", "kinds": "cultural,museums,interesting_places,other_museums", "point": {"lon": -58.45372009277344, "lat": -34.58433151245117}}, {"xid": "W395906461", "name": "Teatro Galia", "rate": 7, "osm": "way/395906461", "wikidata": "Q16500102", "kinds": "cultural,theatres_and_entertainments,interesting_places,other_theatres", "point": {"lon": -72.77523040771484, "lat": -39.45279312133789}}, {"xid": "N5812606880", "name": "Integraci\u00f3n de Am\u00e9rica latina", "rate": 7, "osm": "node/5812606880", "wikidata": "Q5230430", "kinds": "wall_painting,urban_environment,cultural,interesting_places", "point": {"lon": -73.03919219970703, "lat": -36.82741165161133}}, {"xid": "W421291100", "name": "Parroquia del Sagrario", "rate": 7, "osm": "way/421291100", "wikidata": "Q5836332", "kinds": "religion,other_temples,interesting_places", "point": {"lon": -70.6513442993164, "lat": -33.43789291381836}}, {"xid": "W646144386", "name": "Iglesia Carmen Bajo de San Rafael", "rate": 7, "osm": "way/646144386", "wikidata": "Q16578049", "kinds": "architecture,historic_architecture,interesting_places,other_buildings_and_structures", "point": {"lon": -70.65339660644531, "lat": -33.42914581298828}}, {"xid": "W565884108", "name": "Iglesia de La Veracruz", "rate": 7, "osm": "way/565884108", "wikidata": "Q5118066", "kinds": "religion,churches,interesting_places,other_churches", "point": {"lon": -70.64134979248047, "lat": -33.438743591308594}}, {"xid": "N2892504247", "name": "Antigua Sede del Congreso Nacional", "rate": 7, "osm": "node/2892504247", "wikidata": "Q16488551", "kinds": "architecture,historic_architecture,interesting_places,other_buildings_and_structures", "point": {"lon": -58.371150970458984, "lat": -34.60916519165039}}, {"xid": "W476983812", "name": "Galicia", "rate": 7, "osm": "way/476983812", "wikidata": "Q11682033", "kinds": "architecture,historic_architecture,interesting_places,banks,bank,tourist_facilities,other_buildings_and_structures", "point": {"lon": -58.376220703125, "lat": -34.60515213012695}}, {"xid": "N1315455452", "name": "Casa Central del Banco Rep\u00fablica", "rate": 7, "osm": "node/1315455452", "wikidata": "Q806203", "kinds": "architecture,historic_architecture,interesting_places,banks,bank,tourist_facilities,other_buildings_and_structures", "point": {"lon": -56.207130432128906, "lat": -34.90547180175781}}, {"xid": "W463297039", "name": "Palacio Salvo", "rate": 7, "osm": "way/463297039", "wikidata": "Q1519373", "kinds": "architecture,historic_architecture,interesting_places,other_buildings_and_structures", "point": {"lon": -56.1983528137207, "lat": -34.90684127807617}}, {"xid": "W964839496", "name": "Campanario Colegio San Francisco Javier", "rate": 7, "osm": "way/964839496", "wikidata": "Q16641613", "kinds": "towers,architecture,interesting_places,other_towers", "point": {"lon": -72.94316864013672, "lat": -41.470802307128906}}, {"xid": "N1937775763", "name": "Ascensor Cerro Los Lecheros", "rate": 7, "osm": "node/1937775763", "wikidata": "Q16533238", "kinds": "railway_stations,industrial_facilities,historic,monuments_and_memorials,interesting_places,monuments", "point": {"lon": -71.60286712646484, "lat": -33.0444221496582}}, {"xid": "R8740149", "name": "La Sant\u00edsima Trinidad del Paran\u00e1", "rate": 7, "osm": "relation/8740149", "wikidata": "Q1366015", "kinds": "architecture,historic_architecture,historic,historical_places,archaeology,interesting_places,destroyed_objects,other_archaeological_sites,historic_settlements", "point": {"lon": -55.70266342163086, "lat": -27.131866455078125}}, {"xid": "W10668929", "name": "Isla de Flores", "rate": 7, "osm": "way/10668929", "wikidata": "Q3817491", "kinds": "natural,interesting_places,islands,other_islands", "point": {"lon": -55.925743103027344, "lat": -34.94171905517578}}, {"xid": "N314997251", "name": "Cerro Blanco", "rate": 7, "osm": "node/314997251", "wikidata": "Q5064864", "kinds": "mountain_peaks,geological_formations,natural,interesting_places", "point": {"lon": -70.64578247070312, "lat": -33.419464111328125}}, {"xid": "W232539470", "name": "Casa Maldonado", "rate": 7, "osm": "way/232539470", "wikidata": "Q5754320", "kinds": "architecture,historic_architecture,interesting_places,other_buildings_and_structures", "point": {"lon": -72.98993682861328, "lat": -41.31525802612305}}, {"xid": "W23394922", "name": "Parque Quinta Normal", "rate": 7, "osm": "way/23394922", "wikidata": "Q3363897", "kinds": "urban_environment,gardens_and_parks,cultural,interesting_places", "point": {"lon": -70.68384552001953, "lat": -33.4410514831543}}, {"xid": "N5067721521", "name": "Londres 38", "rate": 7, "osm": "node/5067721521", "wikidata": "Q4043155", "kinds": "historic,monuments_and_memorials,interesting_places,monuments", "point": {"lon": -70.64816284179688, "lat": -33.44425964355469}}, {"xid": "N1938470550", "name": "Ascensor Carlos van Buren", "rate": 7, "osm": "node/1938470550", "wikidata": "Q16533263", "kinds": "railway_stations,industrial_facilities,historic,monuments_and_memorials,interesting_places,monuments", "point": {"lon": -71.61046600341797, "lat": -33.051597595214844}}, {"xid": "W70515988", "name": "Cueva del Milod\u00f3n Natural Monument", "rate": 7, "osm": "way/70515988", "wikidata": "Q1483271", "kinds": "natural,interesting_places,nature_reserves,other_nature_conservation_areas", "point": {"lon": -72.60377502441406, "lat": -51.56694412231445}}, {"xid": "W238810114", "name": "Museo de Arte y Artesan\u00eda de Linares", "rate": 7, "osm": "way/238810114", "wikidata": "Q6033923", "kinds": "cultural,museums,interesting_places,art_galleries", "point": {"lon": -71.5963363647461, "lat": -35.84989929199219}}, {"xid": "R13116494", "name": "Rectorado Universidad Nacional de C\u00f3rdoba", "rate": 7, "osm": "relation/13116494", "wikidata": "Q59383768", "kinds": "cultural,museums,interesting_places,other_museums", "point": {"lon": -64.18712615966797, "lat": -31.418214797973633}}, {"xid": "R9683839", "name": "Museo Regional de Atacama", "rate": 7, "osm": "relation/9683839", "wikidata": "Q6033710", "kinds": "cultural,museums,interesting_places,other_museums", "point": {"lon": -70.34007263183594, "lat": -27.363271713256836}}, {"xid": "R1205050", "name": "Museo Nacional de Historia Natural", "rate": 7, "osm": "relation/1205050", "wikidata": "Q3064279", "kinds": "cultural,museums,interesting_places,other_museums", "point": {"lon": -70.6817398071289, "lat": -33.44203186035156}}, {"xid": "R12135649", "name": "Museo de Santiago - Casa Colorada", "rate": 7, "osm": "relation/12135649", "wikidata": "Q3304620", "kinds": "cultural,museums,interesting_places,other_museums", "point": {"lon": -70.64935302734375, "lat": -33.43849182128906}}, {"xid": "W80738215", "name": "Cerro Primo de Rivera", "rate": 7, "osm": "way/80738215", "wikidata": "Q5763194", "kinds": "urban_environment,gardens_and_parks,cultural,interesting_places", "point": {"lon": -70.75525665283203, "lat": -33.49461364746094}}, {"xid": "W203426792", "name": "Iglesia de San Francisco", "rate": 7, "osm": "way/203426792", "wikidata": "Q42898014", "kinds": "religion,other_temples,interesting_places", "point": {"lon": -70.98951721191406, "lat": -34.58732604980469}}, {"xid": "W131492330", "name": "Iglesia San Pedro", "rate": 7, "osm": "way/131492330", "wikidata": "Q5911116", "kinds": "religion,churches,interesting_places,other_churches", "point": {"lon": -68.20049285888672, "lat": -22.911012649536133}}, {"xid": "W129970084", "name": "Catedral de San Isidro", "rate": 7, "osm": "way/129970084", "wikidata": "Q2835218", "kinds": "religion,cathedrals,interesting_places", "point": {"lon": -58.509124755859375, "lat": -34.467166900634766}}, {"xid": "W191605839", "name": "Catedral Bas\u00edlica de Mercedes-Luj\u00e1n", "rate": 7, "osm": "way/191605839", "wikidata": "Q2942712", "kinds": "religion,cathedrals,churches,interesting_places,catholic_churches", "point": {"lon": -59.431549072265625, "lat": -34.65135955810547}}, {"xid": "W186577050", "name": "Basilica of Our Lady of Luj\u00e1n", "rate": 7, "osm": "way/186577050", "wikidata": "Q2607636", "kinds": "religion,churches,interesting_places,catholic_churches", "point": {"lon": -59.12133026123047, "lat": -34.56434631347656}}, {"xid": "W257271476", "name": "Santuario Nacional del Coraz\u00f3n de Jes\u00fas, Montevideo", "rate": 7, "osm": "way/257271476", "wikidata": "Q4504967", "kinds": "religion,churches,interesting_places,catholic_churches", "point": {"lon": -56.17007827758789, "lat": -34.8569221496582}}, {"xid": "W274330235", "name": "Ascensor Mariposas", "rate": 7, "osm": "way/274330235", "wikidata": "Q16533241", "kinds": "railway_stations,industrial_facilities,historic,monuments_and_memorials,interesting_places,monuments", "point": {"lon": -71.61813354492188, "lat": -33.05116271972656}}, {"xid": "W183042010", "name": "Cabildo de Salta", "rate": 7, "osm": "way/183042010", "wikidata": "Q8254481", "kinds": "cultural,museums,interesting_places,other_museums", "point": {"lon": -65.41062927246094, "lat": -24.790090560913086}}, {"xid": "W100944332", "name": "Iglesia de San Francisco", "rate": 7, "osm": "way/100944332", "wikidata": "Q20022151", "kinds": "religion,other_temples,interesting_places", "point": {"lon": -71.23097229003906, "lat": -34.98667526245117}}, {"xid": "W30061725", "name": "Pukar\u00e1 de Quitor", "rate": 7, "osm": "way/30061725", "wikidata": "Q2988995", "kinds": "architecture,historic_architecture,fortifications,historic,archaeology,interesting_places,destroyed_objects,castles,other_archaeological_sites", "point": {"lon": -68.21485137939453, "lat": -22.891172409057617}}, {"xid": "W206341960", "name": "Fuerte Tucapel", "rate": 7, "osm": "way/206341960", "wikidata": "Q5870545", "kinds": "architecture,historic_architecture,fortifications,historic,interesting_places,destroyed_objects,other_fortifications", "point": {"lon": -73.40074920654297, "lat": -37.79646301269531}}, {"xid": "W477173936", "name": "Faro Punta Dungeness", "rate": 7, "osm": "way/477173936", "wikidata": "Q3378502", "kinds": "lighthouses,towers,architecture,interesting_places,other_towers", "point": {"lon": -68.43120574951172, "lat": -52.39496612548828}}, {"xid": "N8726033551", "name": "Ascensor Mariposas", "rate": 7, "osm": "node/8726033551", "wikidata": "Q16533241", "kinds": "railway_stations,industrial_facilities,historic,monuments_and_memorials,interesting_places,monuments", "point": {"lon": -71.61735534667969, "lat": -33.05014419555664}}, {"xid": "R8647176", "name": "Estadio Nacional Julio Mart\u00ednez Pr\u00e1danos", "rate": 7, "osm": "relation/8647176", "wikidata": "Q594994", "kinds": "sport,architecture,historic_architecture,interesting_places,stadiums,other_buildings_and_structures", "point": {"lon": -70.61144256591797, "lat": -33.46451187133789}}, {"xid": "N8754496639", "name": "Basilica of Our Lady of Luj\u00e1n", "rate": 7, "osm": "node/8754496639", "wikidata": "Q2607636", "kinds": "religion,architecture,historic_architecture,churches,interesting_places,restaurants,foods,catholic_churches,tourist_facilities,other_buildings_and_structures", "point": {"lon": -59.12063217163086, "lat": -34.564178466796875}}, {"xid": "N794303748", "name": "Cueva del Milod\u00f3n Natural Monument", "rate": 7, "osm": "node/794303748", "wikidata": "Q1483271", "kinds": "geological_formations,natural,interesting_places,nature_reserves,caves,other_nature_conservation_areas", "point": {"lon": -72.61922454833984, "lat": -51.56525802612305}}, {"xid": "N1092607007", "name": "Cerro Sombrero", "rate": 7, "osm": "node/1092607007", "wikidata": "Q1006493", "kinds": "historic,historical_places,interesting_places,historic_settlements", "point": {"lon": -69.29090881347656, "lat": -52.77646255493164}}, {"xid": "N198414310", "name": "Puerto San Juli\u00e1n", "rate": 7, "osm": "node/198414310", "wikidata": "Q955668", "kinds": "historic,historical_places,interesting_places,historic_settlements", "point": {"lon": -67.72978210449219, "lat": -49.30695343017578}}, {"xid": "W267883616", "name": "Church of Quinchao", "rate": 7, "osm": "way/267883616", "wikidata": "Q500718", "kinds": "religion,churches,interesting_places,other_churches", "point": {"lon": -73.42729949951172, "lat": -42.53497314453125}}, {"xid": "W125196595", "name": "Fort\u00edn San Jos\u00e9 de Alcudia", "rate": 7, "osm": "way/125196595", "wikidata": "Q16568652", "kinds": "fortifications,historic,interesting_places,other_fortifications", "point": {"lon": -72.95320892333984, "lat": -40.32916259765625}}, {"xid": "N4731242467", "name": "Pukara de La Compa\u00f1ia", "rate": 7, "osm": "node/4731242467", "wikidata": "Q3647970", "kinds": "historic,archaeology,interesting_places,other_archaeological_sites", "point": {"lon": -70.68378448486328, "lat": -34.06834411621094}}, {"xid": "N1938470554", "name": "Ascensor Carlos van Buren", "rate": 7, "osm": "node/1938470554", "wikidata": "Q16533263", "kinds": "railway_stations,industrial_facilities,historic,monuments_and_memorials,interesting_places,monuments", "point": {"lon": -71.6103744506836, "lat": -33.051795959472656}}, {"xid": "W15239307", "name": "Club H\u00edpico de Santiago", "rate": 7, "osm": "way/15239307", "wikidata": "Q5136270", "kinds": "sport,architecture,historic_architecture,interesting_places,stadiums,other_buildings_and_structures", "point": {"lon": -70.6686019897461, "lat": -33.46391677856445}}, {"xid": "N5187303623", "name": "Barrio Concha y Toro", "rate": 7, "osm": "node/5187303623", "wikidata": "Q4863726", "kinds": "fountains,urban_environment,cultural,interesting_places", "point": {"lon": -70.6658935546875, "lat": -33.445499420166016}}, {"xid": "W15089896", "name": "Estadio Nacional", "rate": 7, "osm": "way/15089896", "wikidata": "Q594994", "kinds": "sport,architecture,historic_architecture,interesting_places,stadiums,other_buildings_and_structures", "point": {"lon": -70.6106185913086, "lat": -33.466426849365234}}, {"xid": "W339603492", "name": "Piscina Estadio Nacional", "rate": 7, "osm": "way/339603492", "wikidata": "Q594994", "kinds": "sport,architecture,historic_architecture,interesting_places,stadiums,other_buildings_and_structures", "point": {"lon": -70.60890197753906, "lat": -33.46340560913086}}, {"xid": "R12700473", "name": "Monasterio Carmen Bajo de San Rafael", "rate": 7, "osm": "relation/12700473", "wikidata": "Q16578049", "kinds": "religion,other_temples,interesting_places", "point": {"lon": -70.65303802490234, "lat": -33.429481506347656}}, {"xid": "N385057916", "name": "Iglesia San Francisco", "rate": 7, "osm": "node/385057916", "wikidata": "Q7413980", "kinds": "religion,churches,interesting_places,other_churches", "point": {"lon": -71.6007308959961, "lat": -33.03943634033203}}, {"xid": "W413447238", "name": "Palacio Vergara", "rate": 7, "osm": "way/413447238", "wikidata": "Q9054414", "kinds": "palaces,architecture,historic_architecture,historic,monuments_and_memorials,interesting_places,monuments", "point": {"lon": -71.55396270751953, "lat": -33.028221130371094}}, {"xid": "N6069139797", "name": "Paso de Uspallata", "rate": 7, "osm": "node/6069139797", "wikidata": "Q1561072", "kinds": "view_points,other,interesting_places", "point": {"lon": -70.07068634033203, "lat": -32.82489776611328}}, {"xid": "N1908903921", "name": "Paso de Uspallata", "rate": 7, "osm": "node/1908903921", "wikidata": "Q1561072", "kinds": "other,unclassified_objects,interesting_places,historic_object", "point": {"lon": -70.0708236694336, "lat": -32.824729919433594}}, {"xid": "W220396840", "name": "Plaza Barraza", "rate": 7, "osm": "way/220396840", "wikidata": "Q5720046", "kinds": "urban_environment,gardens_and_parks,cultural,interesting_places", "point": {"lon": -71.48111724853516, "lat": -30.655698776245117}}, {"xid": "N8941500728", "name": "Guayac\u00e1n (Chile)", "rate": 7, "osm": "node/8941500728", "wikidata": "Q5887512", "kinds": "railway_stations,industrial_facilities,interesting_places", "point": {"lon": -71.34807586669922, "lat": -29.96993064880371}}, {"xid": "W131505563", "name": "San Pedro de Atacama Stadium", "rate": 7, "osm": "way/131505563", "wikidata": "Q5911116", "kinds": "sport,religion,architecture,historic_architecture,churches,interesting_places,stadiums,other_buildings_and_structures,other_churches", "point": {"lon": -68.20001220703125, "lat": -22.908775329589844}}, {"xid": "N1124066634", "name": "Faro Recalada", "rate": 7, "osm": "node/1124066634", "wikidata": "Q2378178", "kinds": "lighthouses,towers,architecture,interesting_places,other_towers", "point": {"lon": -61.25994110107422, "lat": -38.99079132080078}}, {"xid": "W17441757", "name": "Parque Lezama", "rate": 7, "osm": "way/17441757", "wikidata": "Q1133613", "kinds": "urban_environment,gardens_and_parks,cultural,interesting_places", "point": {"lon": -58.36957550048828, "lat": -34.62723922729492}}, {"xid": "N2481986716", "name": "Galer\u00eda G\u00fcemes", "rate": 7, "osm": "node/2481986716", "wikidata": "Q11682033", "kinds": "view_points,other,interesting_places", "point": {"lon": -58.37479782104492, "lat": -34.606388092041016}}, {"xid": "N878875293", "name": "Plaza de Toros", "rate": 7, "osm": "node/878875293", "wikidata": "Q7811209", "kinds": "architecture,historic_architecture,interesting_places,destroyed_objects", "point": {"lon": -57.8652229309082, "lat": -34.43655014038086}}, {"xid": "W82097090", "name": "Casa Central del Banco Rep\u00fablica", "rate": 7, "osm": "way/82097090", "wikidata": "Q806203", "kinds": "architecture,historic_architecture,interesting_places,banks,bank,tourist_facilities,other_buildings_and_structures", "point": {"lon": -56.20869827270508, "lat": -34.90546417236328}}, {"xid": "W175956287", "name": "Facultad de Arquitectura", "rate": 7, "osm": "way/175956287", "wikidata": "Q1391735", "kinds": "architecture,historic_architecture,interesting_places,other_buildings_and_structures", "point": {"lon": -56.16389083862305, "lat": -34.90995788574219}}, {"xid": "N2004300269", "name": "Capilla de Tegua", "rate": 7, "osm": "node/2004300269", "wikidata": "Q25404103", "kinds": "religion,other_temples,interesting_places", "point": {"lon": -64.28282928466797, "lat": -32.64020538330078}}, {"xid": "W684959523", "name": "Sancti Spiritus Fort", "rate": 7, "osm": "way/684959523", "wikidata": "Q823273", "kinds": "fortifications,historic,historical_places,interesting_places,castles,historic_settlements", "point": {"lon": -60.80960464477539, "lat": -32.444374084472656}}, {"xid": "W684959511", "name": "Fuerte Sancti Spiritus", "rate": 7, "osm": "way/684959511", "wikidata": "Q823273", "kinds": "historic,historical_places,archaeology,interesting_places,other_archaeological_sites,historic_settlements", "point": {"lon": -60.80727767944336, "lat": -32.44225311279297}}, {"xid": "N2050764158", "name": "Cathedral of Mercedes, Uruguay", "rate": 7, "osm": "node/2050764158", "wikidata": "Q5758499", "kinds": "religion,cathedrals,interesting_places", "point": {"lon": -58.03012466430664, "lat": -33.24877166748047}}, {"xid": "N4771929921", "name": "Salta", "rate": 7, "osm": "node/4771929921", "wikidata": "Q8254481", "kinds": "other,unclassified_objects,interesting_places,historic_object", "point": {"lon": -65.41032409667969, "lat": -24.789182662963867}}, {"xid": "N415523696", "name": "S\u00edtio Arqueol\u00f3gico de S\u00e3o Nicolau", "rate": 7, "osm": "node/415523696", "wikidata": "Q56349398", "kinds": "architecture,historic_architecture,historic,historical_places,archaeology,interesting_places,destroyed_objects,other_archaeological_sites,historic_settlements", "point": {"lon": -55.261505126953125, "lat": -28.185739517211914}}, {"xid": "R8745945", "name": "Nuestra Se\u00f1ora de Loreto", "rate": 7, "osm": "relation/8745945", "wikidata": "Q681861", "kinds": "architecture,historic_architecture,historic,historical_places,archaeology,interesting_places,destroyed_objects,other_archaeological_sites,historic_settlements", "point": {"lon": -55.5165901184082, "lat": -27.331214904785156}}, {"xid": "N1089071728", "name": "Caspana", "rate": 7, "osm": "node/1089071728", "wikidata": "Q62055393", "kinds": "view_points,other,religion,churches,interesting_places,other_churches", "point": {"lon": -68.21366882324219, "lat": -22.331045150756836}}, {"xid": "N1276923249", "name": "Teatro Lastarria Go", "rate": 7, "osm": "node/1276923249", "wikidata": "Q1156435", "kinds": "cultural,theatres_and_entertainments,interesting_places,other_theatres", "point": {"lon": -70.64127349853516, "lat": -33.439369201660156}}, {"xid": "N909701331", "name": "Teatro Municipal Roma", "rate": 7, "osm": "node/909701331", "wikidata": "Q6139889", "kinds": "cultural,theatres_and_entertainments,interesting_places,opera_houses", "point": {"lon": -58.363216400146484, "lat": -34.66223907470703}}, {"xid": "W790441761", "name": "Teatro del Libertador General San Mart\u00edn", "rate": 7, "osm": "way/790441761", "wikidata": "Q7691981", "kinds": "theatres_and_entertainments,concert_halls,cultural,interesting_places,opera_houses", "point": {"lon": -64.18791198730469, "lat": -31.41927146911621}}, {"xid": "W123140344", "name": "Fuerte Santa Juana de Guadalc\u00e1zar", "rate": 7, "osm": "way/123140344", "wikidata": "Q5638226", "kinds": "fortifications,historic,interesting_places,other_fortifications", "point": {"lon": -72.94132232666016, "lat": -37.169010162353516}}, {"xid": "W278106739", "name": "Casa de Gobierno de Corrientes", "rate": 7, "osm": "way/278106739", "wikidata": "Q16490382", "kinds": "historic,monuments_and_memorials,interesting_places,monuments", "point": {"lon": -58.83857727050781, "lat": -27.463699340820312}}, {"xid": "W274292143", "name": "Capilla de la Providencia", "rate": 7, "osm": "way/274292143", "wikidata": "Q16542745", "kinds": "religion,other_temples,historic,monuments_and_memorials,interesting_places,monuments", "point": {"lon": -71.60655212402344, "lat": -33.052181243896484}}, {"xid": "W157650982", "name": "Convento San Francisco", "rate": 7, "osm": "way/157650982", "wikidata": "Q7413975", "kinds": "religion,churches,interesting_places,other_churches", "point": {"lon": -70.64788055419922, "lat": -33.44379425048828}}, {"xid": "W848663663", "name": "Church of Detif", "rate": 7, "osm": "way/848663663", "wikidata": "Q501093", "kinds": "religion,churches,interesting_places,other_churches", "point": {"lon": -73.55657958984375, "lat": -42.68510818481445}}, {"xid": "N5066671180", "name": "Escuela Ram\u00f3n Barros Luco", "rate": 7, "osm": "node/5066671180", "wikidata": "Q28770019", "kinds": "historic,monuments_and_memorials,interesting_places,monuments", "point": {"lon": -71.60882568359375, "lat": -33.04878616333008}}, {"xid": "W175940910", "name": "Votive Temple of Maip\u00fa", "rate": 7, "osm": "way/175940910", "wikidata": "Q9085727", "kinds": "religion,other_temples,interesting_places", "point": {"lon": -70.76615905761719, "lat": -33.51080322265625}}, {"xid": "W447523184", "name": "Antigua Iglesia de Las Agustinas", "rate": 7, "osm": "way/447523184", "wikidata": "Q5912627", "kinds": "religion,churches,interesting_places,other_churches", "point": {"lon": -70.65135955810547, "lat": -33.44230651855469}}, {"xid": "W114621538", "name": "Iglesia de San Francisco", "rate": 7, "osm": "way/114621538", "wikidata": "Q7413975", "kinds": "religion,churches,interesting_places,catholic_churches", "point": {"lon": -70.64756774902344, "lat": -33.443443298339844}}, {"xid": "W112747183", "name": "Palacio Edwards", "rate": 7, "osm": "way/112747183", "wikidata": "Q6057638", "kinds": "architecture,historic_architecture,interesting_places,other_buildings_and_structures", "point": {"lon": -70.65385437011719, "lat": -33.437278747558594}}, {"xid": "R6537593", "name": "Palace of Justice", "rate": 7, "osm": "relation/6537593", "wikidata": "Q9054506", "kinds": "architecture,historic_architecture,interesting_places,other_buildings_and_structures", "point": {"lon": -58.38594055175781, "lat": -34.60222625732422}}, {"xid": "W179739490", "name": "Cathedral of The Most Holy Trinity, Montevideo", "rate": 7, "osm": "way/179739490", "wikidata": "Q1273950", "kinds": "religion,cathedrals,churches,interesting_places,other_churches", "point": {"lon": -56.2036247253418, "lat": -34.909454345703125}}, {"xid": "W219439829", "name": "Iglesia de la Compa\u00f1\u00eda de Jes\u00fas", "rate": 7, "osm": "way/219439829", "wikidata": "Q3585747", "kinds": "religion,churches,interesting_places,other_churches", "point": {"lon": -64.18677520751953, "lat": -31.417890548706055}}, {"xid": "W269617147", "name": "Capilla de Candonga", "rate": 7, "osm": "way/269617147", "wikidata": "Q5748297", "kinds": "religion,churches,interesting_places,other_churches", "point": {"lon": -64.34490966796875, "lat": -31.0855770111084}}, {"xid": "N198408160", "name": "San Jos\u00e9 palace", "rate": 7, "osm": "node/198408160", "wikidata": "Q2483110", "kinds": "national_museums,palaces,architecture,historic_architecture,cultural,museums,interesting_places,history_museums", "point": {"lon": -58.52385711669922, "lat": -32.4266357421875}}, {"xid": "W98715290", "name": "San Francisco", "rate": 7, "osm": "way/98715290", "wikidata": "Q5722000", "kinds": "religion,churches,interesting_places,catholic_churches", "point": {"lon": -65.20469665527344, "lat": -26.8294620513916}}, {"xid": "N3192058402", "name": "Ascensor Bar\u00f3n", "rate": 7, "osm": "node/3192058402", "wikidata": "Q5707950", "kinds": "view_points,other,railway_stations,industrial_facilities,historic,monuments_and_memorials,interesting_places,monuments", "point": {"lon": -71.6041030883789, "lat": -33.04310989379883}}, {"xid": "W185738971", "name": "Plaza Col\u00f3n, Buenos Aires", "rate": 7, "osm": "way/185738971", "wikidata": "Q2053957", "kinds": "urban_environment,gardens_and_parks,cultural,interesting_places,squares", "point": {"lon": -58.36906433105469, "lat": -34.6077995300293}}, {"xid": "N6611254086", "name": "Museo Luis Solari", "rate": 7, "osm": "node/6611254086", "wikidata": "Q16609802", "kinds": "cultural,museums,interesting_places,other_museums", "point": {"lon": -58.31367111206055, "lat": -33.116127014160156}}, {"xid": "W232539469", "name": "Casa Juptner", "rate": 7, "osm": "way/232539469", "wikidata": "Q5754270", "kinds": "architecture,historic_architecture,interesting_places,other_buildings_and_structures", "point": {"lon": -72.9897689819336, "lat": -41.314292907714844}}, {"xid": "R2634648", "name": "Ilha Grande National Park", "rate": 7, "osm": "relation/2634648", "wikidata": "Q879629", "kinds": "urban_environment,gardens_and_parks,cultural,natural,interesting_places,nature_reserves,national_parks", "point": {"lon": -53.824588775634766, "lat": -23.36865234375}}, {"xid": "W201851132", "name": "Museo del Mar Lord Cochrane", "rate": 7, "osm": "way/201851132", "wikidata": "Q16490494", "kinds": "fortifications,historic,monuments_and_memorials,cultural,museums,interesting_places,other_museums,other_fortifications,monuments", "point": {"lon": -71.6301498413086, "lat": -33.038536071777344}}, {"xid": "N2122906064", "name": "Museo de la Casa de Casta\u00f1ares", "rate": 7, "osm": "node/2122906064", "wikidata": "Q20015064", "kinds": "cultural,museums,interesting_places,history_museums", "point": {"lon": -65.3958740234375, "lat": -24.731782913208008}}, {"xid": "N3439351198", "name": "Politeama", "rate": 7, "osm": "node/3439351198", "wikidata": "Q16638146", "kinds": "cultural,theatres_and_entertainments,interesting_places,other_theatres", "point": {"lon": -56.280540466308594, "lat": -34.52374267578125}}, {"xid": "W205233844", "name": "Plaza Varela", "rate": 7, "osm": "way/205233844", "wikidata": "Q18416816", "kinds": "historic,monuments_and_memorials,urban_environment,cultural,interesting_places,squares,sculptures,monuments", "point": {"lon": -56.16313934326172, "lat": -34.906227111816406}}, {"xid": "W284758655", "name": "Plaza Ingeniero Guido Jacobacci", "rate": 7, "osm": "way/284758655", "wikidata": "Q5412591", "kinds": "railway_stations,industrial_facilities,urban_environment,gardens_and_parks,cultural,interesting_places", "point": {"lon": -69.546630859375, "lat": -41.32946014404297}}, {"xid": "W123140335", "name": "Parque Fuerte Santa Juana", "rate": 7, "osm": "way/123140335", "wikidata": "Q5638226", "kinds": "urban_environment,gardens_and_parks,cultural,interesting_places", "point": {"lon": -72.94151306152344, "lat": -37.16912841796875}}, {"xid": "R3670045", "name": "Parque de la Memoria", "rate": 7, "osm": "relation/3670045", "wikidata": "Q6815684", "kinds": "urban_environment,gardens_and_parks,cultural,interesting_places", "point": {"lon": -58.44223403930664, "lat": -34.53940963745117}}, {"xid": "W202321919", "name": "Casona de Casta\u00f1ares", "rate": 7, "osm": "way/202321919", "wikidata": "Q20015064", "kinds": "urban_environment,gardens_and_parks,cultural,interesting_places", "point": {"lon": -65.39599609375, "lat": -24.73139190673828}}, {"xid": "N4886732043", "name": "Monumento a Jos\u00e9 Pedro Varela, Montevideo", "rate": 7, "osm": "node/4886732043", "wikidata": "Q18416816", "kinds": "historic,monuments_and_memorials,urban_environment,cultural,interesting_places,sculptures,monuments", "point": {"lon": -56.16336441040039, "lat": -34.9063606262207}}, {"xid": "W219439830", "name": "Iglesia de la Compa\u00f1\u00eda de Jes\u00fas", "rate": 7, "osm": "way/219439830", "wikidata": "Q3585747", "kinds": "religion,churches,interesting_places,other_churches", "point": {"lon": -64.18738555908203, "lat": -31.417760848999023}}, {"xid": "W437656947", "name": "Catedral Bas\u00edlica de San Salvador de Jujuy (Cathedral Basilica of the Holy Saviour)", "rate": 7, "osm": "way/437656947", "wikidata": "Q2942786", "kinds": "religion,cathedrals,churches,interesting_places,catholic_churches", "point": {"lon": -65.30065155029297, "lat": -24.185562133789062}}, {"xid": "W626789517", "name": "Iglesia de La Merced", "rate": 7, "osm": "way/626789517", "wikidata": "Q5912475", "kinds": "religion,churches,interesting_places,catholic_churches", "point": {"lon": -65.41441345214844, "lat": -24.789827346801758}}, {"xid": "W456440945", "name": "Nuestra Se\u00f1ora de Lourdes y San Vicente Pallotti, Montevideo", "rate": 7, "osm": "way/456440945", "wikidata": "Q1657166", "kinds": "religion,churches,interesting_places,other_churches", "point": {"lon": -56.20069122314453, "lat": -34.90299606323242}}, {"xid": "W923210953", "name": "Chivilingo Hydroelectric Plant", "rate": 7, "osm": "way/923210953", "wikidata": "Q5102590", "kinds": "factories,industrial_facilities,architecture,historic_architecture,power_stations,interesting_places,destroyed_objects", "point": {"lon": -73.14495086669922, "lat": -37.13587188720703}}, {"xid": "W208401630", "name": "Bas\u00edlica del Coraz\u00f3n de Mar\u00eda, Santiago de Chile", "rate": 7, "osm": "way/208401630", "wikidata": "Q16489564", "kinds": "religion,churches,interesting_places,catholic_churches", "point": {"lon": -70.65087890625, "lat": -33.45540237426758}}, {"xid": "W219439828", "name": "Estancia Jesuitica Alta Gracia", "rate": 7, "osm": "way/219439828", "wikidata": "Q3899974", "kinds": "national_museums,architecture,historic_architecture,cultural,museums,interesting_places,manor_houses,history_museums", "point": {"lon": -64.43500518798828, "lat": -31.657670974731445}}, {"xid": "W917564848", "name": "Cabo V\u00edrgenes Lighthouse", "rate": 7, "osm": "way/917564848", "wikidata": "Q3378567", "kinds": "lighthouses,towers,architecture,interesting_places,other_towers", "point": {"lon": -68.35580444335938, "lat": -52.33320999145508}}, {"xid": "W156127523", "name": "Darwin Argentine Military Cemetery", "rate": 7, "osm": "way/156127523", "wikidata": "Q772556", "kinds": "cemeteries,historic,monuments_and_memorials,burial_places,interesting_places,war_graves,monuments", "point": {"lon": -58.94042205810547, "lat": -51.796634674072266}}, {"xid": "N5378542825", "name": "Terminal de Ingeniero Jacobacci", "rate": 7, "osm": "node/5378542825", "wikidata": "Q5412591", "kinds": "railway_stations,industrial_facilities,interesting_places", "point": {"lon": -69.5467300415039, "lat": -41.32931900024414}}, {"xid": "N1583181884", "name": "Ingeniero Jacobacci", "rate": 7, "osm": "node/1583181884", "wikidata": "Q5412591", "kinds": "railway_stations,industrial_facilities,interesting_places", "point": {"lon": -69.54660034179688, "lat": -41.32915115356445}}, {"xid": "N1816639758", "name": "San Pedro de Alcantara", "rate": 7, "osm": "node/1816639758", "wikidata": "Q2837571", "kinds": "architecture,historic_architecture,interesting_places,restaurants,foods,tourist_facilities,other_buildings_and_structures", "point": {"lon": -71.83561706542969, "lat": -34.76893615722656}}, {"xid": "W134684324", "name": "Hacienda El Huique", "rate": 7, "osm": "way/134684324", "wikidata": "Q42898018", "kinds": "other,unclassified_objects,interesting_places,historic_object", "point": {"lon": -71.3732681274414, "lat": -34.52667999267578}}, {"xid": "N4685599720", "name": "Iglesia de la Merced", "rate": 7, "osm": "node/4685599720", "wikidata": "Q5909300", "kinds": "religion,churches,interesting_places,other_churches", "point": {"lon": -70.74017333984375, "lat": -34.16903305053711}}, {"xid": "W332359460", "name": "Escuela Ram\u00f3n Barros Luco", "rate": 7, "osm": "way/332359460", "wikidata": "Q28770019", "kinds": "historic,monuments_and_memorials,interesting_places,monuments", "point": {"lon": -71.610107421875, "lat": -33.0466194152832}}, {"xid": "N941452304", "name": "Estaci\u00f3n Cartagena", "rate": 7, "osm": "node/941452304", "wikidata": "Q16564195", "kinds": "railway_stations,industrial_facilities,interesting_places", "point": {"lon": -71.61346435546875, "lat": -33.552215576171875}}, {"xid": "W175940920", "name": "Votive Temple of Maip\u00fa", "rate": 7, "osm": "way/175940920", "wikidata": "Q9085727", "kinds": "other,unclassified_objects,interesting_places,historic_object", "point": {"lon": -70.76520538330078, "lat": -33.51108932495117}}, {"xid": "W722394092", "name": "Casona Ochagav\u00eda", "rate": 7, "osm": "way/722394092", "wikidata": "Q39921755", "kinds": "architecture,historic_architecture,interesting_places,other_buildings_and_structures", "point": {"lon": -70.66361999511719, "lat": -33.48756408691406}}, {"xid": "N2305959372", "name": "Capilla Lo Contador", "rate": 7, "osm": "node/2305959372", "wikidata": "Q5977960", "kinds": "religion,other_temples,interesting_places", "point": {"lon": -70.6180191040039, "lat": -33.41939926147461}}, {"xid": "W256614844", "name": "Campus Lo Contador, Pontificia Universidad Cat\u00f3lica de Chile", "rate": 7, "osm": "way/256614844", "wikidata": "Q5977960", "kinds": "architecture,historic_architecture,interesting_places,other_buildings_and_structures", "point": {"lon": -70.6178207397461, "lat": -33.41916275024414}}, {"xid": "N3641378523", "name": "Reloj", "rate": 7, "osm": "node/3641378523", "wikidata": "Q6150261", "kinds": "historic,monuments_and_memorials,interesting_places,monuments", "point": {"lon": -71.60494232177734, "lat": -33.041744232177734}}, {"xid": "N1766410993", "name": "Ascensor Bar\u00f3n", "rate": 7, "osm": "node/1766410993", "wikidata": "Q5707950", "kinds": "railway_stations,industrial_facilities,historic,monuments_and_memorials,interesting_places,monuments", "point": {"lon": -71.60396575927734, "lat": -33.04287338256836}}, {"xid": "N2300358620", "name": "Convento de San Francisco", "rate": 7, "osm": "node/2300358620", "wikidata": "Q16491445", "kinds": "religion,churches,monasteries,interesting_places,catholic_churches", "point": {"lon": -70.68920135498047, "lat": -32.78415298461914}}, {"xid": "N1732856572", "name": "Iglesia de Cha\u00f1aral", "rate": 7, "osm": "node/1732856572", "wikidata": "Q16577528", "kinds": "religion,churches,interesting_places,other_churches", "point": {"lon": -70.6219482421875, "lat": -26.347827911376953}}, {"xid": "W93800040", "name": "Iglesia de Cha\u00f1aral", "rate": 7, "osm": "way/93800040", "wikidata": "Q16577528", "kinds": "religion,churches,urban_environment,gardens_and_parks,cultural,interesting_places,other_churches", "point": {"lon": -70.62234497070312, "lat": -26.34792137145996}}, {"xid": "N1922226295", "name": "Faro Punta Delgada", "rate": 7, "osm": "node/1922226295", "wikidata": "Q5856257", "kinds": "lighthouses,towers,architecture,interesting_places,other_towers", "point": {"lon": -63.6370735168457, "lat": -42.76630783081055}}, {"xid": "N6003586188", "name": "Punta delgado", "rate": 7, "osm": "node/6003586188", "wikidata": "Q5856257", "kinds": "view_points,other,lighthouses,towers,architecture,interesting_places,other_towers", "point": {"lon": -63.63641357421875, "lat": -42.76721954345703}}, {"xid": "N5003815994", "name": "Bah\u00eda Blanca Sud railway station", "rate": 7, "osm": "node/5003815994", "wikidata": "Q5841019", "kinds": "railway_stations,industrial_facilities,interesting_places", "point": {"lon": -62.25457000732422, "lat": -38.721580505371094}}, {"xid": "W889060114", "name": "Parador Ariston", "rate": 7, "osm": "way/889060114", "wikidata": "Q106678383", "kinds": "architecture,historic_architecture,interesting_places,other_buildings_and_structures", "point": {"lon": -57.57503128051758, "lat": -38.10676193237305}}, {"xid": "N1678482317", "name": "Nation Bank", "rate": 7, "osm": "node/1678482317", "wikidata": "Q9054506", "kinds": "architecture,historic_architecture,interesting_places,banks,bank,tourist_facilities,other_buildings_and_structures", "point": {"lon": -58.386837005615234, "lat": -34.60298156738281}}, {"xid": "N4614112964", "name": "Casa Tom\u00e1s Toribio", "rate": 7, "osm": "node/4614112964", "wikidata": "Q1046444", "kinds": "urban_environment,cultural,interesting_places,installation", "point": {"lon": -56.2059211730957, "lat": -34.90412139892578}}, {"xid": "W198229339", "name": "Iglesia Nuestra Se\u00f1ora de la Candelaria de la Vi\u00f1a", "rate": 7, "osm": "way/198229339", "wikidata": "Q5561211", "kinds": "religion,churches,interesting_places,catholic_churches", "point": {"lon": -65.41108703613281, "lat": -24.795820236206055}}, {"xid": "N198414983", "name": "Purmamarca", "rate": 7, "osm": "node/198414983", "wikidata": "Q1025405", "kinds": "historic,historical_places,interesting_places,historic_settlements", "point": {"lon": -65.49916076660156, "lat": -23.746131896972656}}, {"xid": "W335594207", "name": "Hotel Termas del Flaco", "rate": 7, "osm": "way/335594207", "wikidata": "Q6142712", "kinds": "hot_springs,natural_springs,natural,interesting_places,springs_others,water_parks,amusements", "point": {"lon": -70.4345703125, "lat": -34.95884323120117}}, {"xid": "W173065616", "name": "Buque Museo Corbeta A.R.A. Uruguay", "rate": 7, "osm": "way/173065616", "wikidata": "Q143615", "kinds": "national_museums,cultural,museums,interesting_places,military_museums", "point": {"lon": -58.36623001098633, "lat": -34.604248046875}}, {"xid": "W30755463", "name": "Stadium Luna Park", "rate": 7, "osm": "way/30755463", "wikidata": "Q1462481", "kinds": "cultural,theatres_and_entertainments,interesting_places,other_theatres", "point": {"lon": -58.368690490722656, "lat": -34.60242462158203}}, {"xid": "W36001749", "name": "Constitution Square", "rate": 7, "osm": "way/36001749", "wikidata": "Q1632358", "kinds": "urban_environment,cultural,interesting_places,squares", "point": {"lon": -56.203548431396484, "lat": -34.906585693359375}}, {"xid": "N1235207404", "name": "Iglesia del Buen Pastor", "rate": 7, "osm": "node/1235207404", "wikidata": "Q34740536", "kinds": "religion,churches,interesting_places,other_churches", "point": {"lon": -70.72097778320312, "lat": -32.756168365478516}}, {"xid": "W881484701", "name": "Prefectura de Carabineros de Punta Arenas", "rate": 7, "osm": "way/881484701", "wikidata": "Q16621356", "kinds": "architecture,historic_architecture,interesting_places,other_buildings_and_structures", "point": {"lon": -70.9094009399414, "lat": -53.16169357299805}}, {"xid": "W283016280", "name": "Teatro Municipal", "rate": 7, "osm": "way/283016280", "wikidata": "Q6139828", "kinds": "cultural,theatres_and_entertainments,interesting_places,other_theatres", "point": {"lon": -71.55054473876953, "lat": -33.0247802734375}}, {"xid": "W23651686", "name": "Bernasconi Institute", "rate": 7, "osm": "way/23651686", "wikidata": "Q4894010", "kinds": "architecture,historic_architecture,interesting_places,other_buildings_and_structures", "point": {"lon": -58.40188980102539, "lat": -34.63431167602539}}, {"xid": "N5117592424", "name": "Bernasconi Institute", "rate": 7, "osm": "node/5117592424", "wikidata": "Q4894010", "kinds": "architecture,historic_architecture,interesting_places,other_buildings_and_structures", "point": {"lon": -58.40222930908203, "lat": -34.63388442993164}}, {"xid": "N5117592423", "name": "Bernasconi Institute", "rate": 7, "osm": "node/5117592423", "wikidata": "Q4894010", "kinds": "architecture,historic_architecture,interesting_places,other_buildings_and_structures", "point": {"lon": -58.402252197265625, "lat": -34.63380813598633}}, {"xid": "N5117592425", "name": "Bernasconi Institute", "rate": 7, "osm": "node/5117592425", "wikidata": "Q4894010", "kinds": "architecture,historic_architecture,interesting_places,other_buildings_and_structures", "point": {"lon": -58.40213394165039, "lat": -34.633724212646484}}, {"xid": "W143976290", "name": "Escuela Superior de Comercio Manuel Belgrano", "rate": 7, "osm": "way/143976290", "wikidata": "Q17630946", "kinds": "architecture,historic_architecture,interesting_places,other_buildings_and_structures", "point": {"lon": -64.2012710571289, "lat": -31.405237197875977}}, {"xid": "W548702549", "name": "Fuerte Bulnes", "rate": 7, "osm": "way/548702549", "wikidata": "Q2362268", "kinds": "fortifications,historic,interesting_places,other_fortifications", "point": {"lon": -70.91716766357422, "lat": -53.63032531738281}}, {"xid": "W405360215", "name": "Iglesia Santa Filomena", "rate": 7, "osm": "way/405360215", "wikidata": "Q7139835", "kinds": "religion,churches,interesting_places,catholic_churches", "point": {"lon": -70.64347839355469, "lat": -33.42958068847656}}, {"xid": "N1922224279", "name": "Isla Pinguino Lighthouse", "rate": 7, "osm": "node/1922224279", "wikidata": "Q5856188", "kinds": "lighthouses,towers,architecture,interesting_places,other_towers", "point": {"lon": -65.7190933227539, "lat": -47.9139518737793}}, {"xid": "W112317702", "name": "Teatro Municipal de Santiago", "rate": 7, "osm": "way/112317702", "wikidata": "Q6936293", "kinds": "cultural,theatres_and_entertainments,interesting_places,opera_houses", "point": {"lon": -70.64759063720703, "lat": -33.44100570678711}}, {"xid": "N8197643599", "name": "Museo de Artes Decorativas Palacio Rioja", "rate": 7, "osm": "node/8197643599", "wikidata": "Q6057796", "kinds": "historic,monuments_and_memorials,cultural,museums,interesting_places,other_museums,monuments", "point": {"lon": -71.54658508300781, "lat": -33.0207633972168}}, {"xid": "N6052252904", "name": "Fuerte Bulnes", "rate": 7, "osm": "node/6052252904", "wikidata": "Q2362268", "kinds": "fortifications,historic,historical_places,interesting_places,other_fortifications,historic_settlements", "point": {"lon": -70.9188461303711, "lat": -53.62997055053711}}, {"xid": "W282286847", "name": "Maestranza Bar\u00f3n", "rate": 7, "osm": "way/282286847", "wikidata": "Q42962102", "kinds": "other_buildings,industrial_facilities,interesting_places", "point": {"lon": -71.6032485961914, "lat": -33.03809356689453}}, {"xid": "N694078616", "name": "Club Espa\u00f1ol en Buenos Aires", "rate": 7, "osm": "node/694078616", "wikidata": "Q5640527", "kinds": "architecture,historic_architecture,interesting_places,restaurants,foods,tourist_facilities,other_buildings_and_structures", "point": {"lon": -58.380428314208984, "lat": -34.61036682128906}}, {"xid": "R3642560", "name": "Los Glaciares National Park", "rate": 7, "osm": "relation/3642560", "wikidata": "Q215992", "kinds": "urban_environment,gardens_and_parks,cultural,natural,interesting_places,nature_reserves,national_parks", "point": {"lon": -73.37187957763672, "lat": -49.985267639160156}}, {"xid": "R11277779", "name": "Los Glaciares National Park", "rate": 7, "osm": "relation/11277779", "wikidata": "Q215992", "kinds": "urban_environment,gardens_and_parks,cultural,natural,interesting_places,nature_reserves,national_parks", "point": {"lon": -73.13459014892578, "lat": -49.985286712646484}}, {"xid": "N807251957", "name": "Casa de Fructuoso Rivera", "rate": 7, "osm": "node/807251957", "wikidata": "Q1046504", "kinds": "cultural,museums,interesting_places,other_museums", "point": {"lon": -56.20661544799805, "lat": -34.907005310058594}}, {"xid": "N876480094", "name": "Posta del Chuy", "rate": 7, "osm": "node/876480094", "wikidata": "Q7233762", "kinds": "cultural,museums,interesting_places,other_museums", "point": {"lon": -54.02964401245117, "lat": -32.38237762451172}}, {"xid": "N3153508164", "name": "Teatro Los Dominicos", "rate": 7, "osm": "node/3153508164", "wikidata": "Q16577561", "kinds": "religion,churches,cultural,theatres_and_entertainments,interesting_places,other_theatres,other_churches", "point": {"lon": -70.5416488647461, "lat": -33.40839767456055}}, {"xid": "W205519436", "name": "Teatro Municipal de Santa Fe", "rate": 7, "osm": "way/205519436", "wikidata": "Q6936289", "kinds": "cultural,theatres_and_entertainments,interesting_places,other_theatres", "point": {"lon": -60.70800018310547, "lat": -31.652366638183594}}, {"xid": "W81799045", "name": "Teatro Sol\u00eds", "rate": 7, "osm": "way/81799045", "wikidata": "Q1570788", "kinds": "cultural,theatres_and_entertainments,interesting_places,other_theatres", "point": {"lon": -56.201045989990234, "lat": -34.907798767089844}}, {"xid": "W406994083", "name": "Cine Teatro Espa\u00f1ol", "rate": 7, "osm": "way/406994083", "wikidata": "Q5769526", "kinds": "cultural,cinemas,theatres_and_entertainments,interesting_places", "point": {"lon": -67.4840087890625, "lat": -45.861419677734375}}, {"xid": "W93664296", "name": "Plaza de Armas de Puerto Varas", "rate": 7, "osm": "way/93664296", "wikidata": "Q5655960", "kinds": "urban_environment,gardens_and_parks,cultural,interesting_places", "point": {"lon": -72.98279571533203, "lat": -41.31783676147461}}, {"xid": "W206651329", "name": "Patio de Luz Vi\u00f1a Santa Rita", "rate": 7, "osm": "way/206651329", "wikidata": "Q6164444", "kinds": "urban_environment,gardens_and_parks,cultural,interesting_places", "point": {"lon": -70.67479705810547, "lat": -33.72519302368164}}, {"xid": "W597434210", "name": "Parque Cultural Las Condes", "rate": 7, "osm": "way/597434210", "wikidata": "Q42898744", "kinds": "urban_environment,gardens_and_parks,cultural,interesting_places", "point": {"lon": -70.5618896484375, "lat": -33.406097412109375}}, {"xid": "W278108250", "name": "Casa del Gobernador Manuel Lagra\u00f1a", "rate": 7, "osm": "way/278108250", "wikidata": "Q16941641", "kinds": "historic,monuments_and_memorials,interesting_places,monuments", "point": {"lon": -58.839256286621094, "lat": -27.465415954589844}}, {"xid": "W46595370", "name": "Pucar\u00e1 de Tilcara", "rate": 7, "osm": "way/46595370", "wikidata": "Q2062241", "kinds": "settlements,fortifications,historic,archaeology,natural,interesting_places,nature_reserves,castles,other_nature_conservation_areas", "point": {"lon": -65.40243530273438, "lat": -23.586381912231445}}, {"xid": "N2259047388", "name": "Santisima Cruz de los Milagros", "rate": 7, "osm": "node/2259047388", "wikidata": "Q16915912", "kinds": "religion,churches,interesting_places,other_churches", "point": {"lon": -58.84019470214844, "lat": -27.47209358215332}}, {"xid": "R2345828", "name": "Iglesia de los Dominicos", "rate": 7, "osm": "relation/2345828", "wikidata": "Q16577561", "kinds": "religion,churches,interesting_places,other_churches", "point": {"lon": -70.5413589477539, "lat": -33.40788269042969}}, {"xid": "W300548727", "name": "Iglesia San Lazaro", "rate": 7, "osm": "way/300548727", "wikidata": "Q16911666", "kinds": "religion,churches,interesting_places,other_churches", "point": {"lon": -70.66094207763672, "lat": -33.45225524902344}}, {"xid": "W114502395", "name": "Cathedral of Our Lady of Guadalupe, Canelones", "rate": 7, "osm": "way/114502395", "wikidata": "Q5758511", "kinds": "religion,cathedrals,interesting_places", "point": {"lon": -56.28208541870117, "lat": -34.524871826171875}}, {"xid": "N1909481128", "name": "Colonial Ethnographic Museum Juan de Garay", "rate": 7, "osm": "node/1909481128", "wikidata": "Q10862986", "kinds": "religion,monasteries,cultural,museums,interesting_places,other_museums", "point": {"lon": -60.70869064331055, "lat": -31.658666610717773}}, {"xid": "W85504939", "name": "Iglesia de Santa In\u00e9s", "rate": 7, "osm": "way/85504939", "wikidata": "Q101427289", "kinds": "religion,churches,interesting_places,catholic_churches", "point": {"lon": -71.252197265625, "lat": -29.898191452026367}}, {"xid": "W288804117", "name": "Casa de la Cultura de la Ciudad", "rate": 7, "osm": "way/288804117", "wikidata": "Q4985529", "kinds": "architecture,historic_architecture,interesting_places,other_buildings_and_structures", "point": {"lon": -58.3745002746582, "lat": -34.60821533203125}}, {"xid": "W141294928", "name": "Palacio Rioja", "rate": 7, "osm": "way/141294928", "wikidata": "Q6057796", "kinds": "palaces,architecture,historic_architecture,historic,monuments_and_memorials,interesting_places,monuments", "point": {"lon": -71.54650115966797, "lat": -33.02061462402344}}, {"xid": "N2158247319", "name": "Catedral", "rate": 7, "osm": "node/2158247319", "wikidata": "Q16490514", "kinds": "religion,architecture,historic_architecture,churches,interesting_places,restaurants,foods,tourist_facilities,other_buildings_and_structures,other_churches", "point": {"lon": -60.70991897583008, "lat": -31.6568546295166}}, {"xid": "N6294500346", "name": "Fuerte Bulnes", "rate": 7, "osm": "node/6294500346", "wikidata": "Q2362268", "kinds": "fortifications,historic,cultural,museums,interesting_places,other_museums,other_fortifications", "point": {"lon": -70.91783142089844, "lat": -53.63007354736328}}, {"xid": "N345518842", "name": "Faro Punta Delgada", "rate": 7, "osm": "node/345518842", "wikidata": "Q5856262", "kinds": "lighthouses,towers,architecture,interesting_places,other_towers", "point": {"lon": -69.54487609863281, "lat": -52.455841064453125}}, {"xid": "N632646620", "name": "Punta Delgada", "rate": 7, "osm": "node/632646620", "wikidata": "Q5856262", "kinds": "railway_stations,industrial_facilities,lighthouses,towers,architecture,interesting_places,other_towers", "point": {"lon": -69.54574584960938, "lat": -52.45669937133789}}, {"xid": "N214202783", "name": "Caleta Tortel", "rate": 7, "osm": "node/214202783", "wikidata": "Q200955", "kinds": "historic,historical_places,interesting_places,historic_settlements", "point": {"lon": -73.53764343261719, "lat": -47.803470611572266}}, {"xid": "W432824504", "name": "Church of Caguach", "rate": 7, "osm": "way/432824504", "wikidata": "Q501097", "kinds": "religion,churches,interesting_places,other_churches", "point": {"lon": -73.2659912109375, "lat": -42.51015090942383}}, {"xid": "W103403015", "name": "Torre\u00f3n Picarte", "rate": 7, "osm": "way/103403015", "wikidata": "Q16500103", "kinds": "towers,architecture,fortifications,historic,urban_environment,gardens_and_parks,cultural,interesting_places,other_towers,fortified_towers", "point": {"lon": -73.23174285888672, "lat": -39.817657470703125}}, {"xid": "W551663498", "name": "Fort Nativity", "rate": 7, "osm": "way/551663498", "wikidata": "Q5870573", "kinds": "fortifications,historic,interesting_places,other_fortifications", "point": {"lon": -72.6671371459961, "lat": -37.50205993652344}}, {"xid": "W464772375", "name": "Centro Cultural Casa Hodgkinson", "rate": 7, "osm": "way/464772375", "wikidata": "Q10861568", "kinds": "cultural,museums,interesting_places,other_museums", "point": {"lon": -70.72531127929688, "lat": -34.068485260009766}}, {"xid": "N1937775769", "name": "Ascensor Monjas", "rate": 7, "osm": "node/1937775769", "wikidata": "Q16533246", "kinds": "railway_stations,industrial_facilities,historic,monuments_and_memorials,interesting_places,monuments", "point": {"lon": -71.61479187011719, "lat": -33.05259704589844}}, {"xid": "W338884798", "name": "Colegio de los Sagrados Corazones", "rate": 7, "osm": "way/338884798", "wikidata": "Q16578028", "kinds": "historic,monuments_and_memorials,interesting_places,monuments", "point": {"lon": -71.6152572631836, "lat": -33.04872131347656}}, {"xid": "N1937775768", "name": "Ascensor Monjas", "rate": 7, "osm": "node/1937775768", "wikidata": "Q16533246", "kinds": "railway_stations,industrial_facilities,historic,monuments_and_memorials,interesting_places,monuments", "point": {"lon": -71.61389923095703, "lat": -33.051979064941406}}, {"xid": "N755491668", "name": "Iglesia San Ignacio", "rate": 7, "osm": "node/755491668", "wikidata": "Q5910277", "kinds": "religion,other_temples,interesting_places", "point": {"lon": -70.65679168701172, "lat": -33.447418212890625}}, {"xid": "N257689273", "name": "Ascensor Reina Victoria", "rate": 7, "osm": "node/257689273", "wikidata": "Q16533249", "kinds": "railway_stations,industrial_facilities,historic,monuments_and_memorials,interesting_places,monuments", "point": {"lon": -71.6265869140625, "lat": -33.04384231567383}}, {"xid": "W332702279", "name": "Castillo Wulff", "rate": 7, "osm": "way/332702279", "wikidata": "Q8039164", "kinds": "fortifications,historic,monuments_and_memorials,interesting_places,castles,monuments", "point": {"lon": -71.56486511230469, "lat": -33.01924514770508}}, {"xid": "N102660236", "name": "Mirador Castillo Wolff", "rate": 7, "osm": "node/102660236", "wikidata": "Q8039164", "kinds": "view_points,other,fortifications,historic,monuments_and_memorials,interesting_places,castles,monuments", "point": {"lon": -71.56497955322266, "lat": -33.019439697265625}}, {"xid": "W149924733", "name": "iglesia del Buen Pastor", "rate": 7, "osm": "way/149924733", "wikidata": "Q34740536", "kinds": "religion,churches,interesting_places,other_churches", "point": {"lon": -70.72016906738281, "lat": -32.75597381591797}}, {"xid": "W85504870", "name": "Plaza San Francisco", "rate": 7, "osm": "way/85504870", "wikidata": "Q5910173", "kinds": "urban_environment,gardens_and_parks,cultural,interesting_places", "point": {"lon": -71.25032043457031, "lat": -29.904573440551758}}, {"xid": "N5140879552", "name": "La Serena", "rate": 7, "osm": "node/5140879552", "wikidata": "Q5843174", "kinds": "railway_stations,industrial_facilities,interesting_places", "point": {"lon": -71.25676727294922, "lat": -29.902589797973633}}, {"xid": "N2343353524", "name": "Iglesia San Francisco", "rate": 7, "osm": "node/2343353524", "wikidata": "Q5910173", "kinds": "religion,other_temples,interesting_places", "point": {"lon": -71.24992370605469, "lat": -29.904563903808594}}, {"xid": "W613906768", "name": "Villa Vi\u00f1a de Cristo", "rate": 7, "osm": "way/613906768", "wikidata": "Q42897952", "kinds": "fortifications,historic,interesting_places,castles", "point": {"lon": -70.34898376464844, "lat": -27.361421585083008}}, {"xid": "W589984858", "name": "Estaci\u00f3n Caldera", "rate": 7, "osm": "way/589984858", "wikidata": "Q20014918", "kinds": "railway_stations,industrial_facilities,urban_environment,gardens_and_parks,cultural,interesting_places", "point": {"lon": -70.82373046875, "lat": -27.064990997314453}}, {"xid": "W183842128", "name": "Recoleta Cemetry", "rate": 7, "osm": "way/183842128", "wikidata": "Q831322", "kinds": "cemeteries,historic,burial_places,interesting_places", "point": {"lon": -58.39342498779297, "lat": -34.58738708496094}}, {"xid": "W17444532", "name": "Centro Cultural Kirchner", "rate": 7, "osm": "way/17444532", "wikidata": "Q3360763", "kinds": "architecture,historic_architecture,interesting_places,other_buildings_and_structures", "point": {"lon": -58.36947250366211, "lat": -34.6036262512207}}, {"xid": "W907295166", "name": "Parroquia San Francisco de As\u00eds", "rate": 7, "osm": "way/907295166", "wikidata": "Q1285687", "kinds": "religion,churches,interesting_places,other_churches", "point": {"lon": -56.20906066894531, "lat": -34.90638732910156}}, {"xid": "N956119415", "name": "Monumento al Gaucho", "rate": 7, "osm": "node/956119415", "wikidata": "Q16608928", "kinds": "historic,monuments_and_memorials,urban_environment,cultural,interesting_places,sculptures,monuments", "point": {"lon": -56.18488311767578, "lat": -34.90552520751953}}, {"xid": "W273278096", "name": "Catedral Metropolitana", "rate": 7, "osm": "way/273278096", "wikidata": "Q16490514", "kinds": "religion,cathedrals,churches,interesting_places,other_churches", "point": {"lon": -60.71067428588867, "lat": -31.656574249267578}}, {"xid": "N1909481129", "name": "Convento de San Francisco", "rate": 7, "osm": "node/1909481129", "wikidata": "Q10862986", "kinds": "religion,monasteries,interesting_places", "point": {"lon": -60.709991455078125, "lat": -31.659555435180664}}, {"xid": "W97329684", "name": "Teatro San Mart\u00edn", "rate": 7, "osm": "way/97329684", "wikidata": "Q6139897", "kinds": "cultural,theatres_and_entertainments,interesting_places,other_theatres", "point": {"lon": -65.20335388183594, "lat": -26.81781005859375}}, {"xid": "W193984429", "name": "Tastil", "rate": 7, "osm": "way/193984429", "wikidata": "Q370723", "kinds": "historic,historical_places,archaeology,interesting_places,other_archaeological_sites,historic_settlements", "point": {"lon": -65.95764923095703, "lat": -24.45250701904297}}, {"xid": "N198424777", "name": "Santa Rosa de Tastil", "rate": 7, "osm": "node/198424777", "wikidata": "Q370723", "kinds": "historic,historical_places,archaeology,interesting_places,other_archaeological_sites,historic_settlements", "point": {"lon": -65.95185089111328, "lat": -24.450878143310547}}, {"xid": "N2521333883", "name": "Iglesia San Francisco de Paula", "rate": 7, "osm": "node/2521333883", "wikidata": "Q5910230", "kinds": "religion,churches,interesting_places,other_churches", "point": {"lon": -65.35626983642578, "lat": -23.303369522094727}}, {"xid": "N3851534582", "name": "Church of the Holy Cross and Saint Francis of Paula", "rate": 7, "osm": "node/3851534582", "wikidata": "Q5910230", "kinds": "religion,churches,interesting_places,other_churches", "point": {"lon": -65.35626220703125, "lat": -23.303327560424805}}, {"xid": "R8741905", "name": "S\u00e3o Miguel das Miss\u00f5es", "rate": 7, "osm": "relation/8741905", "wikidata": "Q503828", "kinds": "architecture,historic_architecture,historic,archaeology,interesting_places,destroyed_objects,other_archaeological_sites", "point": {"lon": -54.55516052246094, "lat": -28.5487003326416}}, {"xid": "W621876366", "name": "S\u00e3o Miguel das Miss\u00f5es", "rate": 7, "osm": "way/621876366", "wikidata": "Q503828", "kinds": "architecture,historic_architecture,historic,archaeology,interesting_places,destroyed_objects,other_archaeological_sites", "point": {"lon": -54.55516052246094, "lat": -28.5487003326416}}, {"xid": "N3884525779", "name": "S\u00e3o Miguel das Miss\u00f5es", "rate": 7, "osm": "node/3884525779", "wikidata": "Q503828", "kinds": "architecture,historic_architecture,historic,archaeology,interesting_places,destroyed_objects,other_archaeological_sites", "point": {"lon": -54.55487823486328, "lat": -28.547327041625977}}, {"xid": "R5620176", "name": "Los Flamencos National Reserve", "rate": 7, "osm": "relation/5620176", "wikidata": "Q2029373", "kinds": "natural,interesting_places,nature_reserves,other_nature_conservation_areas", "point": {"lon": -67.31986236572266, "lat": -23.043302536010742}}, {"xid": "N2403303653", "name": "Museo Regional de Magallanes", "rate": 7, "osm": "node/2403303653", "wikidata": "Q6033717", "kinds": "cultural,museums,interesting_places,other_museums", "point": {"lon": -70.90607452392578, "lat": -53.1620979309082}}, {"xid": "N3925465413", "name": "Casa Natal de Domingo Faustino Sarmiento", "rate": 7, "osm": "node/3925465413", "wikidata": "Q5754443", "kinds": "cultural,museums,interesting_places,other_museums", "point": {"lon": -68.52906036376953, "lat": -31.5347957611084}}, {"xid": "N1504213220", "name": "Museo del Hombre y la Tecnolog\u00eda", "rate": 7, "osm": "node/1504213220", "wikidata": "Q957021", "kinds": "cultural,museums,interesting_places,other_museums", "point": {"lon": -57.96909713745117, "lat": -31.38579559326172}}, {"xid": "W972427072", "name": "Teatro Huemul", "rate": 7, "osm": "way/972427072", "wikidata": "Q6139749", "kinds": "cultural,theatres_and_entertainments,interesting_places,other_theatres", "point": {"lon": -70.65142059326172, "lat": -33.47431564331055}}, {"xid": "N652951090", "name": "Teatro Municipal Coliseo Podest\u00e1", "rate": 7, "osm": "node/652951090", "wikidata": "Q6139811", "kinds": "cultural,theatres_and_entertainments,interesting_places,other_theatres", "point": {"lon": -57.955623626708984, "lat": -34.915679931640625}}, {"xid": "W361434794", "name": "Teatro El C\u00edrculo", "rate": 7, "osm": "way/361434794", "wikidata": "Q3827019", "kinds": "cultural,theatres_and_entertainments,interesting_places,opera_houses", "point": {"lon": -60.63507080078125, "lat": -32.95258331298828}}, {"xid": "N1628610190", "name": "Catedral de San Felipe", "rate": 7, "osm": "node/1628610190", "wikidata": "Q5758564", "kinds": "religion,cathedrals,interesting_places", "point": {"lon": -70.72438049316406, "lat": -32.75015640258789}}, {"xid": "W457092341", "name": "Iglesia Metodista", "rate": 7, "osm": "way/457092341", "wikidata": "Q1575631", "kinds": "religion,churches,interesting_places,other_churches", "point": {"lon": -56.184349060058594, "lat": -34.90595626831055}}, {"xid": "W24964120", "name": "Metropolitan Cathedral", "rate": 7, "osm": "way/24964120", "wikidata": "Q15042373", "kinds": "religion,cathedrals,churches,interesting_places,other_churches", "point": {"lon": -70.65190887451172, "lat": -33.43763732910156}}, {"xid": "W582808377", "name": "Residencia Beaulier", "rate": 7, "osm": "way/582808377", "wikidata": "Q101500328", "kinds": "architecture,historic_architecture,interesting_places,other_buildings_and_structures", "point": {"lon": -70.90702819824219, "lat": -53.15931701660156}}, {"xid": "W136016120", "name": "Iglesia San Francisco", "rate": 7, "osm": "way/136016120", "wikidata": "Q5991778", "kinds": "religion,churches,interesting_places,other_churches", "point": {"lon": -73.24751281738281, "lat": -39.8181266784668}}, {"xid": "W203671007", "name": "Capilla ex Hospital San Juan de Dios", "rate": 7, "osm": "way/203671007", "wikidata": "Q42897834", "kinds": "religion,churches,interesting_places,catholic_churches", "point": {"lon": -72.11895751953125, "lat": -36.61905288696289}}, {"xid": "N2705894787", "name": "Estadio Victor Jara", "rate": 7, "osm": "node/2705894787", "wikidata": "Q3058826", "kinds": "architecture,historic_architecture,interesting_places,other_buildings_and_structures", "point": {"lon": -70.67467498779297, "lat": -33.450599670410156}}, {"xid": "N4227474134", "name": "El Peral", "rate": 7, "osm": "node/4227474134", "wikidata": "Q16533220", "kinds": "architecture,historic_architecture,historic,monuments_and_memorials,interesting_places,restaurants,foods,monuments,tourist_facilities,other_buildings_and_structures", "point": {"lon": -71.62947082519531, "lat": -33.040618896484375}}, {"xid": "W90926652", "name": "Faro Monumental La Serena", "rate": 7, "osm": "way/90926652", "wikidata": "Q5856224", "kinds": "lighthouses,towers,architecture,interesting_places,other_towers", "point": {"lon": -71.27430725097656, "lat": -29.905553817749023}}, {"xid": "W464638716", "name": "Templo Santa Ana", "rate": 7, "osm": "way/464638716", "wikidata": "Q2885594", "kinds": "religion,churches,interesting_places,other_churches", "point": {"lon": -58.384063720703125, "lat": -34.89063262939453}}, {"xid": "W176335924", "name": "Basilica of Our Lady of the Pillar, Buenos Aires", "rate": 7, "osm": "way/176335924", "wikidata": "Q2886930", "kinds": "religion,churches,interesting_places,catholic_churches", "point": {"lon": -58.39219665527344, "lat": -34.58671951293945}}, {"xid": "N1972658962", "name": "Palacio Barolo", "rate": 7, "osm": "node/1972658962", "wikidata": "Q571763", "kinds": "skyscrapers,architecture,interesting_places", "point": {"lon": -58.385780334472656, "lat": -34.60957717895508}}, {"xid": "W23633883", "name": "Palacio de Gobierno de la Ciudad", "rate": 7, "osm": "way/23633883", "wikidata": "Q2132531", "kinds": "architecture,historic_architecture,interesting_places,other_buildings_and_structures", "point": {"lon": -58.37401580810547, "lat": -34.60825729370117}}, {"xid": "W195634165", "name": "Colegio Nacional de Monserrat", "rate": 7, "osm": "way/195634165", "wikidata": "Q5142862", "kinds": "architecture,historic_architecture,interesting_places,other_buildings_and_structures", "point": {"lon": -64.18706512451172, "lat": -31.41865348815918}}, {"xid": "W278112329", "name": "Teatro Vera", "rate": 7, "osm": "way/278112329", "wikidata": "Q6139923", "kinds": "cultural,theatres_and_entertainments,interesting_places,other_theatres", "point": {"lon": -58.83610534667969, "lat": -27.464763641357422}}, {"xid": "W238456994", "name": "Catedral de S\u00e3o Sebasti\u00e3o", "rate": 7, "osm": "way/238456994", "wikidata": "Q92197641", "kinds": "religion,cathedrals,interesting_places", "point": {"lon": -54.10433578491211, "lat": -31.336828231811523}}, {"xid": "W440124002", "name": "Escuela Normal \"Juan Manuel Estrada\"", "rate": 7, "osm": "way/440124002", "wikidata": "Q17630954", "kinds": "historic,monuments_and_memorials,interesting_places,monuments", "point": {"lon": -58.822750091552734, "lat": -27.460588455200195}}, {"xid": "W11423250", "name": "Mancera Island", "rate": 7, "osm": "way/11423250", "wikidata": "Q428033", "kinds": "natural,interesting_places,islands,other_islands", "point": {"lon": -73.39385986328125, "lat": -39.89093780517578}}, {"xid": "R1997921", "name": "Dawson Island", "rate": 7, "osm": "relation/1997921", "wikidata": "Q429041", "kinds": "natural,interesting_places,islands,other_islands", "point": {"lon": -70.64984130859375, "lat": -53.911399841308594}}, {"xid": "R6112844", "name": "Sea Lion Island", "rate": 7, "osm": "relation/6112844", "wikidata": "Q110538", "kinds": "natural,interesting_places,islands,other_islands", "point": {"lon": -59.11579132080078, "lat": -52.4346923828125}}, {"xid": "R11274150", "name": "Los Alerces National Park", "rate": 7, "osm": "relation/11274150", "wikidata": "Q828291", "kinds": "urban_environment,gardens_and_parks,cultural,natural,interesting_places,nature_reserves,national_parks", "point": {"lon": -71.85383605957031, "lat": -42.8709602355957}}, {"xid": "N1937775775", "name": "Ascensor San Agust\u00edn", "rate": 7, "osm": "node/1937775775", "wikidata": "Q16533255", "kinds": "railway_stations,industrial_facilities,historic,monuments_and_memorials,interesting_places,monuments", "point": {"lon": -71.63190460205078, "lat": -33.040531158447266}}, {"xid": "N198397290", "name": "Pueblo Liebig", "rate": 7, "osm": "node/198397290", "wikidata": "Q7258456", "kinds": "historic,historical_places,interesting_places,historic_settlements", "point": {"lon": -58.192874908447266, "lat": -32.15502166748047}}, {"xid": "W827243576", "name": "Humedales de Monkul", "rate": 7, "osm": "way/827243576", "wikidata": "Q5041779", "kinds": "natural,interesting_places,nature_reserves,nature_reserves_others", "point": {"lon": -73.43844604492188, "lat": -38.68740463256836}}, {"xid": "N5471796122", "name": "Casa Violeta Parra", "rate": 7, "osm": "node/5471796122", "wikidata": "Q42898302", "kinds": "cultural,museums,interesting_places,other_museums", "point": {"lon": -71.95471954345703, "lat": -36.42710876464844}}, {"xid": "R7259130", "name": "Cabildo", "rate": 7, "osm": "relation/7259130", "wikidata": "Q257698", "kinds": "cultural,museums,interesting_places,other_museums", "point": {"lon": -56.2027702331543, "lat": -34.90652847290039}}, {"xid": "R7943089", "name": "Plaza de Cagancha", "rate": 7, "osm": "relation/7943089", "wikidata": "Q1851746", "kinds": "urban_environment,cultural,interesting_places,squares", "point": {"lon": -56.19135284423828, "lat": -34.90621566772461}}, {"xid": "R9326318", "name": "Puerto Santa Cruz", "rate": 7, "osm": "relation/9326318", "wikidata": "Q932809", "kinds": "historic,historical_places,interesting_places,historic_settlements", "point": {"lon": -68.52497863769531, "lat": -50.020503997802734}}, {"xid": "N5492448055", "name": "Buenos Aires Bakery", "rate": 7, "osm": "node/5492448055", "wikidata": "Q2132531", "kinds": "architecture,historic_architecture,interesting_places,shops,bakeries,tourist_facilities,other_buildings_and_structures", "point": {"lon": -58.37655258178711, "lat": -34.6080436706543}}, {"xid": "R9845495", "name": "Carlos Anwandter Nature Sanctuary", "rate": 7, "osm": "relation/9845495", "wikidata": "Q5041779", "kinds": "natural,interesting_places,nature_reserves,nature_reserves_others", "point": {"lon": -73.19377899169922, "lat": -39.68815612792969}}, {"xid": "R10343154", "name": "Costanera Sur Ecological Reserve", "rate": 7, "osm": "relation/10343154", "wikidata": "Q1034280", "kinds": "natural,interesting_places,nature_reserves,nature_reserves_others", "point": {"lon": -58.35274124145508, "lat": -34.60694885253906}}, {"xid": "R3520253", "name": "R\u00edo Pilcomayo National Park", "rate": 7, "osm": "relation/3520253", "wikidata": "Q828642", "kinds": "urban_environment,gardens_and_parks,cultural,natural,interesting_places,nature_reserves,national_parks", "point": {"lon": -58.1307373046875, "lat": -25.052705764770508}}, {"xid": "R10891156", "name": "Parque Nacional Laguna Blanca", "rate": 7, "osm": "relation/10891156", "wikidata": "Q828531", "kinds": "urban_environment,gardens_and_parks,cultural,natural,interesting_places,nature_reserves,national_parks", "point": {"lon": -70.32669830322266, "lat": -39.05393981933594}}, {"xid": "R11293141", "name": "Parque y Reserva Nacional Laguna Blanca", "rate": 7, "osm": "relation/11293141", "wikidata": "Q828531", "kinds": "urban_environment,gardens_and_parks,cultural,natural,interesting_places,nature_reserves,national_parks", "point": {"lon": -70.36122131347656, "lat": -39.02555847167969}}, {"xid": "N1865044936", "name": "Museo del Carmen", "rate": 7, "osm": "node/1865044936", "wikidata": "Q56318282", "kinds": "cultural,museums,interesting_places,other_museums", "point": {"lon": -70.7661361694336, "lat": -33.51047134399414}}, {"xid": "N8197682703", "name": "Museo Palacio Baburizza", "rate": 7, "osm": "node/8197682703", "wikidata": "Q6057588", "kinds": "historic,monuments_and_memorials,cultural,museums,interesting_places,other_museums,monuments", "point": {"lon": -71.62901306152344, "lat": -33.040225982666016}}, {"xid": "N3986618286", "name": "Archivo Hist\u00f3rico Provincial de C\u00f3rdoba", "rate": 7, "osm": "node/3986618286", "wikidata": "Q5702954", "kinds": "religion,churches,cultural,museums,interesting_places,other_museums,other_churches", "point": {"lon": -64.1865234375, "lat": -31.416587829589844}}, {"xid": "N1143026952", "name": "Ruinas Jesuiticas de Santa Ana", "rate": 7, "osm": "node/1143026952", "wikidata": "Q2092494", "kinds": "architecture,historic_architecture,historic,historical_places,archaeology,cultural,museums,interesting_places,destroyed_objects,other_museums,other_archaeological_sites,historic_settlements", "point": {"lon": -55.5805778503418, "lat": -27.388364791870117}}, {"xid": "W227119861", "name": "Museo Nacional del Petr\u00f3leo", "rate": 7, "osm": "way/227119861", "wikidata": "Q6033618", "kinds": "cultural,museums,interesting_places,other_museums", "point": {"lon": -67.48097229003906, "lat": -45.8371696472168}}, {"xid": "W619211859", "name": "Museo Casa Carlos Gardel", "rate": 7, "osm": "way/619211859", "wikidata": "Q21480852", "kinds": "national_museums,cultural,museums,interesting_places,history_museums", "point": {"lon": -58.40781021118164, "lat": -34.6016731262207}}, {"xid": "W147938686", "name": "San Mart\u00edn National Institute", "rate": 7, "osm": "way/147938686", "wikidata": "Q7414874", "kinds": "cultural,museums,interesting_places,history_museums,military_museums", "point": {"lon": -58.401580810546875, "lat": -34.58041763305664}}, {"xid": "R5824230", "name": "Museo y biblioteca casa natal de Domingo Faustino Sarmiento", "rate": 7, "osm": "relation/5824230", "wikidata": "Q5754443", "kinds": "national_museums,cultural,museums,interesting_places,history_museums", "point": {"lon": -68.52891540527344, "lat": -31.53484535217285}}, {"xid": "N4455272994", "name": "Teatro Avenida", "rate": 7, "osm": "node/4455272994", "wikidata": "Q545741", "kinds": "cultural,theatres_and_entertainments,interesting_places,other_theatres", "point": {"lon": -58.38365173339844, "lat": -34.60935592651367}}, {"xid": "W124145085", "name": "Torre\u00f3n Los Canelos", "rate": 7, "osm": "way/124145085", "wikidata": "Q16500105", "kinds": "towers,architecture,fortifications,historic,urban_environment,gardens_and_parks,cultural,interesting_places,other_towers,fortified_towers", "point": {"lon": -73.24856567382812, "lat": -39.81781005859375}}, {"xid": "W549374142", "name": "Palaeobotanical Garden in Mata", "rate": 7, "osm": "way/549374142", "wikidata": "Q14963625", "kinds": "urban_environment,gardens_and_parks,cultural,museums,interesting_places,other_museums", "point": {"lon": -54.462135314941406, "lat": -29.558435440063477}}, {"xid": "N5326091044", "name": "Tena\u00fan", "rate": 7, "osm": "node/5326091044", "wikidata": "Q6141490", "kinds": "historic,historical_places,interesting_places,historic_settlements", "point": {"lon": -73.3738021850586, "lat": -42.332061767578125}}, {"xid": "W272373417", "name": "Parque Hist\u00f3rico Natural \"Vuelta de Obligado\"", "rate": 7, "osm": "way/272373417", "wikidata": "Q16616353", "kinds": "historical_places,historic,battlefields,urban_environment,gardens_and_parks,cultural,interesting_places", "point": {"lon": -59.809364318847656, "lat": -33.59804153442383}}, {"xid": "N642809502", "name": "Obelisco a los Constituyentes de 1830", "rate": 7, "osm": "node/642809502", "wikidata": "Q1726492", "kinds": "historic,monuments_and_memorials,urban_environment,cultural,interesting_places,sculptures,monuments", "point": {"lon": -56.16439437866211, "lat": -34.897377014160156}}, {"xid": "W388310425", "name": "Capilla Santa Clara de Asis", "rate": 7, "osm": "way/388310425", "wikidata": "Q2912576", "kinds": "religion,churches,interesting_places,other_churches", "point": {"lon": -67.48351287841797, "lat": -29.148456573486328}}, {"xid": "W31611323", "name": "Iglesia Catedral", "rate": 7, "osm": "way/31611323", "wikidata": "Q2942294", "kinds": "religion,cathedrals,interesting_places", "point": {"lon": -64.18478393554688, "lat": -31.41673469543457}}, {"xid": "W36373669", "name": "Catedral Bas\u00edlica de Nuestra Se\u00f1ora del Valle", "rate": 7, "osm": "way/36373669", "wikidata": "Q2942782", "kinds": "religion,cathedrals,churches,interesting_places,catholic_churches", "point": {"lon": -65.78023529052734, "lat": -28.468982696533203}}, {"xid": "W208374303", "name": "Iglesia Santa Ana", "rate": 7, "osm": "way/208374303", "wikidata": "Q5911484", "kinds": "religion,churches,interesting_places,other_churches", "point": {"lon": -70.65870666503906, "lat": -33.43782424926758}}, {"xid": "W526336914", "name": "Ruinas de Huanchaca", "rate": 7, "osm": "way/526336914", "wikidata": "Q5667460", "kinds": "factories,industrial_facilities,architecture,historic_architecture,cultural,theatres_and_entertainments,interesting_places,destroyed_objects,other_theatres", "point": {"lon": -70.41284942626953, "lat": -23.685211181640625}}, {"xid": "W633098257", "name": "Teatro Municipal Rafael de Aguiar", "rate": 7, "osm": "way/633098257", "wikidata": "Q375599", "kinds": "cultural,theatres_and_entertainments,interesting_places,opera_houses", "point": {"lon": -60.21996307373047, "lat": -33.33427047729492}}, {"xid": "W181183074", "name": "Parroquia Catedral San Fructuoso", "rate": 7, "osm": "way/181183074", "wikidata": "Q4426013", "kinds": "religion,cathedrals,churches,interesting_places,catholic_churches", "point": {"lon": -55.978485107421875, "lat": -31.711877822875977}}, {"xid": "W334756681", "name": "Palacio Baburizza", "rate": 7, "osm": "way/334756681", "wikidata": "Q6057588", "kinds": "palaces,architecture,historic_architecture,historic,monuments_and_memorials,interesting_places,monuments", "point": {"lon": -71.62887573242188, "lat": -33.04034423828125}}, {"xid": "W54381480", "name": "Casa de la Cultura de \u00d1u\u00f1oa", "rate": 7, "osm": "way/54381480", "wikidata": "Q16911657", "kinds": "architecture,historic_architecture,interesting_places,manor_houses", "point": {"lon": -70.58747100830078, "lat": -33.45651626586914}}, {"xid": "N3884715178", "name": "Nuestra Se\u00f1ora de Santa Ana", "rate": 7, "osm": "node/3884715178", "wikidata": "Q2092494", "kinds": "architecture,historic_architecture,historic,historical_places,archaeology,interesting_places,destroyed_objects,other_archaeological_sites,historic_settlements", "point": {"lon": -55.580745697021484, "lat": -27.390602111816406}}, {"xid": "N3884780385", "name": "Yapey\u00fa", "rate": 7, "osm": "node/3884780385", "wikidata": "Q55854", "kinds": "architecture,historic_architecture,historic,historical_places,archaeology,interesting_places,destroyed_objects,other_archaeological_sites,historic_settlements", "point": {"lon": -56.81729507446289, "lat": -29.471113204956055}}, {"xid": "W135571461", "name": "Ruinas de Huanchaca", "rate": 7, "osm": "way/135571461", "wikidata": "Q5667460", "kinds": "factories,industrial_facilities,architecture,historic_architecture,interesting_places,destroyed_objects", "point": {"lon": -70.41185760498047, "lat": -23.68579864501953}}, {"xid": "W619874648", "name": "Estaci\u00f3n San Francisco de Mostazal", "rate": 7, "osm": "way/619874648", "wikidata": "Q5844736", "kinds": "railway_stations,industrial_facilities,interesting_places", "point": {"lon": -70.71348571777344, "lat": -33.97704315185547}}, {"xid": "N283524309", "name": "Cerro El Roble", "rate": 7, "osm": "node/283524309", "wikidata": "Q1055833", "kinds": "view_points,other,mountain_peaks,geological_formations,natural,interesting_places", "point": {"lon": -71.01252746582031, "lat": -32.97640609741211}}, {"xid": "W91788448", "name": "Faro San Antonio", "rate": 7, "osm": "way/91788448", "wikidata": "Q5552955", "kinds": "view_points,other,lighthouses,towers,architecture,interesting_places,other_towers", "point": {"lon": -56.773231506347656, "lat": -36.30654525756836}}, {"xid": "W301671887", "name": "V\u00edctor Jara Stadium", "rate": 7, "osm": "way/301671887", "wikidata": "Q3058826", "kinds": "sport,architecture,historic_architecture,interesting_places,stadiums,other_buildings_and_structures", "point": {"lon": -70.67466735839844, "lat": -33.45077133178711}}, {"xid": "N2038426438", "name": "Bar Britanico", "rate": 7, "osm": "node/2038426438", "wikidata": "Q16535985", "kinds": "architecture,historic_architecture,interesting_places,cafes,foods,bars,tourist_facilities,other_buildings_and_structures", "point": {"lon": -58.370967864990234, "lat": -34.62526321411133}}, {"xid": "W103998150", "name": "Faro San Isidro", "rate": 7, "osm": "way/103998150", "wikidata": "Q5856513", "kinds": "lighthouses,towers,architecture,interesting_places,other_towers", "point": {"lon": -70.97455596923828, "lat": -53.785221099853516}}, {"xid": "N198414366", "name": "Puerto Santa Cruz", "rate": 7, "osm": "node/198414366", "wikidata": "Q932809", "kinds": "historic,historical_places,interesting_places,historic_settlements", "point": {"lon": -68.52305603027344, "lat": -50.019203186035156}}, {"xid": "N654057020", "name": "Cueva de las Manos", "rate": 7, "osm": "node/654057020", "wikidata": "Q223385", "kinds": "historic,archaeology,geological_formations,natural,interesting_places,other_archaeological_sites,caves", "point": {"lon": -70.65596771240234, "lat": -47.1552734375}}, {"xid": "N2133325245", "name": "Faro de San Juan de Salvamento", "rate": 7, "osm": "node/2133325245", "wikidata": "Q3378548", "kinds": "lighthouses,towers,architecture,interesting_places,other_towers", "point": {"lon": -63.85691452026367, "lat": -54.73235321044922}}, {"xid": "N848210194", "name": "Puesto Isla Observatorio", "rate": 7, "osm": "node/848210194", "wikidata": "Q3378123", "kinds": "lighthouses,towers,architecture,interesting_places,other_towers", "point": {"lon": -64.13232421875, "lat": -54.65803527832031}}, {"xid": "R2620953", "name": "Los Alerces National Park", "rate": 7, "osm": "relation/2620953", "wikidata": "Q828291", "kinds": "urban_environment,gardens_and_parks,cultural,natural,interesting_places,nature_reserves,national_parks", "point": {"lon": -71.87584686279297, "lat": -42.84280776977539}}, {"xid": "W563705036", "name": "Iglesia San Juan Bautista, San Juan", "rate": 7, "osm": "way/563705036", "wikidata": "Q2065592", "kinds": "religion,churches,interesting_places,other_churches", "point": {"lon": -73.50431823730469, "lat": -42.334991455078125}},