[{"xid": "W477208865", "name": "Railway Museum", "rate": 7, "osm": "way/477208865", "wikidata": "Q20016778", "kinds": "cultural,museums,interesting_places,museums_of_science_and_technology,railway_museums", "point": {"lon": -70.6855697631836, "lat": -33.443023681640625}}, {"xid": "N8197637768", "name": "National Museum of Fine Arts", "rate": 7, "osm": "node/8197637768", "wikidata": "Q775376", "kinds": "national_museums,cultural,museums,interesting_places,art_galleries", "point": {"lon": -70.64344024658203, "lat": -33.435367584228516}}, {"xid": "W203637539", "name": "Fuerte La Planchada", "rate": 7, "osm": "way/203637539", "wikidata": "Q5861129", "kinds": "fortifications,historic,interesting_places,other_fortifications", "point": {"lon": -72.99592590332031, "lat": -36.736568450927734}}, {"xid": "W147350352", "name": "Iglesia de Las Carmelitas", "rate": 7, "osm": "way/147350352", "wikidata": "Q39082140", "kinds": "religion,other_temples,interesting_places", "point": {"lon": -72.11054992675781, "lat": -36.60499572753906}}, {"xid": "W173380683", "name": "Buen Pastor", "rate": 7, "osm": "way/173380683", "wikidata": "Q16493425", "kinds": "religion,other_temples,interesting_places", "point": {"lon": -70.66049194335938, "lat": -33.42601013183594}}, {"xid": "W221141596", "name": "Escuela Pedro Quintana Mansilla", "rate": 7, "osm": "way/221141596", "wikidata": "Q16563663", "kinds": "architecture,historic_architecture,interesting_places,other_buildings_and_structures", "point": {"lon": -72.07134246826172, "lat": -45.57049560546875}}, {"xid": "W637360967", "name": "Ex Asilo de las Hermanitas de los Pobres de Santiago", "rate": 7, "osm": "way/637360967", "wikidata": "Q16488991", "kinds": "architecture,historic_architecture,interesting_places,other_buildings_and_structures", "point": {"lon": -70.63825225830078, "lat": -33.45969772338867}}, {"xid": "W313299263", "name": "Casa Central de la Pontificia Universidad Cat\u00f3lica de Valpara\u00edso", "rate": 7, "osm": "way/313299263", "wikidata": "Q5754117", "kinds": "historic,monuments_and_memorials,interesting_places,monuments", "point": {"lon": -71.60567474365234, "lat": -33.04487609863281}}, {"xid": "N1937775761", "name": "Ascensor Larra\u00edn", "rate": 7, "osm": "node/1937775761", "wikidata": "Q16533233", "kinds": "railway_stations,industrial_facilities,historic,monuments_and_memorials,interesting_places,monuments", "point": {"lon": -71.60197448730469, "lat": -33.04668045043945}}, {"xid": "N5536306685", "name": "Escuela Nacional 18 Rio Corintos", "rate": 7, "osm": "node/5536306685", "wikidata": "Q5838727", "kinds": "architecture,historic_architecture,interesting_places,other_buildings_and_structures", "point": {"lon": -71.39801788330078, "lat": -43.0877799987793}}, {"xid": "N370752749", "name": "Cerro El Plomo", "rate": 7, "osm": "node/370752749", "wikidata": "Q1324530", "kinds": "mountain_peaks,geological_formations,natural,interesting_places", "point": {"lon": -70.21444702148438, "lat": -33.236839294433594}}, {"xid": "W256575707", "name": "Iglesia de San Pedro", "rate": 7, "osm": "way/256575707", "wikidata": "Q16577792", "kinds": "religion,churches,interesting_places,other_churches", "point": {"lon": -70.64768981933594, "lat": -33.43525314331055}}, {"xid": "W374149682", "name": "Iglesia de Guayac\u00e1n", "rate": 7, "osm": "way/374149682", "wikidata": "Q5909244", "kinds": "religion,other_temples,interesting_places", "point": {"lon": -71.34664154052734, "lat": -29.966970443725586}}, {"xid": "R10237540", "name": "Salar de Huasco", "rate": 7, "osm": "relation/10237540", "wikidata": "Q20022191", "kinds": "water,natural,interesting_places,dry_lakes,nature_reserves,other_nature_conservation_areas", "point": {"lon": -68.84385681152344, "lat": -20.288101196289062}}, {"xid": "W32841204", "name": "Plaza Arsenales de Guerra", "rate": 7, "osm": "way/32841204", "wikidata": "Q16565561", "kinds": "urban_environment,gardens_and_parks,cultural,interesting_places", "point": {"lon": -70.65769958496094, "lat": -33.4558219909668}}, {"xid": "W127256445", "name": "Museo Ferroviario Pablo Neruda", "rate": 7, "osm": "way/127256445", "wikidata": "Q6033577", "kinds": "urban_environment,gardens_and_parks,cultural,museums,interesting_places,museums_of_science_and_technology,railway_museums", "point": {"lon": -72.570556640625, "lat": -38.72744369506836}}, {"xid": "N214228350", "name": "Sewell", "rate": 7, "osm": "node/214228350", "wikidata": "Q588417", "kinds": "historic,historical_places,interesting_places,historic_settlements", "point": {"lon": -70.38294219970703, "lat": -34.08488464355469}}, {"xid": "N410025424", "name": "Iglesia de las Carmelitas", "rate": 7, "osm": "node/410025424", "wikidata": "Q39082140", "kinds": "religion,other_temples,interesting_places", "point": {"lon": -72.1103515625, "lat": -36.60497283935547}}, {"xid": "W800856131", "name": "Iglesia de San Agust\u00edn", "rate": 7, "osm": "way/800856131", "wikidata": "Q47373340", "kinds": "religion,churches,interesting_places,other_churches", "point": {"lon": -71.21085357666016, "lat": -33.6865348815918}}, {"xid": "W377544437", "name": "Palacio Presidencial de Cerro Castillo", "rate": 7, "osm": "way/377544437", "wikidata": "Q11697370", "kinds": "fortifications,historic,interesting_places,castles", "point": {"lon": -71.56430053710938, "lat": -33.02000045776367}}, {"xid": "W314245869", "name": "Templo Parroquial de los Santos \u00c1ngeles Custodios", "rate": 7, "osm": "way/314245869", "wikidata": "Q20011678", "kinds": "religion,other_temples,interesting_places", "point": {"lon": -70.62983703613281, "lat": -33.436378479003906}}, {"xid": "W117948869", "name": "Sewell", "rate": 7, "osm": "way/117948869", "wikidata": "Q588417", "kinds": "architecture,historic_architecture,historic,historical_places,interesting_places,manor_houses,historic_settlements", "point": {"lon": -70.38238525390625, "lat": -34.08348083496094}}, {"xid": "W84880198", "name": "Castle of the Pure and Clean Conception of Monfort de Lemus", "rate": 7, "osm": "way/84880198", "wikidata": "Q18809829", "kinds": "architecture,historic_architecture,fortifications,historic,interesting_places,destroyed_objects,castles", "point": {"lon": -73.402099609375, "lat": -39.869911193847656}}, {"xid": "N1937775756", "name": "Ascensor Larra\u00edn", "rate": 7, "osm": "node/1937775756", "wikidata": "Q16533233", "kinds": "railway_stations,industrial_facilities,historic,monuments_and_memorials,interesting_places,monuments", "point": {"lon": -71.60259246826172, "lat": -33.0464973449707}}, {"xid": "N2881141608", "name": "Espiritu Santo", "rate": 7, "osm": "node/2881141608", "wikidata": "Q16533223", "kinds": "architecture,historic_architecture,historic,monuments_and_memorials,interesting_places,restaurants,foods,monuments,tourist_facilities,other_buildings_and_structures", "point": {"lon": -71.62239837646484, "lat": -33.04889678955078}}, {"xid": "N2535946576", "name": "Monte Verde", "rate": 7, "osm": "node/2535946576", "wikidata": "Q975775", "kinds": "historic,historical_places,archaeology,interesting_places,other_archaeological_sites,historic_settlements", "point": {"lon": -73.20616912841797, "lat": -41.503578186035156}}, {"xid": "W232539475", "name": "Casona Alemana", "rate": 7, "osm": "way/232539475", "wikidata": "Q16490473", "kinds": "architecture,historic_architecture,interesting_places,other_buildings_and_structures", "point": {"lon": -72.9891128540039, "lat": -41.31414794921875}}, {"xid": "W617256884", "name": "Iglesia de Jes\u00fas Obrero, Schwager", "rate": 7, "osm": "way/617256884", "wikidata": "Q105757158", "kinds": "religion,churches,interesting_places,other_churches", "point": {"lon": -73.17704010009766, "lat": -37.025718688964844}}, {"xid": "W104029837", "name": "Liceo Neandro Schilling", "rate": 7, "osm": "way/104029837", "wikidata": "Q16975913", "kinds": "architecture,historic_architecture,interesting_places,other_buildings_and_structures", "point": {"lon": -70.98863983154297, "lat": -34.582672119140625}}, {"xid": "R8665499", "name": "Sewell Mining Town", "rate": 7, "osm": "relation/8665499", "wikidata": "Q588417", "kinds": "historic,historical_places,interesting_places,historic_settlements", "point": {"lon": -70.3828353881836, "lat": -34.084373474121094}}, {"xid": "W502504059", "name": "Iglesia de San Agust\u00edn", "rate": 7, "osm": "way/502504059", "wikidata": "Q47373340", "kinds": "religion,churches,interesting_places,other_churches", "point": {"lon": -71.21096801757812, "lat": -33.68687438964844}}, {"xid": "N3402794698", "name": "Ascensor Esp\u00edritu Santo", "rate": 7, "osm": "node/3402794698", "wikidata": "Q16533223", "kinds": "historic,monuments_and_memorials,interesting_places,monuments", "point": {"lon": -71.62108612060547, "lat": -33.04792404174805}}, {"xid": "N1766513276", "name": "Ascensor Esp\u00edritu Santo", "rate": 7, "osm": "node/1766513276", "wikidata": "Q16533223", "kinds": "historic,monuments_and_memorials,interesting_places,monuments", "point": {"lon": -71.62116241455078, "lat": -33.047367095947266}}, {"xid": "N3457670070", "name": "Ascensor Polanco", "rate": 7, "osm": "node/3457670070", "wikidata": "Q1155344", "kinds": "railway_stations,industrial_facilities,historic,monuments_and_memorials,interesting_places,monuments", "point": {"lon": -71.59892272949219, "lat": -33.050559997558594}}, {"xid": "W332224166", "name": "Plaza Sim\u00f3n Bol\u00edvar", "rate": 7, "osm": "way/332224166", "wikidata": "Q6079817", "kinds": "urban_environment,gardens_and_parks,cultural,interesting_places", "point": {"lon": -71.6195297241211, "lat": -33.04549026489258}}, {"xid": "W337710273", "name": "Plaza Sotomayor", "rate": 7, "osm": "way/337710273", "wikidata": "Q7203651", "kinds": "squares,interesting_places,cultural,urban_environment", "point": {"lon": -71.62906646728516, "lat": -33.038753509521484}}, {"xid": "N6154344167", "name": "Casa Central de la Pontificia Universidad Cat\u00f3lica de Valpara\u00edso", "rate": 7, "osm": "node/6154344167", "wikidata": "Q5754117", "kinds": "historic,monuments_and_memorials,interesting_places,monuments", "point": {"lon": -71.60588073730469, "lat": -33.044952392578125}}, {"xid": "W301958774", "name": "Campus Isabel Bongard (ULS)", "rate": 7, "osm": "way/301958774", "wikidata": "Q5818150", "kinds": "architecture,historic_architecture,interesting_places,other_buildings_and_structures", "point": {"lon": -71.24546813964844, "lat": -29.911462783813477}}, {"xid": "N977936426", "name": "Copiap\u00f3", "rate": 7, "osm": "node/977936426", "wikidata": "Q5841733", "kinds": "railway_stations,industrial_facilities,interesting_places", "point": {"lon": -70.3442611694336, "lat": -27.359207153320312}}, {"xid": "W286762986", "name": "Catedral de Tacna", "rate": 7, "osm": "way/286762986", "wikidata": "Q5758603", "kinds": "religion,cathedrals,interesting_places", "point": {"lon": -70.25198364257812, "lat": -18.014516830444336}}, {"xid": "W395906461", "name": "Teatro Galia", "rate": 7, "osm": "way/395906461", "wikidata": "Q16500102", "kinds": "cultural,theatres_and_entertainments,interesting_places,other_theatres", "point": {"lon": -72.77523040771484, "lat": -39.45279312133789}}, {"xid": "N5812606880", "name": "Integraci\u00f3n de Am\u00e9rica latina", "rate": 7, "osm": "node/5812606880", "wikidata": "Q5230430", "kinds": "wall_painting,urban_environment,cultural,interesting_places", "point": {"lon": -73.03919219970703, "lat": -36.82741165161133}}, {"xid": "W421291100", "name": "Parroquia del Sagrario", "rate": 7, "osm": "way/421291100", "wikidata": "Q5836332", "kinds": "religion,other_temples,interesting_places", "point": {"lon": -70.6513442993164, "lat": -33.43789291381836}}, {"xid": "W646144386", "name": "Iglesia Carmen Bajo de San Rafael", "rate": 7, "osm": "way/646144386", "wikidata": "Q16578049", "kinds": "architecture,historic_architecture,interesting_places,other_buildings_and_structures", "point": {"lon": -70.65339660644531, "lat": -33.42914581298828}}, {"xid": "W565884108", "name": "Iglesia de La Veracruz", "rate": 7, "osm": "way/565884108", "wikidata": "Q5118066", "kinds": "religion,churches,interesting_places,other_churches", "point": {"lon": -70.64134979248047, "lat": -33.438743591308594}}, {"xid": "W964839496", "name": "Campanario Colegio San Francisco Javier", "rate": 7, "osm": "way/964839496", "wikidata": "Q16641613", "kinds": "towers,architecture,interesting_places,other_towers", "point": {"lon": -72.94316864013672, "lat": -41.470802307128906}}, {"xid": "N1937775763", "name": "Ascensor Cerro Los Lecheros", "rate": 7, "osm": "node/1937775763", "wikidata": "Q16533238", "kinds": "railway_stations,industrial_facilities,historic,monuments_and_memorials,interesting_places,monuments", "point": {"lon": -71.60286712646484, "lat": -33.0444221496582}}, {"xid": "N5141262501", "name": "Iglesia de Parcohaylla", "rate": 7, "osm": "node/5141262501", "wikidata": "Q16577624", "kinds": "religion,churches,interesting_places,other_churches", "point": {"lon": -69.21288299560547, "lat": -18.87810707092285}}, {"xid": "N314997251", "name": "Cerro Blanco", "rate": 7, "osm": "node/314997251", "wikidata": "Q5064864", "kinds": "mountain_peaks,geological_formations,natural,interesting_places", "point": {"lon": -70.64578247070312, "lat": -33.419464111328125}}, {"xid": "W232539470", "name": "Casa Maldonado", "rate": 7, "osm": "way/232539470", "wikidata": "Q5754320", "kinds": "architecture,historic_architecture,interesting_places,other_buildings_and_structures", "point": {"lon": -72.98993682861328, "lat": -41.31525802612305}}, {"xid": "W23394922", "name": "Parque Quinta Normal", "rate": 7, "osm": "way/23394922", "wikidata": "Q3363897", "kinds": "urban_environment,gardens_and_parks,cultural,interesting_places", "point": {"lon": -70.68384552001953, "lat": -33.4410514831543}}, {"xid": "N5067721521", "name": "Londres 38", "rate": 7, "osm": "node/5067721521", "wikidata": "Q4043155", "kinds": "historic,monuments_and_memorials,interesting_places,monuments", "point": {"lon": -70.64816284179688, "lat": -33.44425964355469}}, {"xid": "N1938470550", "name": "Ascensor Carlos van Buren", "rate": 7, "osm": "node/1938470550", "wikidata": "Q16533263", "kinds": "railway_stations,industrial_facilities,historic,monuments_and_memorials,interesting_places,monuments", "point": {"lon": -71.61046600341797, "lat": -33.051597595214844}}, {"xid": "W70515988", "name": "Cueva del Milod\u00f3n Natural Monument", "rate": 7, "osm": "way/70515988", "wikidata": "Q1483271", "kinds": "natural,interesting_places,nature_reserves,other_nature_conservation_areas", "point": {"lon": -72.60377502441406, "lat": -51.56694412231445}}, {"xid": "W238810114", "name": "Museo de Arte y Artesan\u00eda de Linares", "rate": 7, "osm": "way/238810114", "wikidata": "Q6033923", "kinds": "cultural,museums,interesting_places,art_galleries", "point": {"lon": -71.5963363647461, "lat": -35.84989929199219}}, {"xid": "R9683839", "name": "Museo Regional de Atacama", "rate": 7, "osm": "relation/9683839", "wikidata": "Q6033710", "kinds": "cultural,museums,interesting_places,other_museums", "point": {"lon": -70.34007263183594, "lat": -27.363271713256836}}, {"xid": "R1205050", "name": "Museo Nacional de Historia Natural", "rate": 7, "osm": "relation/1205050", "wikidata": "Q3064279", "kinds": "cultural,museums,interesting_places,other_museums", "point": {"lon": -70.6817398071289, "lat": -33.44203186035156}}, {"xid": "R12135649", "name": "Museo de Santiago - Casa Colorada", "rate": 7, "osm": "relation/12135649", "wikidata": "Q3304620", "kinds": "cultural,museums,interesting_places,other_museums", "point": {"lon": -70.64935302734375, "lat": -33.43849182128906}}, {"xid": "W80738215", "name": "Cerro Primo de Rivera", "rate": 7, "osm": "way/80738215", "wikidata": "Q5763194", "kinds": "urban_environment,gardens_and_parks,cultural,interesting_places", "point": {"lon": -70.75525665283203, "lat": -33.49461364746094}}, {"xid": "W203426792", "name": "Iglesia de San Francisco", "rate": 7, "osm": "way/203426792", "wikidata": "Q42898014", "kinds": "religion,other_temples,interesting_places", "point": {"lon": -70.98951721191406, "lat": -34.58732604980469}}, {"xid": "W131492330", "name": "Iglesia San Pedro", "rate": 7, "osm": "way/131492330", "wikidata": "Q5911116", "kinds": "religion,churches,interesting_places,other_churches", "point": {"lon": -68.20049285888672, "lat": -22.911012649536133}}, {"xid": "W274330235", "name": "Ascensor Mariposas", "rate": 7, "osm": "way/274330235", "wikidata": "Q16533241", "kinds": "railway_stations,industrial_facilities,historic,monuments_and_memorials,interesting_places,monuments", "point": {"lon": -71.61813354492188, "lat": -33.05116271972656}}, {"xid": "W100944332", "name": "Iglesia de San Francisco", "rate": 7, "osm": "way/100944332", "wikidata": "Q20022151", "kinds": "religion,other_temples,interesting_places", "point": {"lon": -71.23097229003906, "lat": -34.98667526245117}}, {"xid": "W30061725", "name": "Pukar\u00e1 de Quitor", "rate": 7, "osm": "way/30061725", "wikidata": "Q2988995", "kinds": "architecture,historic_architecture,fortifications,historic,archaeology,interesting_places,destroyed_objects,castles,other_archaeological_sites", "point": {"lon": -68.21485137939453, "lat": -22.891172409057617}}, {"xid": "W206341960", "name": "Fuerte Tucapel", "rate": 7, "osm": "way/206341960", "wikidata": "Q5870545", "kinds": "architecture,historic_architecture,fortifications,historic,interesting_places,destroyed_objects,other_fortifications", "point": {"lon": -73.40074920654297, "lat": -37.79646301269531}}, {"xid": "W477173936", "name": "Faro Punta Dungeness", "rate": 7, "osm": "way/477173936", "wikidata": "Q3378502", "kinds": "lighthouses,towers,architecture,interesting_places,other_towers", "point": {"lon": -68.43120574951172, "lat": -52.39496612548828}}, {"xid": "N8726033551", "name": "Ascensor Mariposas", "rate": 7, "osm": "node/8726033551", "wikidata": "Q16533241", "kinds": "railway_stations,industrial_facilities,historic,monuments_and_memorials,interesting_places,monuments", "point": {"lon": -71.61735534667969, "lat": -33.05014419555664}}, {"xid": "R8647176", "name": "Estadio Nacional Julio Mart\u00ednez Pr\u00e1danos", "rate": 7, "osm": "relation/8647176", "wikidata": "Q594994", "kinds": "sport,architecture,historic_architecture,interesting_places,stadiums,other_buildings_and_structures", "point": {"lon": -70.61144256591797, "lat": -33.46451187133789}}, {"xid": "N794303748", "name": "Cueva del Milod\u00f3n Natural Monument", "rate": 7, "osm": "node/794303748", "wikidata": "Q1483271", "kinds": "geological_formations,natural,interesting_places,nature_reserves,caves,other_nature_conservation_areas", "point": {"lon": -72.61922454833984, "lat": -51.56525802612305}}, {"xid": "N1092607007", "name": "Cerro Sombrero", "rate": 7, "osm": "node/1092607007", "wikidata": "Q1006493", "kinds": "historic,historical_places,interesting_places,historic_settlements", "point": {"lon": -69.29090881347656, "lat": -52.77646255493164}}, {"xid": "N198414310", "name": "Puerto San Juli\u00e1n", "rate": 7, "osm": "node/198414310", "wikidata": "Q955668", "kinds": "historic,historical_places,interesting_places,historic_settlements", "point": {"lon": -67.72978210449219, "lat": -49.30695343017578}}, {"xid": "R4761672", "name": "Chilo\u00e9 National Park", "rate": 7, "osm": "relation/4761672", "wikidata": "Q1702892", "kinds": "urban_environment,gardens_and_parks,cultural,natural,interesting_places,nature_reserves,national_parks", "point": {"lon": -74.0959243774414, "lat": -42.47285461425781}}, {"xid": "W98836692", "name": "Church of Our Lady of Sorrows", "rate": 7, "osm": "way/98836692", "wikidata": "Q500796", "kinds": "religion,churches,interesting_places,other_churches", "point": {"lon": -73.64755249023438, "lat": -42.379085540771484}}, {"xid": "W267883616", "name": "Church of Quinchao", "rate": 7, "osm": "way/267883616", "wikidata": "Q500718", "kinds": "religion,churches,interesting_places,other_churches", "point": {"lon": -73.42729949951172, "lat": -42.53497314453125}}, {"xid": "W125196595", "name": "Fort\u00edn San Jos\u00e9 de Alcudia", "rate": 7, "osm": "way/125196595", "wikidata": "Q16568652", "kinds": "fortifications,historic,interesting_places,other_fortifications", "point": {"lon": -72.95320892333984, "lat": -40.32916259765625}}, {"xid": "N4731242467", "name": "Pukara de La Compa\u00f1ia", "rate": 7, "osm": "node/4731242467", "wikidata": "Q3647970", "kinds": "historic,archaeology,interesting_places,other_archaeological_sites", "point": {"lon": -70.68378448486328, "lat": -34.06834411621094}}, {"xid": "N1938470554", "name": "Ascensor Carlos van Buren", "rate": 7, "osm": "node/1938470554", "wikidata": "Q16533263", "kinds": "railway_stations,industrial_facilities,historic,monuments_and_memorials,interesting_places,monuments", "point": {"lon": -71.6103744506836, "lat": -33.051795959472656}}, {"xid": "W15239307", "name": "Club H\u00edpico de Santiago", "rate": 7, "osm": "way/15239307", "wikidata": "Q5136270", "kinds": "sport,architecture,historic_architecture,interesting_places,stadiums,other_buildings_and_structures", "point": {"lon": -70.6686019897461, "lat": -33.46391677856445}}, {"xid": "N5187303623", "name": "Barrio Concha y Toro", "rate": 7, "osm": "node/5187303623", "wikidata": "Q4863726", "kinds": "fountains,urban_environment,cultural,interesting_places", "point": {"lon": -70.6658935546875, "lat": -33.445499420166016}}, {"xid": "W15089896", "name": "Estadio Nacional", "rate": 7, "osm": "way/15089896", "wikidata": "Q594994", "kinds": "sport,architecture,historic_architecture,interesting_places,stadiums,other_buildings_and_structures", "point": {"lon": -70.6106185913086, "lat": -33.466426849365234}}, {"xid": "W339603492", "name": "Piscina Estadio Nacional", "rate": 7, "osm": "way/339603492", "wikidata": "Q594994", "kinds": "sport,architecture,historic_architecture,interesting_places,stadiums,other_buildings_and_structures", "point": {"lon": -70.60890197753906, "lat": -33.46340560913086}}, {"xid": "R12700473", "name": "Monasterio Carmen Bajo de San Rafael", "rate": 7, "osm": "relation/12700473", "wikidata": "Q16578049", "kinds": "religion,other_temples,interesting_places", "point": {"lon": -70.65303802490234, "lat": -33.429481506347656}}, {"xid": "N385057916", "name": "Iglesia San Francisco", "rate": 7, "osm": "node/385057916", "wikidata": "Q7413980", "kinds": "religion,churches,interesting_places,other_churches", "point": {"lon": -71.6007308959961, "lat": -33.03943634033203}}, {"xid": "W413447238", "name": "Palacio Vergara", "rate": 7, "osm": "way/413447238", "wikidata": "Q9054414", "kinds": "palaces,architecture,historic_architecture,historic,monuments_and_memorials,interesting_places,monuments", "point": {"lon": -71.55396270751953, "lat": -33.028221130371094}}, {"xid": "N6069139797", "name": "Paso de Uspallata", "rate": 7, "osm": "node/6069139797", "wikidata": "Q1561072", "kinds": "view_points,other,interesting_places", "point": {"lon": -70.07068634033203, "lat": -32.82489776611328}}, {"xid": "N1908903921", "name": "Paso de Uspallata", "rate": 7, "osm": "node/1908903921", "wikidata": "Q1561072", "kinds": "other,unclassified_objects,interesting_places,historic_object", "point": {"lon": -70.0708236694336, "lat": -32.824729919433594}}, {"xid": "W220396840", "name": "Plaza Barraza", "rate": 7, "osm": "way/220396840", "wikidata": "Q5720046", "kinds": "urban_environment,gardens_and_parks,cultural,interesting_places", "point": {"lon": -71.48111724853516, "lat": -30.655698776245117}}, {"xid": "N8941500728", "name": "Guayac\u00e1n (Chile)", "rate": 7, "osm": "node/8941500728", "wikidata": "Q5887512", "kinds": "railway_stations,industrial_facilities,interesting_places", "point": {"lon": -71.34807586669922, "lat": -29.96993064880371}}, {"xid": "W131505563", "name": "San Pedro de Atacama Stadium", "rate": 7, "osm": "way/131505563", "wikidata": "Q5911116", "kinds": "sport,religion,architecture,historic_architecture,churches,interesting_places,stadiums,other_buildings_and_structures,other_churches", "point": {"lon": -68.20001220703125, "lat": -22.908775329589844}}, {"xid": "N1089071728", "name": "Caspana", "rate": 7, "osm": "node/1089071728", "wikidata": "Q62055393", "kinds": "view_points,other,religion,churches,interesting_places,other_churches", "point": {"lon": -68.21366882324219, "lat": -22.331045150756836}}, {"xid": "W627470394", "name": "Iglesia de Pachama", "rate": 7, "osm": "way/627470394", "wikidata": "Q16577635", "kinds": "religion,churches,interesting_places,other_churches", "point": {"lon": -69.52869415283203, "lat": -18.42885398864746}}, {"xid": "W854096364", "name": "Tacna Courthouse", "rate": 7, "osm": "way/854096364", "wikidata": "Q17232550", "kinds": "cultural,museums,interesting_places,other_museums", "point": {"lon": -70.24845123291016, "lat": -18.01093292236328}}, {"xid": "N1276923249", "name": "Teatro Lastarria Go", "rate": 7, "osm": "node/1276923249", "wikidata": "Q1156435", "kinds": "cultural,theatres_and_entertainments,interesting_places,other_theatres", "point": {"lon": -70.64127349853516, "lat": -33.439369201660156}}, {"xid": "N2074158265", "name": "Teatro Municipal de Iquique", "rate": 7, "osm": "node/2074158265", "wikidata": "Q6139822", "kinds": "cultural,theatres_and_entertainments,interesting_places,other_theatres", "point": {"lon": -70.15242767333984, "lat": -20.214754104614258}}, {"xid": "W123140344", "name": "Fuerte Santa Juana de Guadalc\u00e1zar", "rate": 7, "osm": "way/123140344", "wikidata": "Q5638226", "kinds": "fortifications,historic,interesting_places,other_fortifications", "point": {"lon": -72.94132232666016, "lat": -37.169010162353516}}, {"xid": "W274292143", "name": "Capilla de la Providencia", "rate": 7, "osm": "way/274292143", "wikidata": "Q16542745", "kinds": "religion,other_temples,historic,monuments_and_memorials,interesting_places,monuments", "point": {"lon": -71.60655212402344, "lat": -33.052181243896484}}, {"xid": "W157650982", "name": "Convento San Francisco", "rate": 7, "osm": "way/157650982", "wikidata": "Q7413975", "kinds": "religion,churches,interesting_places,other_churches", "point": {"lon": -70.64788055419922, "lat": -33.44379425048828}}, {"xid": "W848663663", "name": "Church of Detif", "rate": 7, "osm": "way/848663663", "wikidata": "Q501093", "kinds": "religion,churches,interesting_places,other_churches", "point": {"lon": -73.55657958984375, "lat": -42.68510818481445}}, {"xid": "N5066671180", "name": "Escuela Ram\u00f3n Barros Luco", "rate": 7, "osm": "node/5066671180", "wikidata": "Q28770019", "kinds": "historic,monuments_and_memorials,interesting_places,monuments", "point": {"lon": -71.60882568359375, "lat": -33.04878616333008}}, {"xid": "W175940910", "name": "Votive Temple of Maip\u00fa", "rate": 7, "osm": "way/175940910", "wikidata": "Q9085727", "kinds": "religion,other_temples,interesting_places", "point": {"lon": -70.76615905761719, "lat": -33.51080322265625}}, {"xid": "W447523184", "name": "Antigua Iglesia de Las Agustinas", "rate": 7, "osm": "way/447523184", "wikidata": "Q5912627", "kinds": "religion,churches,interesting_places,other_churches", "point": {"lon": -70.65135955810547, "lat": -33.44230651855469}}, {"xid": "W114621538", "name": "Iglesia de San Francisco", "rate": 7, "osm": "way/114621538", "wikidata": "Q7413975", "kinds": "religion,churches,interesting_places,catholic_churches", "point": {"lon": -70.64756774902344, "lat": -33.443443298339844}}, {"xid": "W112747183", "name": "Palacio Edwards", "rate": 7, "osm": "way/112747183", "wikidata": "Q6057638", "kinds": "architecture,historic_architecture,interesting_places,other_buildings_and_structures", "point": {"lon": -70.65385437011719, "lat": -33.437278747558594}}, {"xid": "N3192058402", "name": "Ascensor Bar\u00f3n", "rate": 7, "osm": "node/3192058402", "wikidata": "Q5707950", "kinds": "view_points,other,railway_stations,industrial_facilities,historic,monuments_and_memorials,interesting_places,monuments", "point": {"lon": -71.6041030883789, "lat": -33.04310989379883}}, {"xid": "W232539469", "name": "Casa Juptner", "rate": 7, "osm": "way/232539469", "wikidata": "Q5754270", "kinds": "architecture,historic_architecture,interesting_places,other_buildings_and_structures", "point": {"lon": -72.9897689819336, "lat": -41.314292907714844}}, {"xid": "W201851132", "name": "Museo del Mar Lord Cochrane", "rate": 7, "osm": "way/201851132", "wikidata": "Q16490494", "kinds": "fortifications,historic,monuments_and_memorials,cultural,museums,interesting_places,other_museums,other_fortifications,monuments", "point": {"lon": -71.6301498413086, "lat": -33.038536071777344}}, {"xid": "W284758655", "name": "Plaza Ingeniero Guido Jacobacci", "rate": 7, "osm": "way/284758655", "wikidata": "Q5412591", "kinds": "railway_stations,industrial_facilities,urban_environment,gardens_and_parks,cultural,interesting_places", "point": {"lon": -69.546630859375, "lat": -41.32946014404297}}, {"xid": "W123140335", "name": "Parque Fuerte Santa Juana", "rate": 7, "osm": "way/123140335", "wikidata": "Q5638226", "kinds": "urban_environment,gardens_and_parks,cultural,interesting_places", "point": {"lon": -72.94151306152344, "lat": -37.16912841796875}}, {"xid": "W416457199", "name": "Pulacayo", "rate": 7, "osm": "way/416457199", "wikidata": "Q1535901", "kinds": "historic,historical_places,interesting_places,historic_districts,historic_settlements", "point": {"lon": -66.70037078857422, "lat": -20.390512466430664}}, {"xid": "W923210953", "name": "Chivilingo Hydroelectric Plant", "rate": 7, "osm": "way/923210953", "wikidata": "Q5102590", "kinds": "factories,industrial_facilities,architecture,historic_architecture,power_stations,interesting_places,destroyed_objects", "point": {"lon": -73.14495086669922, "lat": -37.13587188720703}}, {"xid": "W208401630", "name": "Bas\u00edlica del Coraz\u00f3n de Mar\u00eda, Santiago de Chile", "rate": 7, "osm": "way/208401630", "wikidata": "Q16489564", "kinds": "religion,churches,interesting_places,catholic_churches", "point": {"lon": -70.65087890625, "lat": -33.45540237426758}}, {"xid": "W603097985", "name": "Antigua Aduana de Iquique", "rate": 7, "osm": "way/603097985", "wikidata": "Q16527137", "kinds": "architecture,historic_architecture,interesting_places,destroyed_objects", "point": {"lon": -70.1525650024414, "lat": -20.211471557617188}}, {"xid": "W917564848", "name": "Cabo V\u00edrgenes Lighthouse", "rate": 7, "osm": "way/917564848", "wikidata": "Q3378567", "kinds": "lighthouses,towers,architecture,interesting_places,other_towers", "point": {"lon": -68.35580444335938, "lat": -52.33320999145508}}, {"xid": "N5661634650", "name": "Iglesia San Antonio, Vilupulli", "rate": 7, "osm": "node/5661634650", "wikidata": "Q500720", "kinds": "religion,churches,interesting_places,other_churches", "point": {"lon": -73.78799438476562, "lat": -42.60531997680664}}, {"xid": "N5378542825", "name": "Terminal de Ingeniero Jacobacci", "rate": 7, "osm": "node/5378542825", "wikidata": "Q5412591", "kinds": "railway_stations,industrial_facilities,interesting_places", "point": {"lon": -69.5467300415039, "lat": -41.32931900024414}}, {"xid": "N1583181884", "name": "Ingeniero Jacobacci", "rate": 7, "osm": "node/1583181884", "wikidata": "Q5412591", "kinds": "railway_stations,industrial_facilities,interesting_places", "point": {"lon": -69.54660034179688, "lat": -41.32915115356445}}, {"xid": "N1816639758", "name": "San Pedro de Alcantara", "rate": 7, "osm": "node/1816639758", "wikidata": "Q2837571", "kinds": "architecture,historic_architecture,interesting_places,restaurants,foods,tourist_facilities,other_buildings_and_structures", "point": {"lon": -71.83561706542969, "lat": -34.76893615722656}}, {"xid": "W134684324", "name": "Hacienda El Huique", "rate": 7, "osm": "way/134684324", "wikidata": "Q42898018", "kinds": "other,unclassified_objects,interesting_places,historic_object", "point": {"lon": -71.3732681274414, "lat": -34.52667999267578}}, {"xid": "N4685599720", "name": "Iglesia de la Merced", "rate": 7, "osm": "node/4685599720", "wikidata": "Q5909300", "kinds": "religion,churches,interesting_places,other_churches", "point": {"lon": -70.74017333984375, "lat": -34.16903305053711}}, {"xid": "W332359460", "name": "Escuela Ram\u00f3n Barros Luco", "rate": 7, "osm": "way/332359460", "wikidata": "Q28770019", "kinds": "historic,monuments_and_memorials,interesting_places,monuments", "point": {"lon": -71.610107421875, "lat": -33.0466194152832}}, {"xid": "N941452304", "name": "Estaci\u00f3n Cartagena", "rate": 7, "osm": "node/941452304", "wikidata": "Q16564195", "kinds": "railway_stations,industrial_facilities,interesting_places", "point": {"lon": -71.61346435546875, "lat": -33.552215576171875}}, {"xid": "W175940920", "name": "Votive Temple of Maip\u00fa", "rate": 7, "osm": "way/175940920", "wikidata": "Q9085727", "kinds": "other,unclassified_objects,interesting_places,historic_object", "point": {"lon": -70.76520538330078, "lat": -33.51108932495117}}, {"xid": "W722394092", "name": "Casona Ochagav\u00eda", "rate": 7, "osm": "way/722394092", "wikidata": "Q39921755", "kinds": "architecture,historic_architecture,interesting_places,other_buildings_and_structures", "point": {"lon": -70.66361999511719, "lat": -33.48756408691406}}, {"xid": "N2305959372", "name": "Capilla Lo Contador", "rate": 7, "osm": "node/2305959372", "wikidata": "Q5977960", "kinds": "religion,other_temples,interesting_places", "point": {"lon": -70.6180191040039, "lat": -33.41939926147461}}, {"xid": "W256614844", "name": "Campus Lo Contador, Pontificia Universidad Cat\u00f3lica de Chile", "rate": 7, "osm": "way/256614844", "wikidata": "Q5977960", "kinds": "architecture,historic_architecture,interesting_places,other_buildings_and_structures", "point": {"lon": -70.6178207397461, "lat": -33.41916275024414}}, {"xid": "N3641378523", "name": "Reloj", "rate": 7, "osm": "node/3641378523", "wikidata": "Q6150261", "kinds": "historic,monuments_and_memorials,interesting_places,monuments", "point": {"lon": -71.60494232177734, "lat": -33.041744232177734}}, {"xid": "N1766410993", "name": "Ascensor Bar\u00f3n", "rate": 7, "osm": "node/1766410993", "wikidata": "Q5707950", "kinds": "railway_stations,industrial_facilities,historic,monuments_and_memorials,interesting_places,monuments", "point": {"lon": -71.60396575927734, "lat": -33.04287338256836}}, {"xid": "N2300358620", "name": "Convento de San Francisco", "rate": 7, "osm": "node/2300358620", "wikidata": "Q16491445", "kinds": "religion,churches,monasteries,interesting_places,catholic_churches", "point": {"lon": -70.68920135498047, "lat": -32.78415298461914}}, {"xid": "N1732856572", "name": "Iglesia de Cha\u00f1aral", "rate": 7, "osm": "node/1732856572", "wikidata": "Q16577528", "kinds": "religion,churches,interesting_places,other_churches", "point": {"lon": -70.6219482421875, "lat": -26.347827911376953}}, {"xid": "W93800040", "name": "Iglesia de Cha\u00f1aral", "rate": 7, "osm": "way/93800040", "wikidata": "Q16577528", "kinds": "religion,churches,urban_environment,gardens_and_parks,cultural,interesting_places,other_churches", "point": {"lon": -70.62234497070312, "lat": -26.34792137145996}}, {"xid": "W271385761", "name": "Hospital de Pisagua", "rate": 7, "osm": "way/271385761", "wikidata": "Q16576189", "kinds": "architecture,historic_architecture,historic,monuments_and_memorials,interesting_places,destroyed_objects,monuments", "point": {"lon": -70.2166519165039, "lat": -19.598546981811523}}, {"xid": "W145758687", "name": "Iglesia de Guallatire", "rate": 7, "osm": "way/145758687", "wikidata": "Q16578011", "kinds": "religion,churches,interesting_places,other_churches", "point": {"lon": -69.15388488769531, "lat": -18.498315811157227}}, {"xid": "W379421151", "name": "Escuela Socoroma", "rate": 7, "osm": "way/379421151", "wikidata": "Q16577961", "kinds": "religion,churches,interesting_places,other_churches", "point": {"lon": -69.60271453857422, "lat": -18.263607025146484}}, {"xid": "W145575810", "name": "Plaza de Socoroma", "rate": 7, "osm": "way/145575810", "wikidata": "Q16577961", "kinds": "religion,churches,urban_environment,gardens_and_parks,cultural,interesting_places,other_churches", "point": {"lon": -69.60237884521484, "lat": -18.26358413696289}}, {"xid": "N410692007", "name": "Iglesia de Socoroma", "rate": 7, "osm": "node/410692007", "wikidata": "Q16577961", "kinds": "religion,churches,interesting_places,other_churches", "point": {"lon": -69.60240936279297, "lat": -18.263256072998047}}, {"xid": "N319581607", "name": "Pulacayo", "rate": 7, "osm": "node/319581607", "wikidata": "Q1535901", "kinds": "historic,historical_places,interesting_places,historic_settlements", "point": {"lon": -66.69830322265625, "lat": -20.388551712036133}}, {"xid": "W335594207", "name": "Hotel Termas del Flaco", "rate": 7, "osm": "way/335594207", "wikidata": "Q6142712", "kinds": "hot_springs,natural_springs,natural,interesting_places,springs_others,water_parks,amusements", "point": {"lon": -70.4345703125, "lat": -34.95884323120117}}, {"xid": "N1235207404", "name": "Iglesia del Buen Pastor", "rate": 7, "osm": "node/1235207404", "wikidata": "Q34740536", "kinds": "religion,churches,interesting_places,other_churches", "point": {"lon": -70.72097778320312, "lat": -32.756168365478516}}, {"xid": "W881484701", "name": "Prefectura de Carabineros de Punta Arenas", "rate": 7, "osm": "way/881484701", "wikidata": "Q16621356", "kinds": "architecture,historic_architecture,interesting_places,other_buildings_and_structures", "point": {"lon": -70.9094009399414, "lat": -53.16169357299805}}, {"xid": "W283016280", "name": "Teatro Municipal", "rate": 7, "osm": "way/283016280", "wikidata": "Q6139828", "kinds": "cultural,theatres_and_entertainments,interesting_places,other_theatres", "point": {"lon": -71.55054473876953, "lat": -33.0247802734375}}, {"xid": "W548702549", "name": "Fuerte Bulnes", "rate": 7, "osm": "way/548702549", "wikidata": "Q2362268", "kinds": "fortifications,historic,interesting_places,other_fortifications", "point": {"lon": -70.91716766357422, "lat": -53.63032531738281}}, {"xid": "W405360215", "name": "Iglesia Santa Filomena", "rate": 7, "osm": "way/405360215", "wikidata": "Q7139835", "kinds": "religion,churches,interesting_places,catholic_churches", "point": {"lon": -70.64347839355469, "lat": -33.42958068847656}}, {"xid": "W112317702", "name": "Teatro Municipal de Santiago", "rate": 7, "osm": "way/112317702", "wikidata": "Q6936293", "kinds": "cultural,theatres_and_entertainments,interesting_places,opera_houses", "point": {"lon": -70.64759063720703, "lat": -33.44100570678711}}, {"xid": "N8197643599", "name": "Museo de Artes Decorativas Palacio Rioja", "rate": 7, "osm": "node/8197643599", "wikidata": "Q6057796", "kinds": "historic,monuments_and_memorials,cultural,museums,interesting_places,other_museums,monuments", "point": {"lon": -71.54658508300781, "lat": -33.0207633972168}}, {"xid": "N6052252904", "name": "Fuerte Bulnes", "rate": 7, "osm": "node/6052252904", "wikidata": "Q2362268", "kinds": "fortifications,historic,historical_places,interesting_places,other_fortifications,historic_settlements", "point": {"lon": -70.9188461303711, "lat": -53.62997055053711}}, {"xid": "W282286847", "name": "Maestranza Bar\u00f3n", "rate": 7, "osm": "way/282286847", "wikidata": "Q42962102", "kinds": "other_buildings,industrial_facilities,interesting_places", "point": {"lon": -71.6032485961914, "lat": -33.03809356689453}}, {"xid": "R3642560", "name": "Los Glaciares National Park", "rate": 7, "osm": "relation/3642560", "wikidata": "Q215992", "kinds": "urban_environment,gardens_and_parks,cultural,natural,interesting_places,nature_reserves,national_parks", "point": {"lon": -73.37187957763672, "lat": -49.985267639160156}}, {"xid": "R11277779", "name": "Los Glaciares National Park", "rate": 7, "osm": "relation/11277779", "wikidata": "Q215992", "kinds": "urban_environment,gardens_and_parks,cultural,natural,interesting_places,nature_reserves,national_parks", "point": {"lon": -73.13459014892578, "lat": -49.985286712646484}}, {"xid": "N3153508164", "name": "Teatro Los Dominicos", "rate": 7, "osm": "node/3153508164", "wikidata": "Q16577561", "kinds": "religion,churches,cultural,theatres_and_entertainments,interesting_places,other_theatres,other_churches", "point": {"lon": -70.5416488647461, "lat": -33.40839767456055}}, {"xid": "N7965602395", "name": "Teatro Municipal de Tacna", "rate": 7, "osm": "node/7965602395", "wikidata": "Q17232551", "kinds": "cultural,theatres_and_entertainments,interesting_places,other_theatres", "point": {"lon": -70.24922180175781, "lat": -18.009929656982422}}, {"xid": "W406994083", "name": "Cine Teatro Espa\u00f1ol", "rate": 7, "osm": "way/406994083", "wikidata": "Q5769526", "kinds": "cultural,cinemas,theatres_and_entertainments,interesting_places", "point": {"lon": -67.4840087890625, "lat": -45.861419677734375}}, {"xid": "W93664296", "name": "Plaza de Armas de Puerto Varas", "rate": 7, "osm": "way/93664296", "wikidata": "Q5655960", "kinds": "urban_environment,gardens_and_parks,cultural,interesting_places", "point": {"lon": -72.98279571533203, "lat": -41.31783676147461}}, {"xid": "W206651329", "name": "Patio de Luz Vi\u00f1a Santa Rita", "rate": 7, "osm": "way/206651329", "wikidata": "Q6164444", "kinds": "urban_environment,gardens_and_parks,cultural,interesting_places", "point": {"lon": -70.67479705810547, "lat": -33.72519302368164}}, {"xid": "W597434210", "name": "Parque Cultural Las Condes", "rate": 7, "osm": "way/597434210", "wikidata": "Q42898744", "kinds": "urban_environment,gardens_and_parks,cultural,interesting_places", "point": {"lon": -70.5618896484375, "lat": -33.406097412109375}}, {"xid": "R2345828", "name": "Iglesia de los Dominicos", "rate": 7, "osm": "relation/2345828", "wikidata": "Q16577561", "kinds": "religion,churches,interesting_places,other_churches", "point": {"lon": -70.5413589477539, "lat": -33.40788269042969}}, {"xid": "W300548727", "name": "Iglesia San Lazaro", "rate": 7, "osm": "way/300548727", "wikidata": "Q16911666", "kinds": "religion,churches,interesting_places,other_churches", "point": {"lon": -70.66094207763672, "lat": -33.45225524902344}}, {"xid": "W85504939", "name": "Iglesia de Santa In\u00e9s", "rate": 7, "osm": "way/85504939", "wikidata": "Q101427289", "kinds": "religion,churches,interesting_places,catholic_churches", "point": {"lon": -71.252197265625, "lat": -29.898191452026367}}, {"xid": "W141294928", "name": "Palacio Rioja", "rate": 7, "osm": "way/141294928", "wikidata": "Q6057796", "kinds": "palaces,architecture,historic_architecture,historic,monuments_and_memorials,interesting_places,monuments", "point": {"lon": -71.54650115966797, "lat": -33.02061462402344}}, {"xid": "W542198140", "name": "Faro Evangelistas", "rate": 7, "osm": "way/542198140", "wikidata": "Q3378126", "kinds": "lighthouses,towers,architecture,interesting_places,other_towers", "point": {"lon": -75.09896087646484, "lat": -52.38897705078125}}, {"xid": "N6294500346", "name": "Fuerte Bulnes", "rate": 7, "osm": "node/6294500346", "wikidata": "Q2362268", "kinds": "fortifications,historic,cultural,museums,interesting_places,other_museums,other_fortifications", "point": {"lon": -70.91783142089844, "lat": -53.63007354736328}}, {"xid": "N345518842", "name": "Faro Punta Delgada", "rate": 7, "osm": "node/345518842", "wikidata": "Q5856262", "kinds": "lighthouses,towers,architecture,interesting_places,other_towers", "point": {"lon": -69.54487609863281, "lat": -52.455841064453125}}, {"xid": "N632646620", "name": "Punta Delgada", "rate": 7, "osm": "node/632646620", "wikidata": "Q5856262", "kinds": "railway_stations,industrial_facilities,lighthouses,towers,architecture,interesting_places,other_towers", "point": {"lon": -69.54574584960938, "lat": -52.45669937133789}}, {"xid": "N214202783", "name": "Caleta Tortel", "rate": 7, "osm": "node/214202783", "wikidata": "Q200955", "kinds": "historic,historical_places,interesting_places,historic_settlements", "point": {"lon": -73.53764343261719, "lat": -47.803470611572266}}, {"xid": "W432824504", "name": "Church of Caguach", "rate": 7, "osm": "way/432824504", "wikidata": "Q501097", "kinds": "religion,churches,interesting_places,other_churches", "point": {"lon": -73.2659912109375, "lat": -42.51015090942383}}, {"xid": "W209226316", "name": "Fuerte Ahui", "rate": 7, "osm": "way/209226316", "wikidata": "Q5870503", "kinds": "historic,archaeology,interesting_places,other_archaeological_sites", "point": {"lon": -73.85541534423828, "lat": -41.82953643798828}}, {"xid": "W818316516", "name": "Fuerte Ahui", "rate": 7, "osm": "way/818316516", "wikidata": "Q5870503", "kinds": "fortifications,historic,interesting_places,castles", "point": {"lon": -73.85517120361328, "lat": -41.82956314086914}}, {"xid": "W103403015", "name": "Torre\u00f3n Picarte", "rate": 7, "osm": "way/103403015", "wikidata": "Q16500103", "kinds": "towers,architecture,fortifications,historic,urban_environment,gardens_and_parks,cultural,interesting_places,other_towers,fortified_towers", "point": {"lon": -73.23174285888672, "lat": -39.817657470703125}}, {"xid": "W551663498", "name": "Fort Nativity", "rate": 7, "osm": "way/551663498", "wikidata": "Q5870573", "kinds": "fortifications,historic,interesting_places,other_fortifications", "point": {"lon": -72.6671371459961, "lat": -37.50205993652344}}, {"xid": "W464772375", "name": "Centro Cultural Casa Hodgkinson", "rate": 7, "osm": "way/464772375", "wikidata": "Q10861568", "kinds": "cultural,museums,interesting_places,other_museums", "point": {"lon": -70.72531127929688, "lat": -34.068485260009766}}, {"xid": "N1937775769", "name": "Ascensor Monjas", "rate": 7, "osm": "node/1937775769", "wikidata": "Q16533246", "kinds": "railway_stations,industrial_facilities,historic,monuments_and_memorials,interesting_places,monuments", "point": {"lon": -71.61479187011719, "lat": -33.05259704589844}}, {"xid": "W338884798", "name": "Colegio de los Sagrados Corazones", "rate": 7, "osm": "way/338884798", "wikidata": "Q16578028", "kinds": "historic,monuments_and_memorials,interesting_places,monuments", "point": {"lon": -71.6152572631836, "lat": -33.04872131347656}}, {"xid": "N1937775768", "name": "Ascensor Monjas", "rate": 7, "osm": "node/1937775768", "wikidata": "Q16533246", "kinds": "railway_stations,industrial_facilities,historic,monuments_and_memorials,interesting_places,monuments", "point": {"lon": -71.61389923095703, "lat": -33.051979064941406}}, {"xid": "N755491668", "name": "Iglesia San Ignacio", "rate": 7, "osm": "node/755491668", "wikidata": "Q5910277", "kinds": "religion,other_temples,interesting_places", "point": {"lon": -70.65679168701172, "lat": -33.447418212890625}}, {"xid": "N257689273", "name": "Ascensor Reina Victoria", "rate": 7, "osm": "node/257689273", "wikidata": "Q16533249", "kinds": "railway_stations,industrial_facilities,historic,monuments_and_memorials,interesting_places,monuments", "point": {"lon": -71.6265869140625, "lat": -33.04384231567383}}, {"xid": "W332702279", "name": "Castillo Wulff", "rate": 7, "osm": "way/332702279", "wikidata": "Q8039164", "kinds": "fortifications,historic,monuments_and_memorials,interesting_places,castles,monuments", "point": {"lon": -71.56486511230469, "lat": -33.01924514770508}}, {"xid": "N102660236", "name": "Mirador Castillo Wolff", "rate": 7, "osm": "node/102660236", "wikidata": "Q8039164", "kinds": "view_points,other,fortifications,historic,monuments_and_memorials,interesting_places,castles,monuments", "point": {"lon": -71.56497955322266, "lat": -33.019439697265625}}, {"xid": "W149924733", "name": "iglesia del Buen Pastor", "rate": 7, "osm": "way/149924733", "wikidata": "Q34740536", "kinds": "religion,churches,interesting_places,other_churches", "point": {"lon": -70.72016906738281, "lat": -32.75597381591797}}, {"xid": "W85504870", "name": "Plaza San Francisco", "rate": 7, "osm": "way/85504870", "wikidata": "Q5910173", "kinds": "urban_environment,gardens_and_parks,cultural,interesting_places", "point": {"lon": -71.25032043457031, "lat": -29.904573440551758}}, {"xid": "N5140879552", "name": "La Serena", "rate": 7, "osm": "node/5140879552", "wikidata": "Q5843174", "kinds": "railway_stations,industrial_facilities,interesting_places", "point": {"lon": -71.25676727294922, "lat": -29.902589797973633}}, {"xid": "N2343353524", "name": "Iglesia San Francisco", "rate": 7, "osm": "node/2343353524", "wikidata": "Q5910173", "kinds": "religion,other_temples,interesting_places", "point": {"lon": -71.24992370605469, "lat": -29.904563903808594}}, {"xid": "W613906768", "name": "Villa Vi\u00f1a de Cristo", "rate": 7, "osm": "way/613906768", "wikidata": "Q42897952", "kinds": "fortifications,historic,interesting_places,castles", "point": {"lon": -70.34898376464844, "lat": -27.361421585083008}}, {"xid": "W589984858", "name": "Estaci\u00f3n Caldera", "rate": 7, "osm": "way/589984858", "wikidata": "Q20014918", "kinds": "railway_stations,industrial_facilities,urban_environment,gardens_and_parks,cultural,interesting_places", "point": {"lon": -70.82373046875, "lat": -27.064990997314453}}, {"xid": "R5620176", "name": "Los Flamencos National Reserve", "rate": 7, "osm": "relation/5620176", "wikidata": "Q2029373", "kinds": "natural,interesting_places,nature_reserves,other_nature_conservation_areas", "point": {"lon": -67.31986236572266, "lat": -23.043302536010742}}, {"xid": "N2403303653", "name": "Museo Regional de Magallanes", "rate": 7, "osm": "node/2403303653", "wikidata": "Q6033717", "kinds": "cultural,museums,interesting_places,other_museums", "point": {"lon": -70.90607452392578, "lat": -53.1620979309082}}, {"xid": "N3925465413", "name": "Casa Natal de Domingo Faustino Sarmiento", "rate": 7, "osm": "node/3925465413", "wikidata": "Q5754443", "kinds": "cultural,museums,interesting_places,other_museums", "point": {"lon": -68.52906036376953, "lat": -31.5347957611084}}, {"xid": "W972427072", "name": "Teatro Huemul", "rate": 7, "osm": "way/972427072", "wikidata": "Q6139749", "kinds": "cultural,theatres_and_entertainments,interesting_places,other_theatres", "point": {"lon": -70.65142059326172, "lat": -33.47431564331055}}, {"xid": "N1628610190", "name": "Catedral de San Felipe", "rate": 7, "osm": "node/1628610190", "wikidata": "Q5758564", "kinds": "religion,cathedrals,interesting_places", "point": {"lon": -70.72438049316406, "lat": -32.75015640258789}}, {"xid": "W24964120", "name": "Metropolitan Cathedral", "rate": 7, "osm": "way/24964120", "wikidata": "Q15042373", "kinds": "religion,cathedrals,churches,interesting_places,other_churches", "point": {"lon": -70.65190887451172, "lat": -33.43763732910156}}, {"xid": "W582808377", "name": "Residencia Beaulier", "rate": 7, "osm": "way/582808377", "wikidata": "Q101500328", "kinds": "architecture,historic_architecture,interesting_places,other_buildings_and_structures", "point": {"lon": -70.90702819824219, "lat": -53.15931701660156}}, {"xid": "W136016120", "name": "Iglesia San Francisco", "rate": 7, "osm": "way/136016120", "wikidata": "Q5991778", "kinds": "religion,churches,interesting_places,other_churches", "point": {"lon": -73.24751281738281, "lat": -39.8181266784668}}, {"xid": "W203671007", "name": "Capilla ex Hospital San Juan de Dios", "rate": 7, "osm": "way/203671007", "wikidata": "Q42897834", "kinds": "religion,churches,interesting_places,catholic_churches", "point": {"lon": -72.11895751953125, "lat": -36.61905288696289}}, {"xid": "N2705894787", "name": "Estadio Victor Jara", "rate": 7, "osm": "node/2705894787", "wikidata": "Q3058826", "kinds": "architecture,historic_architecture,interesting_places,other_buildings_and_structures", "point": {"lon": -70.67467498779297, "lat": -33.450599670410156}}, {"xid": "N4227474134", "name": "El Peral", "rate": 7, "osm": "node/4227474134", "wikidata": "Q16533220", "kinds": "architecture,historic_architecture,historic,monuments_and_memorials,interesting_places,restaurants,foods,monuments,tourist_facilities,other_buildings_and_structures", "point": {"lon": -71.62947082519531, "lat": -33.040618896484375}}, {"xid": "W90926652", "name": "Faro Monumental La Serena", "rate": 7, "osm": "way/90926652", "wikidata": "Q5856224", "kinds": "lighthouses,towers,architecture,interesting_places,other_towers", "point": {"lon": -71.27430725097656, "lat": -29.905553817749023}}, {"xid": "W271155378", "name": "Parroquia de San Pedro de Pisagua", "rate": 7, "osm": "way/271155378", "wikidata": "Q16616517", "kinds": "religion,other_temples,interesting_places", "point": {"lon": -70.21150207519531, "lat": -19.596256256103516}}, {"xid": "W11423250", "name": "Mancera Island", "rate": 7, "osm": "way/11423250", "wikidata": "Q428033", "kinds": "natural,interesting_places,islands,other_islands", "point": {"lon": -73.39385986328125, "lat": -39.89093780517578}}, {"xid": "R1997921", "name": "Dawson Island", "rate": 7, "osm": "relation/1997921", "wikidata": "Q429041", "kinds": "natural,interesting_places,islands,other_islands", "point": {"lon": -70.64984130859375, "lat": -53.911399841308594}}, {"xid": "R11274150", "name": "Los Alerces National Park", "rate": 7, "osm": "relation/11274150", "wikidata": "Q828291", "kinds": "urban_environment,gardens_and_parks,cultural,natural,interesting_places,nature_reserves,national_parks", "point": {"lon": -71.85383605957031, "lat": -42.8709602355957}}, {"xid": "N1937775775", "name": "Ascensor San Agust\u00edn", "rate": 7, "osm": "node/1937775775", "wikidata": "Q16533255", "kinds": "railway_stations,industrial_facilities,historic,monuments_and_memorials,interesting_places,monuments", "point": {"lon": -71.63190460205078, "lat": -33.040531158447266}}, {"xid": "W827243576", "name": "Humedales de Monkul", "rate": 7, "osm": "way/827243576", "wikidata": "Q5041779", "kinds": "natural,interesting_places,nature_reserves,nature_reserves_others", "point": {"lon": -73.43844604492188, "lat": -38.68740463256836}}, {"xid": "N5471796122", "name": "Casa Violeta Parra", "rate": 7, "osm": "node/5471796122", "wikidata": "Q42898302", "kinds": "cultural,museums,interesting_places,other_museums", "point": {"lon": -71.95471954345703, "lat": -36.42710876464844}}, {"xid": "R9326318", "name": "Puerto Santa Cruz", "rate": 7, "osm": "relation/9326318", "wikidata": "Q932809", "kinds": "historic,historical_places,interesting_places,historic_settlements", "point": {"lon": -68.52497863769531, "lat": -50.020503997802734}}, {"xid": "R9845495", "name": "Carlos Anwandter Nature Sanctuary", "rate": 7, "osm": "relation/9845495", "wikidata": "Q5041779", "kinds": "natural,interesting_places,nature_reserves,nature_reserves_others", "point": {"lon": -73.19377899169922, "lat": -39.68815612792969}}, {"xid": "R10891156", "name": "Parque Nacional Laguna Blanca", "rate": 7, "osm": "relation/10891156", "wikidata": "Q828531", "kinds": "urban_environment,gardens_and_parks,cultural,natural,interesting_places,nature_reserves,national_parks", "point": {"lon": -70.32669830322266, "lat": -39.05393981933594}}, {"xid": "R11293141", "name": "Parque y Reserva Nacional Laguna Blanca", "rate": 7, "osm": "relation/11293141", "wikidata": "Q828531", "kinds": "urban_environment,gardens_and_parks,cultural,natural,interesting_places,nature_reserves,national_parks", "point": {"lon": -70.36122131347656, "lat": -39.02555847167969}}, {"xid": "N1865044936", "name": "Museo del Carmen", "rate": 7, "osm": "node/1865044936", "wikidata": "Q56318282", "kinds": "cultural,museums,interesting_places,other_museums", "point": {"lon": -70.7661361694336, "lat": -33.51047134399414}}, {"xid": "N8197682703", "name": "Museo Palacio Baburizza", "rate": 7, "osm": "node/8197682703", "wikidata": "Q6057588", "kinds": "historic,monuments_and_memorials,cultural,museums,interesting_places,other_museums,monuments", "point": {"lon": -71.62901306152344, "lat": -33.040225982666016}}, {"xid": "W227119861", "name": "Museo Nacional del Petr\u00f3leo", "rate": 7, "osm": "way/227119861", "wikidata": "Q6033618", "kinds": "cultural,museums,interesting_places,other_museums", "point": {"lon": -67.48097229003906, "lat": -45.8371696472168}}, {"xid": "R5824230", "name": "Museo y biblioteca casa natal de Domingo Faustino Sarmiento", "rate": 7, "osm": "relation/5824230", "wikidata": "Q5754443", "kinds": "national_museums,cultural,museums,interesting_places,history_museums", "point": {"lon": -68.52891540527344, "lat": -31.53484535217285}}, {"xid": "W124145085", "name": "Torre\u00f3n Los Canelos", "rate": 7, "osm": "way/124145085", "wikidata": "Q16500105", "kinds": "towers,architecture,fortifications,historic,urban_environment,gardens_and_parks,cultural,interesting_places,other_towers,fortified_towers", "point": {"lon": -73.24856567382812, "lat": -39.81781005859375}}, {"xid": "W463793109", "name": "Pileta Ornamental de Tacna", "rate": 7, "osm": "way/463793109", "wikidata": "Q6075908", "kinds": "fountains,historic,monuments_and_memorials,urban_environment,cultural,interesting_places,sculptures,monuments", "point": {"lon": -70.2512435913086, "lat": -18.01395034790039}}, {"xid": "N5326091044", "name": "Tena\u00fan", "rate": 7, "osm": "node/5326091044", "wikidata": "Q6141490", "kinds": "historic,historical_places,interesting_places,historic_settlements", "point": {"lon": -73.3738021850586, "lat": -42.332061767578125}}, {"xid": "W388310425", "name": "Capilla Santa Clara de Asis", "rate": 7, "osm": "way/388310425", "wikidata": "Q2912576", "kinds": "religion,churches,interesting_places,other_churches", "point": {"lon": -67.48351287841797, "lat": -29.148456573486328}}, {"xid": "W208374303", "name": "Iglesia Santa Ana", "rate": 7, "osm": "way/208374303", "wikidata": "Q5911484", "kinds": "religion,churches,interesting_places,other_churches", "point": {"lon": -70.65870666503906, "lat": -33.43782424926758}}, {"xid": "W526336914", "name": "Ruinas de Huanchaca", "rate": 7, "osm": "way/526336914", "wikidata": "Q5667460", "kinds": "factories,industrial_facilities,architecture,historic_architecture,cultural,theatres_and_entertainments,interesting_places,destroyed_objects,other_theatres", "point": {"lon": -70.41284942626953, "lat": -23.685211181640625}}, {"xid": "W334756681", "name": "Palacio Baburizza", "rate": 7, "osm": "way/334756681", "wikidata": "Q6057588", "kinds": "palaces,architecture,historic_architecture,historic,monuments_and_memorials,interesting_places,monuments", "point": {"lon": -71.62887573242188, "lat": -33.04034423828125}}, {"xid": "W54381480", "name": "Casa de la Cultura de \u00d1u\u00f1oa", "rate": 7, "osm": "way/54381480", "wikidata": "Q16911657", "kinds": "architecture,historic_architecture,interesting_places,manor_houses", "point": {"lon": -70.58747100830078, "lat": -33.45651626586914}}, {"xid": "W135571461", "name": "Ruinas de Huanchaca", "rate": 7, "osm": "way/135571461", "wikidata": "Q5667460", "kinds": "factories,industrial_facilities,architecture,historic_architecture,interesting_places,destroyed_objects", "point": {"lon": -70.41185760498047, "lat": -23.68579864501953}}, {"xid": "W619874648", "name": "Estaci\u00f3n San Francisco de Mostazal", "rate": 7, "osm": "way/619874648", "wikidata": "Q5844736", "kinds": "railway_stations,industrial_facilities,interesting_places", "point": {"lon": -70.71348571777344, "lat": -33.97704315185547}}, {"xid": "N283524309", "name": "Cerro El Roble", "rate": 7, "osm": "node/283524309", "wikidata": "Q1055833", "kinds": "view_points,other,mountain_peaks,geological_formations,natural,interesting_places", "point": {"lon": -71.01252746582031, "lat": -32.97640609741211}}, {"xid": "W301671887", "name": "V\u00edctor Jara Stadium", "rate": 7, "osm": "way/301671887", "wikidata": "Q3058826", "kinds": "sport,architecture,historic_architecture,interesting_places,stadiums,other_buildings_and_structures", "point": {"lon": -70.67466735839844, "lat": -33.45077133178711}}, {"xid": "W103998150", "name": "Faro San Isidro", "rate": 7, "osm": "way/103998150", "wikidata": "Q5856513", "kinds": "lighthouses,towers,architecture,interesting_places,other_towers", "point": {"lon": -70.97455596923828, "lat": -53.785221099853516}}, {"xid": "N198414366", "name": "Puerto Santa Cruz", "rate": 7, "osm": "node/198414366", "wikidata": "Q932809", "kinds": "historic,historical_places,interesting_places,historic_settlements", "point": {"lon": -68.52305603027344, "lat": -50.019203186035156}}, {"xid": "N654057020", "name": "Cueva de las Manos", "rate": 7, "osm": "node/654057020", "wikidata": "Q223385", "kinds": "historic,archaeology,geological_formations,natural,interesting_places,other_archaeological_sites,caves", "point": {"lon": -70.65596771240234, "lat": -47.1552734375}}, {"xid": "R2620953", "name": "Los Alerces National Park", "rate": 7, "osm": "relation/2620953", "wikidata": "Q828291", "kinds": "urban_environment,gardens_and_parks,cultural,natural,interesting_places,nature_reserves,national_parks", "point": {"lon": -71.87584686279297, "lat": -42.84280776977539}}, {"xid": "W162614543", "name": "Church of Nerc\u00f3n", "rate": 7, "osm": "way/162614543", "wikidata": "Q501153", "kinds": "religion,churches,urban_environment,gardens_and_parks,cultural,interesting_places,other_churches", "point": {"lon": -73.78548431396484, "lat": -42.501487731933594}}, {"xid": "W312081448", "name": "Church of Nerc\u00f3n", "rate": 7, "osm": "way/312081448", "wikidata": "Q501153", "kinds": "religion,churches,interesting_places,catholic_churches", "point": {"lon": -73.78543090820312, "lat": -42.501220703125}}, {"xid": "W563705036", "name": "Iglesia San Juan Bautista, San Juan", "rate": 7, "osm": "way/563705036", "wikidata": "Q2065592", "kinds": "religion,churches,interesting_places,other_churches", "point": {"lon": -73.50431823730469, "lat": -42.334991455078125}}, {"xid": "N8755169908", "name": "El Mait\u00e9n", "rate": 7, "osm": "node/8755169908", "wikidata": "Q5842054", "kinds": "railway_stations,industrial_facilities,interesting_places", "point": {"lon": -71.1658935546875, "lat": -42.054847717285156}}, {"xid": "R11180361", "name": "Laguna Blanca", "rate": 7, "osm": "relation/11180361", "wikidata": "Q828531", "kinds": "urban_environment,gardens_and_parks,cultural,natural,interesting_places,nature_reserves,national_parks", "point": {"lon": -70.36122131347656, "lat": -39.02555847167969}}, {"xid": "W89121388", "name": "Parque Isidora Cousi\u00f1o", "rate": 7, "osm": "way/89121388", "wikidata": "Q6062246", "kinds": "urban_environment,gardens_and_parks,cultural,interesting_places", "point": {"lon": -73.16726684570312, "lat": -37.091575622558594}}, {"xid": "N8603575717", "name": "Torre del Centenario de Lota", "rate": 7, "osm": "node/8603575717", "wikidata": "Q6150081", "kinds": "towers,architecture,interesting_places,other_towers", "point": {"lon": -73.16276550292969, "lat": -37.09431076049805}}, {"xid": "N4733394552", "name": "Mining Museum", "rate": 7, "osm": "node/4733394552", "wikidata": "Q5351017", "kinds": "industrial_facilities,mineshafts,interesting_places", "point": {"lon": -73.16102600097656, "lat": -37.07616424560547}}, {"xid": "R10891155", "name": "Reserva Nacional Laguna Blanca", "rate": 7, "osm": "relation/10891155", "wikidata": "Q828531", "kinds": "urban_environment,gardens_and_parks,cultural,natural,interesting_places,nature_reserves,national_parks", "point": {"lon": -70.3824691772461, "lat": -38.98053741455078}}, {"xid": "N4089246656", "name": "Zona T\u00edpica de Z\u00fa\u00f1iga", "rate": 7, "osm": "node/4089246656", "wikidata": "Q6172018", "kinds": "other,unclassified_objects,interesting_places,historic_object", "point": {"lon": -71.0986557006836, "lat": -34.35586166381836}}, {"xid": "N2386582851", "name": "Iglesia Guacarhue", "rate": 7, "osm": "node/2386582851", "wikidata": "Q16577531", "kinds": "religion,other_temples,interesting_places", "point": {"lon": -71.01590728759766, "lat": -34.35346603393555}}, {"xid": "N1266495025", "name": "San Francisco de Mostazal", "rate": 7, "osm": "node/1266495025", "wikidata": "Q5844736", "kinds": "railway_stations,industrial_facilities,interesting_places", "point": {"lon": -70.71331024169922, "lat": -33.977054595947266}}, {"xid": "N941441770", "name": "Tumba de Vicente Huidobro", "rate": 7, "osm": "node/941441770", "wikidata": "Q17364230", "kinds": "historic,monuments_and_memorials,cultural,museums,interesting_places,other_museums,monuments", "point": {"lon": -71.5992660522461, "lat": -33.557586669921875}}, {"xid": "N318377395", "name": "San Bernardo", "rate": 7, "osm": "node/318377395", "wikidata": "Q5400048", "kinds": "railway_stations,industrial_facilities,interesting_places", "point": {"lon": -70.69790649414062, "lat": -33.59502410888672}}, {"xid": "N4048567297", "name": "Casa Domeyko", "rate": 7, "osm": "node/4048567297", "wikidata": "Q107568852", "kinds": "architecture,historic_architecture,interesting_places,other_buildings_and_structures", "point": {"lon": -70.67243957519531, "lat": -33.438270568847656}}, {"xid": "N9005892232", "name": "Iglesia del Sant\u00edsimo Sacramento", "rate": 7, "osm": "node/9005892232", "wikidata": "Q16578061", "kinds": "religion,churches,interesting_places,other_churches", "point": {"lon": -70.63915252685547, "lat": -33.45773696899414}}, {"xid": "N1937775773", "name": "Ascensor San Agust\u00edn", "rate": 7, "osm": "node/1937775773", "wikidata": "Q16533255", "kinds": "railway_stations,industrial_facilities,historic,monuments_and_memorials,interesting_places,monuments", "point": {"lon": -71.63235473632812, "lat": -33.040401458740234}}, {"xid": "N257689246", "name": "Ascensor El Peral", "rate": 7, "osm": "node/257689246", "wikidata": "Q16533220", "kinds": "historic,monuments_and_memorials,interesting_places,monuments", "point": {"lon": -71.62944793701172, "lat": -33.039608001708984}}, {"xid": "N437499481", "name": "Valle del Encanto", "rate": 7, "osm": "node/437499481", "wikidata": "Q6159212", "kinds": "view_points,other,historic,archaeology,interesting_places,other_archaeological_sites", "point": {"lon": -71.37857818603516, "lat": -30.703683853149414}}, {"xid": "N7554880182", "name": "Faro de la Serena", "rate": 7, "osm": "node/7554880182", "wikidata": "Q5856224", "kinds": "lighthouses,towers,architecture,interesting_places,other_towers", "point": {"lon": -71.27430725097656, "lat": -29.905555725097656}}, {"xid": "N214200463", "name": "Montegrande", "rate": 7, "osm": "node/214200463", "wikidata": "Q16608822", "kinds": "historic,historical_places,interesting_places,historic_settlements", "point": {"lon": -70.49444580078125, "lat": -30.09385871887207}}, {"xid": "W92246765", "name": "Museo del Desierto de Atacama", "rate": 7, "osm": "way/92246765", "wikidata": "Q5667460", "kinds": "factories,industrial_facilities,architecture,historic_architecture,cultural,museums,interesting_places,destroyed_objects,other_museums", "point": {"lon": -70.4127197265625, "lat": -23.686010360717773}}, {"xid": "W135571435", "name": "Ruinas de Huanchaca", "rate": 7, "osm": "way/135571435", "wikidata": "Q5667460", "kinds": "factories,industrial_facilities,architecture,historic_architecture,interesting_places,destroyed_objects", "point": {"lon": -70.41150665283203, "lat": -23.68608283996582}}, {"xid": "W305086051", "name": "Ruinas de Huanchaca", "rate": 7, "osm": "way/305086051", "wikidata": "Q5667460", "kinds": "factories,industrial_facilities,architecture,historic_architecture,interesting_places,destroyed_objects", "point": {"lon": -70.40959930419922, "lat": -23.684707641601562}}, {"xid": "N597385705", "name": "Morro de Arica", "rate": 7, "osm": "node/597385705", "wikidata": "Q2026553", "kinds": "mountain_peaks,geological_formations,natural,interesting_places", "point": {"lon": -70.32402801513672, "lat": -18.480087280273438}}, {"xid": "N292444013", "name": "La Sebastiana (Casa de Pablo Neruda)", "rate": 7, "osm": "node/292444013", "wikidata": "Q5965210", "kinds": "biographical_museums,historic_house_museums,historic,monuments_and_memorials,cultural,museums,interesting_places,history_museums,monuments", "point": {"lon": -71.6229476928711, "lat": -33.053680419921875}}, {"xid": "N4307874813", "name": "Casa de Zela", "rate": 7, "osm": "node/4307874813", "wikidata": "Q17232523", "kinds": "cultural,museums,interesting_places,other_museums", "point": {"lon": -70.24983978271484, "lat": -18.011850357055664}}, {"xid": "W288957180", "name": "Capilla Caicaen", "rate": 7, "osm": "way/288957180", "wikidata": "Q16490207", "kinds": "religion,other_temples,interesting_places", "point": {"lon": -73.18763732910156, "lat": -41.79486846923828}}, {"xid": "W232539468", "name": "Casa Gotschlich", "rate": 7, "osm": "way/232539468", "wikidata": "Q16543958", "kinds": "architecture,historic_architecture,interesting_places,other_buildings_and_structures", "point": {"lon": -72.99057006835938, "lat": -41.3182258605957}}, {"xid": "W808481240", "name": "Church of Saint Augustine", "rate": 7, "osm": "way/808481240", "wikidata": "Q5991788", "kinds": "religion,churches,interesting_places,other_churches", "point": {"lon": -70.64891052246094, "lat": -33.440738677978516}}, {"xid": "W378056690", "name": "St. James Cathedral, Valpara\u00edso", "rate": 7, "osm": "way/378056690", "wikidata": "Q5758625", "kinds": "religion,cathedrals,interesting_places", "point": {"lon": -71.61878204345703, "lat": -33.04624938964844}}, {"xid": "W179344890", "name": "Bas\u00edlica de San Francisco", "rate": 7, "osm": "way/179344890", "wikidata": "Q5721997", "kinds": "religion,churches,interesting_places,catholic_churches", "point": {"lon": -68.84149169921875, "lat": -32.88669204711914}}, {"xid": "W225571161", "name": "Liceo Gabriela Mistral", "rate": 7, "osm": "way/225571161", "wikidata": "Q5975141", "kinds": "architecture,historic_architecture,interesting_places,other_buildings_and_structures", "point": {"lon": -71.2450942993164, "lat": -29.903610229492188}}, {"xid": "W620516809", "name": "Catedral de Iquique", "rate": 7, "osm": "way/620516809", "wikidata": "Q5758479", "kinds": "religion,cathedrals,interesting_places", "point": {"lon": -70.14984893798828, "lat": -20.211877822875977}}, {"xid": "N345519969", "name": "Faro Isla Magdalena", "rate": 7, "osm": "node/345519969", "wikidata": "Q3378131", "kinds": "lighthouses,towers,architecture,interesting_places,other_towers", "point": {"lon": -70.57559204101562, "lat": -52.91899490356445}}, {"xid": "N5893647985", "name": "Pucar\u00e1 de Turi", "rate": 7, "osm": "node/5893647985", "wikidata": "Q16622957", "kinds": "other,unclassified_objects,interesting_places,historic_object", "point": {"lon": -68.27642059326172, "lat": -22.233562469482422}}, {"xid": "N314997482", "name": "Santa Luc\u00eda Hill", "rate": 7, "osm": "node/314997482", "wikidata": "Q1055993", "kinds": "mountain_peaks,urban_environment,gardens_and_parks,cultural,geological_formations,natural,interesting_places", "point": {"lon": -70.6434555053711, "lat": -33.44035339355469}}, {"xid": "W232539471", "name": "Casa Yungue", "rate": 7, "osm": "way/232539471", "wikidata": "Q16544009", "kinds": "architecture,historic_architecture,interesting_places,other_buildings_and_structures", "point": {"lon": -72.98894500732422, "lat": -41.31902313232422}}, {"xid": "W306731477", "name": "Cariola", "rate": 7, "osm": "way/306731477", "wikidata": "Q16638070", "kinds": "cultural,theatres_and_entertainments,interesting_places,other_theatres", "point": {"lon": -70.65062713623047, "lat": -33.44821548461914}}, {"xid": "W125109935", "name": "Casa de Pedro del R\u00edo Za\u00f1artu", "rate": 7, "osm": "way/125109935", "wikidata": "Q16490400", "kinds": "palaces,architecture,historic_architecture,interesting_places", "point": {"lon": -73.04751586914062, "lat": -36.825538635253906}}, {"xid": "W563473980", "name": "Santuario de la Naturaleza Yerba Loca", "rate": 7, "osm": "way/563473980", "wikidata": "Q6121607", "kinds": "natural,interesting_places,nature_reserves,nature_reserves_others", "point": {"lon": -70.27861022949219, "lat": -33.26287078857422}}, {"xid": "R421862", "name": "Parque Nacional Sajama", "rate": 7, "osm": "relation/421862", "wikidata": "Q1519747", "kinds": "urban_environment,gardens_and_parks,cultural,natural,interesting_places,nature_reserves,national_parks", "point": {"lon": -68.9330825805664, "lat": -18.120038986206055}}, {"xid": "W829042866", "name": "Ex Casa de Gobierno", "rate": 7, "osm": "way/829042866", "wikidata": "Q19329144", "kinds": "cultural,museums,interesting_places,other_museums", "point": {"lon": -68.30408477783203, "lat": -54.80695343017578}}, {"xid": "W180191376", "name": "Palacio Cousi\u00f1o", "rate": 7, "osm": "way/180191376", "wikidata": "Q7126297", "kinds": "cultural,museums,interesting_places,other_museums", "point": {"lon": -70.6565933227539, "lat": -33.45216751098633}}, {"xid": "W41691119", "name": "Plaza Sacramentinos", "rate": 7, "osm": "way/41691119", "wikidata": "Q4868433", "kinds": "religion,churches,urban_environment,gardens_and_parks,cultural,interesting_places,other_churches", "point": {"lon": -70.64856719970703, "lat": -33.45106506347656}}, {"xid": "R7779620", "name": "Parque Forestal", "rate": 7, "osm": "relation/7779620", "wikidata": "Q42898085", "kinds": "urban_environment,gardens_and_parks,cultural,interesting_places", "point": {"lon": -70.6401596069336, "lat": -33.43568801879883}}, {"xid": "W23321628", "name": "Santa Luc\u00eda Hill", "rate": 7, "osm": "way/23321628", "wikidata": "Q1055993", "kinds": "mountain_peaks,urban_environment,gardens_and_parks,cultural,geological_formations,natural,interesting_places", "point": {"lon": -70.64344024658203, "lat": -33.43992614746094}}, {"xid": "W41691117", "name": "Basilica de los Sacramentinos", "rate": 7, "osm": "way/41691117", "wikidata": "Q4868433", "kinds": "religion,churches,interesting_places,other_churches", "point": {"lon": -70.6493148803711, "lat": -33.45134353637695}}, {"xid": "W557858842", "name": "Iglesia Santo Domingo", "rate": 7, "osm": "way/557858842", "wikidata": "Q16577945", "kinds": "religion,churches,interesting_places,other_churches", "point": {"lon": -71.25375366210938, "lat": -29.903501510620117}}, {"xid": "R394238", "name": "Presidential Palace of Chile", "rate": 7, "osm": "relation/394238", "wikidata": "Q1146881", "kinds": "mints,factories,industrial_facilities,palaces,architecture,historic_architecture,interesting_places", "point": {"lon": -70.65420532226562, "lat": -33.44282531738281}}, {"xid": "W551528511", "name": "Palacio Carrasco", "rate": 7, "osm": "way/551528511", "wikidata": "Q6057605", "kinds": "palaces,architecture,historic_architecture,historic,monuments_and_memorials,interesting_places,monuments", "point": {"lon": -71.55045318603516, "lat": -33.020050048828125}}, {"xid": "W84880193", "name": "Castillo San Pedro de Alc\u00e1ntara", "rate": 7, "osm": "way/84880193", "wikidata": "Q16490489", "kinds": "architecture,historic_architecture,fortifications,historic,interesting_places,destroyed_objects,castles", "point": {"lon": -73.39276885986328, "lat": -39.886924743652344}}, {"xid": "N8726507492", "name": "Ascensor Villaseca", "rate": 7, "osm": "node/8726507492", "wikidata": "Q16533259", "kinds": "railway_stations,industrial_facilities,historic,monuments_and_memorials,interesting_places,monuments", "point": {"lon": -71.63091278076172, "lat": -33.030086517333984}}, {"xid": "N4449953828", "name": "Ascensor Villaseca", "rate": 7, "osm": "node/4449953828", "wikidata": "Q16533259", "kinds": "railway_stations,industrial_facilities,historic,monuments_and_memorials,interesting_places,monuments", "point": {"lon": -71.63004302978516, "lat": -33.031394958496094}}, {"xid": "W157650809", "name": "Iglesia de San Agust\u00edn", "rate": 7, "osm": "way/157650809", "wikidata": "Q5991788", "kinds": "religion,architecture,historic_architecture,churches,interesting_places,shops,malls,tourist_facilities,other_buildings_and_structures,other_churches", "point": {"lon": -70.64860534667969, "lat": -33.44131851196289}}, {"xid": "N3864726635", "name": "Ascensor Concepci\u00f3n", "rate": 7, "osm": "node/3864726635", "wikidata": "Q5707953", "kinds": "architecture,historic_architecture,historic,monuments_and_memorials,interesting_places,restaurants,foods,monuments,tourist_facilities,other_buildings_and_structures", "point": {"lon": -71.62642669677734, "lat": -33.04188537597656}}, {"xid": "W23690483", "name": "Laguna Colorada", "rate": 7, "osm": "way/23690483", "wikidata": "Q1327873", "kinds": "water,natural,interesting_places,other_lakes", "point": {"lon": -67.77951049804688, "lat": -22.206310272216797}}, {"xid": "N6528232119", "name": "Posesion lighthouse", "rate": 7, "osm": "node/6528232119", "wikidata": "Q5856135", "kinds": "lighthouses,towers,architecture,interesting_places,other_towers", "point": {"lon": -68.96195983886719, "lat": -52.29104232788086}}, {"xid": "W338211564", "name": "Iglesia San Antonio de Colo", "rate": 7, "osm": "way/338211564", "wikidata": "Q500226", "kinds": "religion,churches,interesting_places,other_churches", "point": {"lon": -73.40192413330078, "lat": -42.25885009765625}}, {"xid": "N985400400", "name": "Museo de Sitio Castillo San Pedro de Alcantara", "rate": 7, "osm": "node/985400400", "wikidata": "Q16490489", "kinds": "fortifications,historic,cultural,museums,interesting_places,castles,other_museums", "point": {"lon": -73.39324951171875, "lat": -39.887752532958984}}, {"xid": "W84880200", "name": "Fuerte de San Luis de Alba de Amargos", "rate": 7, "osm": "way/84880200", "wikidata": "Q16569811", "kinds": "architecture,historic_architecture,fortifications,historic,interesting_places,destroyed_objects,other_fortifications", "point": {"lon": -73.42378997802734, "lat": -39.873313903808594}}, {"xid": "W470249097", "name": "Iglesia de San Pedro de Alc\u00e1ntara, Chile", "rate": 7, "osm": "way/470249097", "wikidata": "Q42898021", "kinds": "religion,other_temples,interesting_places", "point": {"lon": -71.83843994140625, "lat": -34.76642990112305}}, {"xid": "W313491847", "name": "Scuola Italiana Arturo Dell'Oro", "rate": 7, "osm": "way/313491847", "wikidata": "Q6122665", "kinds": "historic,monuments_and_memorials,interesting_places,monuments", "point": {"lon": -71.61056518554688, "lat": -33.04669952392578}}, {"xid": "W601761125", "name": "Cementerio N\u00b0 2 de Valpara\u00edso", "rate": 7, "osm": "way/601761125", "wikidata": "Q16482024", "kinds": "cemeteries,historic,burial_places,interesting_places", "point": {"lon": -71.62615966796875, "lat": -33.04651641845703}}, {"xid": "W180191510", "name": "Bas\u00edlica del Salvador", "rate": 7, "osm": "way/180191510", "wikidata": "Q5722110", "kinds": "religion,architecture,historic_architecture,churches,interesting_places,destroyed_objects,catholic_churches", "point": {"lon": -70.66178131103516, "lat": -33.44116973876953}}, {"xid": "W896254167", "name": "Augustinians", "rate": 7, "osm": "way/896254167", "wikidata": "Q5991788", "kinds": "religion,churches,monasteries,interesting_places,other_churches", "point": {"lon": -70.6487045288086, "lat": -33.441017150878906}}, {"xid": "W216521289", "name": "Palacio Falabella", "rate": 7, "osm": "way/216521289", "wikidata": "Q6057670", "kinds": "architecture,historic_architecture,interesting_places,other_buildings_and_structures", "point": {"lon": -70.60990905761719, "lat": -33.432289123535156}}, {"xid": "N271958032", "name": "Ascensor Concepci\u00f3n", "rate": 7, "osm": "node/271958032", "wikidata": "Q5707953", "kinds": "railway_stations,industrial_facilities,historic,monuments_and_memorials,interesting_places,monuments", "point": {"lon": -71.6263198852539, "lat": -33.04130172729492}}, {"xid": "N257689216", "name": "Ascensor Concepci\u00f3n", "rate": 7, "osm": "node/257689216", "wikidata": "Q5707953", "kinds": "railway_stations,industrial_facilities,historic,monuments_and_memorials,interesting_places,monuments", "point": {"lon": -71.62649536132812, "lat": -33.04094314575195}}, {"xid": "N3744181511", "name": "St. James Cathedral, Valpara\u00edso", "rate": 7, "osm": "node/3744181511", "wikidata": "Q5758625", "kinds": "religion,architecture,historic_architecture,cathedrals,interesting_places,shops,bakeries,tourist_facilities,other_buildings_and_structures", "point": {"lon": -71.61747741699219, "lat": -33.04685592651367}}, {"xid": "N303880089", "name": "Christ the Redeemer of the Andes", "rate": 7, "osm": "node/303880089", "wikidata": "Q69992", "kinds": "historic,monuments_and_memorials,urban_environment,cultural,interesting_places,sculptures,monuments", "point": {"lon": -70.07075500488281, "lat": -32.82528305053711}}, {"xid": "W565137567", "name": "Plaza Santo Domingo", "rate": 7, "osm": "way/565137567", "wikidata": "Q16577945", "kinds": "urban_environment,gardens_and_parks,cultural,interesting_places", "point": {"lon": -71.25314331054688, "lat": -29.903472900390625}}, {"xid": "W306436255", "name": "Gabriela Mistral", "rate": 7, "osm": "way/306436255", "wikidata": "Q42898884", "kinds": "architecture,historic_architecture,interesting_places,other_buildings_and_structures", "point": {"lon": -71.25161743164062, "lat": -29.879220962524414}}, {"xid": "R8785210", "name": "Talampaya National Park", "rate": 7, "osm": "relation/8785210", "wikidata": "Q398108", "kinds": "urban_environment,gardens_and_parks,cultural,natural,interesting_places,nature_reserves,national_parks", "point": {"lon": -67.87378692626953, "lat": -29.89141273498535}}, {"xid": "N6655144888", "name": "Ruinas de Oficina Francisco Puelma", "rate": 7, "osm": "node/6655144888", "wikidata": "Q28501632", "kinds": "architecture,historic_architecture,interesting_places,destroyed_objects", "point": {"lon": -69.6614990234375, "lat": -23.185457229614258}}, {"xid": "W162887089", "name": "Shincal de Quimivil", "rate": 7, "osm": "way/162887089", "wikidata": "Q951509", "kinds": "settlements,historic,archaeology,interesting_places", "point": {"lon": -67.1828384399414, "lat": -27.688453674316406}}, {"xid": "W835415043", "name": "Pucar\u00e1 de Turi", "rate": 7, "osm": "way/835415043", "wikidata": "Q16622957", "kinds": "historic,archaeology,interesting_places,other_archaeological_sites", "point": {"lon": -68.2767105102539, "lat": -22.23392105102539}}, {"xid": "N3366058475", "name": "Pukara de Copaquilla", "rate": 7, "osm": "node/3366058475", "wikidata": "Q9064259", "kinds": "historic,archaeology,interesting_places,other_archaeological_sites", "point": {"lon": -69.64154052734375, "lat": -18.393733978271484}}, {"xid": "W431569850", "name": "Cementerio General de Tacna", "rate": 7, "osm": "way/431569850", "wikidata": "Q5760306", "kinds": "cemeteries,historic,burial_places,interesting_places", "point": {"lon": -70.2579574584961, "lat": -18.000835418701172}}, {"xid": "W194211366", "name": "Casa Lo Matta", "rate": 7, "osm": "way/194211366", "wikidata": "Q20973612", "kinds": "cultural,museums,interesting_places,other_museums", "point": {"lon": -70.54469299316406, "lat": -33.387630462646484}}, {"xid": "N5917372024", "name": "Castillo Brunet", "rate": 7, "osm": "node/5917372024", "wikidata": "Q28163226", "kinds": "fortifications,historic,monuments_and_memorials,interesting_places,castles,monuments", "point": {"lon": -71.56189727783203, "lat": -33.02176284790039}}, {"xid": "W96310633", "name": "Casa Raddatz", "rate": 7, "osm": "way/96310633", "wikidata": "Q16544002", "kinds": "architecture,historic_architecture,interesting_places,other_buildings_and_structures", "point": {"lon": -72.96549224853516, "lat": -41.327449798583984}}, {"xid": "W809513024", "name": "Iglesia de San Jos\u00e9 de Maipo", "rate": 7, "osm": "way/809513024", "wikidata": "Q16577714", "kinds": "religion,churches,interesting_places,other_churches", "point": {"lon": -70.3524169921875, "lat": -33.63969039916992}}, {"xid": "W163737287", "name": "Iglesia de Santo Domingo", "rate": 7, "osm": "way/163737287", "wikidata": "Q7420511", "kinds": "religion,churches,interesting_places,catholic_churches", "point": {"lon": -70.65033721923828, "lat": -33.43571472167969}}, {"xid": "W651768261", "name": "Iglesia Recoleta Dominica", "rate": 7, "osm": "way/651768261", "wikidata": "Q5912521", "kinds": "religion,other_temples,interesting_places", "point": {"lon": -70.64451599121094, "lat": -33.42390441894531}}, {"xid": "W333210759", "name": "Iglesia Compa\u00f1\u00eda de Jes\u00fas", "rate": 7, "osm": "way/333210759", "wikidata": "Q16577978", "kinds": "religion,churches,interesting_places,catholic_churches", "point": {"lon": -71.6027603149414, "lat": -33.04669189453125}}, {"xid": "W967052355", "name": "San Juan Bautista", "rate": 7, "osm": "way/967052355", "wikidata": "Q2942352", "kinds": "religion,cathedrals,interesting_places", "point": {"lon": -68.5264892578125, "lat": -31.53694725036621}}, {"xid": "W188679315", "name": "Catedral de San Juan", "rate": 7, "osm": "way/188679315", "wikidata": "Q2942352", "kinds": "religion,cathedrals,interesting_places", "point": {"lon": -68.52622985839844, "lat": -31.537105560302734}}, {"xid": "W111354783", "name": "Copiap\u00f3 Cathedral", "rate": 7, "osm": "way/111354783", "wikidata": "Q5758462", "kinds": "religion,cathedrals,interesting_places", "point": {"lon": -70.333251953125, "lat": -27.366350173950195}}, {"xid": "W150868324", "name": "Escuela San Francisco", "rate": 7, "osm": "way/150868324", "wikidata": "Q16577683", "kinds": "religion,churches,interesting_places,other_churches", "point": {"lon": -68.65008544921875, "lat": -22.342634201049805}}, {"xid": "W231907207", "name": "Iglesia de San Andr\u00e9s de Pica", "rate": 7, "osm": "way/231907207", "wikidata": "Q16577637", "kinds": "religion,churches,interesting_places,other_churches", "point": {"lon": -69.32933044433594, "lat": -20.49176025390625}}, {"xid": "W231802696", "name": "Casa de la Cultura", "rate": 7, "osm": "way/231802696", "wikidata": "Q8341777", "kinds": "architecture,historic_architecture,interesting_places,other_buildings_and_structures", "point": {"lon": -70.32109069824219, "lat": -18.47715187072754}}, {"xid": "W904609790", "name": "Iglesia de Achauta", "rate": 7, "osm": "way/904609790", "wikidata": "Q5909167", "kinds": "religion,churches,interesting_places,other_churches", "point": {"lon": -68.6248550415039, "lat": -19.283180236816406}}, {"xid": "W94719838", "name": "St. Charles Borromeo Cathedral", "rate": 7, "osm": "way/94719838", "wikidata": "Q5758446", "kinds": "religion,cathedrals,interesting_places", "point": {"lon": -72.10205078125, "lat": -36.60685348510742}}, {"xid": "N7055165588", "name": "Cerro Cordillera", "rate": 7, "osm": "node/7055165588", "wikidata": "Q5707956", "kinds": "view_points,other,historic,monuments_and_memorials,interesting_places,monuments", "point": {"lon": -71.6309585571289, "lat": -33.038307189941406}}, {"xid": "W102173756", "name": "Church of Chonchi", "rate": 7, "osm": "way/102173756", "wikidata": "Q500215", "kinds": "religion,churches,interesting_places,catholic_churches", "point": {"lon": -73.77367401123047, "lat": -42.6241340637207}}, {"xid": "N1214175916", "name": "Casa de Neruda (La Chascona)", "rate": 7, "osm": "node/1214175916", "wikidata": "Q5962867", "kinds": "cultural,museums,interesting_places,other_museums", "point": {"lon": -70.63420104980469, "lat": -33.431182861328125}}, {"xid": "W41265517", "name": "Iglesia de San Jos\u00e9 de Maipo", "rate": 7, "osm": "way/41265517", "wikidata": "Q16577714", "kinds": "religion,churches,urban_environment,gardens_and_parks,cultural,interesting_places,other_churches", "point": {"lon": -70.35289001464844, "lat": -33.64036178588867}}, {"xid": "W263488434", "name": "Liceo Gregorio Cordovez", "rate": 7, "osm": "way/263488434", "wikidata": "Q5975087", "kinds": "architecture,historic_architecture,interesting_places,other_buildings_and_structures", "point": {"lon": -71.24349212646484, "lat": -29.902490615844727}}, {"xid": "N1088903121", "name": "Museo Ferroviario Baquedano", "rate": 7, "osm": "node/1088903121", "wikidata": "Q4075872", "kinds": "railway_stations,historic,museums,museums_of_science_and_technology,railway_museums,industrial_facilities,monuments_and_memorials,cultural,interesting_places,monuments", "point": {"lon": -69.83921813964844, "lat": -23.335193634033203}}, {"xid": "W328056079", "name": "Casa Abaroa", "rate": 7, "osm": "way/328056079", "wikidata": "Q16490354", "kinds": "cultural,museums,interesting_places,other_museums", "point": {"lon": -70.40213775634766, "lat": -23.65839195251465}}, {"xid": "W192677063", "name": "Museo Regional de Antofagasta", "rate": 7, "osm": "way/192677063", "wikidata": "Q2884831", "kinds": "cultural,museums,interesting_places,other_museums", "point": {"lon": -70.39775848388672, "lat": -23.644397735595703}}, {"xid": "W408779614", "name": "Plaza MacLean", "rate": 7, "osm": "way/408779614", "wikidata": "Q42855778", "kinds": "urban_environment,cultural,interesting_places,squares", "point": {"lon": -70.24951934814453, "lat": -18.010164260864258}}, {"xid": "W202211855", "name": "Santa Rosa de Lima", "rate": 7, "osm": "way/202211855", "wikidata": "Q16577480", "kinds": "religion,churches,interesting_places,other_churches", "point": {"lon": -71.07856750488281, "lat": -28.509008407592773}}, {"xid": "W892134657", "name": "Basilica de la Merced", "rate": 7, "osm": "way/892134657", "wikidata": "Q4867346", "kinds": "religion,churches,interesting_places,other_churches", "point": {"lon": -70.64653015136719, "lat": -33.4382209777832}}, {"xid": "R3438691", "name": "Iglesia de la Recoleta Franciscana", "rate": 7, "osm": "relation/3438691", "wikidata": "Q11167121", "kinds": "religion,other_temples,interesting_places", "point": {"lon": -70.6476058959961, "lat": -33.43032455444336}}, {"xid": "W381220663", "name": "Iglesia de San Santiago, Bel\u00e9n", "rate": 7, "osm": "way/381220663", "wikidata": "Q16577824", "kinds": "religion,churches,interesting_places,other_churches", "point": {"lon": -69.51519775390625, "lat": -18.467918395996094}}, {"xid": "W328638898", "name": "Estaci\u00f3n Baquedano", "rate": 7, "osm": "way/328638898", "wikidata": "Q4075872", "kinds": "railway_stations,industrial_facilities,interesting_places", "point": {"lon": -69.84051513671875, "lat": -23.33371925354004}}, {"xid": "N2118702244", "name": "Ascensor Cordillera", "rate": 7, "osm": "node/2118702244", "wikidata": "Q5707956", "kinds": "railway_stations,industrial_facilities,historic,monuments_and_memorials,interesting_places,monuments", "point": {"lon": -71.63019561767578, "lat": -33.03779220581055}}, {"xid": "N8961933709", "name": "Baquedano (Ferronor)", "rate": 7, "osm": "node/8961933709", "wikidata": "Q4075872", "kinds": "railway_stations,industrial_facilities,interesting_places", "point": {"lon": -69.83744812011719, "lat": -23.33439826965332}}, {"xid": "N4486305308", "name": "Cuartel Almirante Silva", "rate": 7, "osm": "node/4486305308", "wikidata": "Q55265977", "kinds": "historic,monuments_and_memorials,interesting_places,monuments", "point": {"lon": -71.6298828125, "lat": -33.02999496459961}}, {"xid": "W848663893", "name": "Church of Aldachildo", "rate": 7, "osm": "way/848663893", "wikidata": "Q501433", "kinds": "religion,churches,interesting_places,other_churches", "point": {"lon": -73.61188507080078, "lat": -42.583797454833984}}, {"xid": "N1928292967", "name": "Nahuel Pan", "rate": 7, "osm": "node/1928292967", "wikidata": "Q5843873", "kinds": "railway_stations,industrial_facilities,interesting_places", "point": {"lon": -71.17601013183594, "lat": -42.95770263671875}}, {"xid": "N7597212247", "name": "Firma de la Independencia de Chile", "rate": 7, "osm": "node/7597212247", "wikidata": "Q30341211", "kinds": "historic,monuments_and_memorials,urban_environment,cultural,interesting_places,sculptures,monuments", "point": {"lon": -71.66548156738281, "lat": -35.42591857910156}}, {"xid": "W660745703", "name": "Escuela Presidente Jos\u00e9 Manuel Balmaceda, Curic\u00f3", "rate": 7, "osm": "way/660745703", "wikidata": "Q30911214", "kinds": "architecture,historic_architecture,interesting_places,other_buildings_and_structures", "point": {"lon": -71.2446517944336, "lat": -34.9849739074707}}, {"xid": "N1493477380", "name": "Estaci\u00f3n Placilla", "rate": 7, "osm": "node/1493477380", "wikidata": "Q16564322", "kinds": "railway_stations,industrial_facilities,interesting_places", "point": {"lon": -71.12052917480469, "lat": -34.63759231567383}}, {"xid": "W273385333", "name": "Casa Memoria Jos\u00e9 Domingo Ca\u00f1as 1367", "rate": 7, "osm": "way/273385333", "wikidata": "Q6406008", "kinds": "architecture,historic_architecture,interesting_places,other_buildings_and_structures", "point": {"lon": -70.61722564697266, "lat": -33.45619201660156}}, {"xid": "N2118702237", "name": "Ascensor Cordillera", "rate": 7, "osm": "node/2118702237", "wikidata": "Q5707956", "kinds": "railway_stations,industrial_facilities,historic,monuments_and_memorials,interesting_places,monuments", "point": {"lon": -71.63056945800781, "lat": -33.03800964355469}}, {"xid": "N6304656386", "name": "View Point of Castle Brunet", "rate": 7, "osm": "node/6304656386", "wikidata": "Q28163226", "kinds": "view_points,other,fortifications,historic,monuments_and_memorials,interesting_places,castles,monuments", "point": {"lon": -71.56266784667969, "lat": -33.020999908447266}}, {"xid": "N1881532766", "name": "Villa Los Penitentes", "rate": 7, "osm": "node/1881532766", "wikidata": "Q3259759", "kinds": "historic,historical_places,archaeology,interesting_places,other_archaeological_sites,historic_settlements", "point": {"lon": -69.84117126464844, "lat": -32.84111404418945}}, {"xid": "N8919140828", "name": "Baquedano (FCAB)", "rate": 7, "osm": "node/8919140828", "wikidata": "Q4075872", "kinds": "railway_stations,industrial_facilities,interesting_places", "point": {"lon": -69.84070587158203, "lat": -23.333589553833008}}, {"xid": "N1088991258", "name": "San Francisco", "rate": 7, "osm": "node/1088991258", "wikidata": "Q16577683", "kinds": "religion,churches,interesting_places,other_churches", "point": {"lon": -68.65047454833984, "lat": -22.342876434326172}}, {"xid": "W271155380", "name": "Pisagua Municipal Theatre", "rate": 7, "osm": "way/271155380", "wikidata": "Q16638133", "kinds": "cultural,theatres_and_entertainments,interesting_places,other_theatres", "point": {"lon": -70.21170043945312, "lat": -19.596359252929688}}, {"xid": "W829442066", "name": "Iglesia Parroquial de Ushuaia", "rate": 7, "osm": "way/829442066", "wikidata": "Q19358936", "kinds": "religion,churches,interesting_places,catholic_churches", "point": {"lon": -68.31034851074219, "lat": -54.80856704711914}}, {"xid": "W881484575", "name": "Penitenciar\u00eda local de Punta Arenas", "rate": 7, "osm": "way/881484575", "wikidata": "Q16617953", "kinds": "architecture,historic_architecture,interesting_places,other_buildings_and_structures", "point": {"lon": -70.90958404541016, "lat": -53.161563873291016}}, {"xid": "W848664092", "name": "Church of Ichuac", "rate": 7, "osm": "way/848664092", "wikidata": "Q501126", "kinds": "religion,churches,interesting_places,other_churches", "point": {"lon": -73.71981811523438, "lat": -42.6159553527832}}, {"xid": "W274681688", "name": "Church of Ril\u00e1n", "rate": 7, "osm": "way/274681688", "wikidata": "Q500808", "kinds": "religion,churches,interesting_places,catholic_churches", "point": {"lon": -73.62841033935547, "lat": -42.519630432128906}}, {"xid": "N906427841", "name": "Hospital Cl\u00ednico San Borja Arriar\u00e1n", "rate": 7, "osm": "node/906427841", "wikidata": "Q16576127", "kinds": "architecture,historic_architecture,interesting_places,other_buildings_and_structures", "point": {"lon": -70.64274597167969, "lat": -33.46057891845703}}, {"xid": "W727375972", "name": "Casa de los Diez", "rate": 7, "osm": "way/727375972", "wikidata": "Q16490392", "kinds": "architecture,historic_architecture,interesting_places,other_buildings_and_structures", "point": {"lon": -70.6456527709961, "lat": -33.44620895385742}}, {"xid": "W24964200", "name": "Mapocho Station Cultural Center", "rate": 7, "osm": "way/24964200", "wikidata": "Q5400037", "kinds": "railway_stations,industrial_facilities,interesting_places", "point": {"lon": -70.65450286865234, "lat": -33.432132720947266}}, {"xid": "W141326262", "name": "Iglesia de la Divina Providencia", "rate": 7, "osm": "way/141326262", "wikidata": "Q5992050", "kinds": "religion,churches,interesting_places,catholic_churches", "point": {"lon": -70.61617279052734, "lat": -33.4276123046875}}, {"xid": "W585751514", "name": "Edificio de la Aduana", "rate": 7, "osm": "way/585751514", "wikidata": "Q5818363", "kinds": "historic,monuments_and_memorials,interesting_places,monuments", "point": {"lon": -71.63040924072266, "lat": -33.03385925292969}}, {"xid": "N1937775752", "name": "Ascensor Florida", "rate": 7, "osm": "node/1937775752", "wikidata": "Q16533228", "kinds": "historic,monuments_and_memorials,interesting_places,monuments", "point": {"lon": -71.61933898925781, "lat": -33.04951095581055}}, {"xid": "N945476898", "name": "Museo Yerbas Buenas", "rate": 7, "osm": "node/945476898", "wikidata": "Q20022173", "kinds": "cultural,museums,interesting_places,other_museums", "point": {"lon": -71.58159637451172, "lat": -35.74722671508789}}, {"xid": "R5478505", "name": "Parque Nacional Nevado de Tres Cruces", "rate": 7, "osm": "relation/5478505", "wikidata": "Q1702747", "kinds": "urban_environment,gardens_and_parks,cultural,natural,interesting_places,nature_reserves,national_parks", "point": {"lon": -69.03595733642578, "lat": -27.0362491607666}}, {"xid": "N2591064488", "name": "Casa Museo Eduardo Frei Montalva", "rate": 7, "osm": "node/2591064488", "wikidata": "Q5898202", "kinds": "biographical_museums,cultural,museums,interesting_places", "point": {"lon": -70.62236022949219, "lat": -33.44376754760742}}, {"xid": "W372248778", "name": "Museo Hist\u00f3rico del Centro Cultural Presidente Pedro Aguirre Cerda", "rate": 7, "osm": "way/372248778", "wikidata": "Q92108562", "kinds": "cultural,museums,interesting_places,other_museums", "point": {"lon": -70.615966796875, "lat": -32.86967468261719}}, {"xid": "N1258954983", "name": "Museo Nacional Benjam\u00edn Vicu\u00f1a Mackenna", "rate": 7, "osm": "node/1258954983", "wikidata": "Q5390779", "kinds": "cultural,museums,interesting_places,other_museums", "point": {"lon": -70.63380432128906, "lat": -33.44119644165039}}, {"xid": "W225570452", "name": "Catedral de La Serena", "rate": 7, "osm": "way/225570452", "wikidata": "Q5557919", "kinds": "religion,cathedrals,interesting_places", "point": {"lon": -71.25102233886719, "lat": -29.902969360351562}}, {"xid": "W231993101", "name": "Palacio Sara Braun", "rate": 7, "osm": "way/231993101", "wikidata": "Q16615150", "kinds": "palaces,architecture,historic_architecture,interesting_places", "point": {"lon": -70.90589141845703, "lat": -53.16217803955078}}, {"xid": "W175009415", "name": "Teatro Enrique Molina Garmendia", "rate": 7, "osm": "way/175009415", "wikidata": "Q6139702", "kinds": "architecture,historic_architecture,cultural,theatres_and_entertainments,interesting_places,destroyed_objects,other_theatres", "point": {"lon": -73.04727172851562, "lat": -36.831783294677734}}, {"xid": "N2303615791", "name": "Museo Ferroviario Nacional de Tacna", "rate": 7, "osm": "node/2303615791", "wikidata": "Q6975186", "kinds": "national_museums,cultural,museums,interesting_places,museums_of_science_and_technology,railway_museums", "point": {"lon": -70.2544937133789, "lat": -18.012937545776367}}, {"xid": "N5262967032", "name": "Museo Iglesia", "rate": 7, "osm": "node/5262967032", "wikidata": "Q501110", "kinds": "religion,churches,cultural,museums,interesting_places,other_museums,other_churches", "point": {"lon": -73.37523651123047, "lat": -42.33140563964844}}, {"xid": "R11361700", "name": "Palacio La Alhambra", "rate": 7, "osm": "relation/11361700", "wikidata": "Q6057698", "kinds": "cultural,museums,interesting_places,other_museums", "point": {"lon": -70.65589904785156, "lat": -33.43931198120117}}, {"xid": "W563171887", "name": "Patio Palacio Sara Braun", "rate": 7, "osm": "way/563171887", "wikidata": "Q16615150", "kinds": "urban_environment,gardens_and_parks,cultural,interesting_places", "point": {"lon": -70.90760803222656, "lat": -53.16183090209961}},