[{"xid": "N2983877927", "name": "Torre de Meca", "rate": 7, "osm": "node/2983877927", "wikidata": "Q97618836", "kinds": "architecture,historic_architecture,towers,fortifications,historic,monuments_and_memorials,interesting_places,destroyed_objects,other_fortifications,watchtowers,monuments", "point": {"lon": -6.013729095458984, "lat": 36.19456481933594}}, {"xid": "W206724555", "name": "Faro Camarinal", "rate": 7, "osm": "way/206724555", "wikidata": "Q11034482", "kinds": "lighthouses,architecture,towers,fortifications,historic,monuments_and_memorials,interesting_places,other_fortifications,watchtowers,monuments", "point": {"lon": -5.810447692871094, "lat": 36.090084075927734}}, {"xid": "W222817593", "name": "Baelo Claudia", "rate": 7, "osm": "way/222817593", "wikidata": "Q43174653", "kinds": "historic,archaeology,museums,other_museums,other_archaeological_sites,other_buildings,industrial_facilities,historical_places,cultural,interesting_places,historic_settlements", "point": {"lon": -5.774552822113037, "lat": 36.08946228027344}}, {"xid": "R12380332", "name": "Castle of San Sebasti\u00e1n", "rate": 7, "osm": "relation/12380332", "wikidata": "Q5050414", "kinds": "fortifications,historic,monuments_and_memorials,interesting_places,castles,monuments", "point": {"lon": -6.315607070922852, "lat": 36.52828598022461}}, {"xid": "W372606356", "name": "Casa de las Cinco Torres", "rate": 7, "osm": "way/372606356", "wikidata": "Q5755221", "kinds": "architecture,historic_architecture,interesting_places,manor_houses", "point": {"lon": -6.293951988220215, "lat": 36.53559112548828}}, {"xid": "W94750303", "name": "Forte da Meia Praia", "rate": 7, "osm": "way/94750303", "wikidata": "Q10283728", "kinds": "fortifications,historic,interesting_places,other_fortifications", "point": {"lon": -8.647340774536133, "lat": 37.117454528808594}}, {"xid": "N68920635", "name": "Meia Praia", "rate": 7, "osm": "node/68920635", "wikidata": "Q10283728", "kinds": "fortifications,historical_places,historic,interesting_places,historic_districts,other_fortifications", "point": {"lon": -8.646174430847168, "lat": 37.1185302734375}}, {"xid": "W481761783", "name": "Church of Saint James the Great (Est\u00f4mbar)", "rate": 7, "osm": "way/481761783", "wikidata": "Q5993967", "kinds": "religion,churches,cultural,urban_environment,interesting_places,squares,other_churches", "point": {"lon": -8.487374305725098, "lat": 37.14623260498047}}, {"xid": "W931977548", "name": "Turismo Porto Covo", "rate": 7, "osm": "way/931977548", "wikidata": "Q5117009", "kinds": "religion,churches,interesting_places,other_churches", "point": {"lon": -8.792654037475586, "lat": 37.85035705566406}}, {"xid": "R7445566", "name": "Castelo de Santiago do Cac\u00e9m", "rate": 7, "osm": "relation/7445566", "wikidata": "Q5049824", "kinds": "fortifications,historic,interesting_places,castles", "point": {"lon": -8.698159217834473, "lat": 38.01435470581055}}, {"xid": "W625133603", "name": "Roman ruins of Creiro", "rate": 7, "osm": "way/625133603", "wikidata": "Q63565703", "kinds": "architecture,historic_architecture,historic,archaeology,natural,interesting_places,nature_reserves,destroyed_objects,other_archaeological_sites,other_nature_conservation_areas", "point": {"lon": -8.976786613464355, "lat": 38.48152160644531}}, {"xid": "N6344641096", "name": "Roman ruins of Creiro", "rate": 7, "osm": "node/6344641096", "wikidata": "Q63565703", "kinds": "architecture,historic_architecture,historic,archaeology,interesting_places,destroyed_objects,other_archaeological_sites", "point": {"lon": -8.97667407989502, "lat": 38.48201370239258}}, {"xid": "N1971135978", "name": "Pelourinho de Palmela", "rate": 7, "osm": "node/1971135978", "wikidata": "Q10348156", "kinds": "architecture,historic_architecture,interesting_places,other_buildings_and_structures", "point": {"lon": -8.899666786193848, "lat": 38.56782150268555}}, {"xid": "W555569360", "name": "Casa das Pedras", "rate": 7, "osm": "way/555569360", "wikidata": "Q74474474", "kinds": "architecture,historic_architecture,interesting_places,other_buildings_and_structures", "point": {"lon": -9.361227035522461, "lat": 38.68890380859375}}, {"xid": "W560153105", "name": "Casa das Pedras", "rate": 7, "osm": "way/560153105", "wikidata": "Q74474474", "kinds": "architecture,historic_architecture,interesting_places,other_buildings_and_structures", "point": {"lon": -9.361371040344238, "lat": 38.68932342529297}}, {"xid": "W259346570", "name": "Padr\u00e3o dos Descobrimentos", "rate": 7, "osm": "way/259346570", "wikidata": "Q1133712", "kinds": "view_points,other,historic,monuments_and_memorials,interesting_places,monuments", "point": {"lon": -9.205695152282715, "lat": 38.693603515625}}, {"xid": "W155477750", "name": "Esta\u00e7\u00e3o Fluvial de Bel\u00e9m", "rate": 7, "osm": "way/155477750", "wikidata": "Q10275808", "kinds": "railway_stations,industrial_facilities,interesting_places", "point": {"lon": -9.198532104492188, "lat": 38.69497299194336}}, {"xid": "R12988911", "name": "Necessidades Palace", "rate": 7, "osm": "relation/12988911", "wikidata": "Q11336481", "kinds": "palaces,architecture,historic_architecture,towers,interesting_places,other_towers", "point": {"lon": -9.171088218688965, "lat": 38.707035064697266}}, {"xid": "W115238860", "name": "Resid\u00eancia Oficial do Primeiro-Ministro", "rate": 7, "osm": "way/115238860", "wikidata": "Q3457743", "kinds": "palaces,architecture,historic_architecture,interesting_places", "point": {"lon": -9.155354499816895, "lat": 38.71284103393555}}, {"xid": "N6203430732", "name": "Chafariz de Benfica", "rate": 7, "osm": "node/6203430732", "wikidata": "Q16934777", "kinds": "fountains,historic,monuments_and_memorials,cultural,urban_environment,interesting_places,sculptures,monuments", "point": {"lon": -9.2009916305542, "lat": 38.750553131103516}}, {"xid": "N5165116494", "name": "Roman villa of Frielas", "rate": 7, "osm": "node/5165116494", "wikidata": "Q10276237", "kinds": "settlements,historic,archaeology,interesting_places,roman_villas", "point": {"lon": -9.143634796142578, "lat": 38.82673645019531}}, {"xid": "N283499600", "name": "Mafra", "rate": 7, "osm": "node/283499600", "wikidata": "Q10275776", "kinds": "railway_stations,industrial_facilities,interesting_places", "point": {"lon": -9.291372299194336, "lat": 38.897457122802734}}, {"xid": "W473633088", "name": "Esta\u00e7\u00e3o Ferrovi\u00e1ria de Mafra", "rate": 7, "osm": "way/473633088", "wikidata": "Q10275776", "kinds": "railway_stations,industrial_facilities,interesting_places", "point": {"lon": -9.291452407836914, "lat": 38.897525787353516}}, {"xid": "N1629604393", "name": "Castelo de Torres Vedras", "rate": 7, "osm": "node/1629604393", "wikidata": "Q5049838", "kinds": "fortifications,historic,interesting_places,castles", "point": {"lon": -9.261077880859375, "lat": 39.09464645385742}}, {"xid": "R6991679", "name": "Aqueduto da Usseira", "rate": 7, "osm": "relation/6991679", "wikidata": "Q8187811", "kinds": "bridges,architecture,interesting_places,aqueducts", "point": {"lon": -9.156224250793457, "lat": 39.355655670166016}}, {"xid": "N2305795082", "name": "Martinho da Arcada", "rate": 7, "osm": "node/2305795082", "wikidata": "Q10326949", "kinds": "architecture,historic_architecture,interesting_places,foods,cafes,tourist_facilities,other_buildings_and_structures", "point": {"lon": -9.135848045349121, "lat": 38.70869064331055}}, {"xid": "N5651521604", "name": "Galerias Romanas da Rua da Prata", "rate": 7, "osm": "node/5651521604", "wikidata": "Q10288100", "kinds": "historic,archaeology,interesting_places,other_archaeological_sites", "point": {"lon": -9.136666297912598, "lat": 38.709747314453125}}, {"xid": "N5648166761", "name": "Forte de Santa Apol\u00f3nia", "rate": 7, "osm": "node/5648166761", "wikidata": "Q10283887", "kinds": "architecture,historic_architecture,fortifications,historic,archaeology,interesting_places,destroyed_objects,other_fortifications,other_archaeological_sites", "point": {"lon": -9.116768836975098, "lat": 38.72352600097656}}, {"xid": "W158599646", "name": "Igreja Matriz de Bucelas", "rate": 7, "osm": "way/158599646", "wikidata": "Q10300428", "kinds": "religion,churches,interesting_places,other_churches", "point": {"lon": -9.119178771972656, "lat": 38.90058517456055}}, {"xid": "N4290095132", "name": "Our Lady of the Rock", "rate": 7, "osm": "node/4290095132", "wikidata": "Q5472492", "kinds": "view_points,other,fortifications,historic,interesting_places,other_fortifications", "point": {"lon": -8.386542320251465, "lat": 37.095542907714844}}, {"xid": "N666995533", "name": "Alte", "rate": 7, "osm": "node/666995533", "wikidata": "Q10300012", "kinds": "religion,churches,interesting_places,other_churches", "point": {"lon": -8.176786422729492, "lat": 37.23497009277344}}, {"xid": "N7934811986", "name": "Arco da Vila", "rate": 7, "osm": "node/7934811986", "wikidata": "Q11906389", "kinds": "architecture,historic_architecture,historic,monuments_and_memorials,interesting_places,monuments,triumphal_archs", "point": {"lon": -7.934863090515137, "lat": 37.01466751098633}}, {"xid": "N4010859708", "name": "Ermida de S\u00e3o Sebasti\u00e3o", "rate": 7, "osm": "node/4010859708", "wikidata": "Q66813850", "kinds": "religion,churches,interesting_places,other_churches", "point": {"lon": -7.937594890594482, "lat": 37.02051544189453}}, {"xid": "W531073439", "name": "S\u00e3o Marcos train station", "rate": 7, "osm": "way/531073439", "wikidata": "Q10275795", "kinds": "railway_stations,industrial_facilities,interesting_places", "point": {"lon": -8.371553421020508, "lat": 37.353355407714844}}, {"xid": "W819513589", "name": "Castelo de Aljustrel", "rate": 7, "osm": "way/819513589", "wikidata": "Q5049742", "kinds": "architecture,historic_architecture,fortifications,historic,archaeology,interesting_places,destroyed_objects,castles,other_archaeological_sites", "point": {"lon": -8.16744613647461, "lat": 37.88154602050781}}, {"xid": "W401803993", "name": "Auditorio de la Merced", "rate": 7, "osm": "way/401803993", "wikidata": "Q5912480", "kinds": "religion,churches,interesting_places,other_churches", "point": {"lon": -6.354588985443115, "lat": 36.77642059326172}}, {"xid": "W685061137", "name": "Iglesia de Nuestra Se\u00f1ora de los Desamparados", "rate": 7, "osm": "way/685061137", "wikidata": "Q5912654", "kinds": "religion,churches,interesting_places,catholic_churches", "point": {"lon": -6.354226112365723, "lat": 36.778141021728516}}, {"xid": "W300295800", "name": "Torre Almenara", "rate": 7, "osm": "way/300295800", "wikidata": "Q43136441", "kinds": "architecture,towers,fortifications,historic,monuments_and_memorials,interesting_places,castles,watchtowers,monuments", "point": {"lon": -6.9572954177856445, "lat": 37.17775344848633}}, {"xid": "W205028694", "name": "Columna IV Centenario", "rate": 7, "osm": "way/205028694", "wikidata": "Q64995055", "kinds": "historic,monuments_and_memorials,interesting_places,monuments", "point": {"lon": -6.92393159866333, "lat": 37.20766067504883}}, {"xid": "W677846302", "name": "Dolmen de Soto", "rate": 7, "osm": "way/677846302", "wikidata": "Q5812504", "kinds": "megaliths,historic,dolmens,monuments_and_memorials,archaeology,burial_places,interesting_places,monuments", "point": {"lon": -6.751503944396973, "lat": 37.35215759277344}}, {"xid": "N6346970710", "name": "Dolmen de Soto", "rate": 7, "osm": "node/6346970710", "wikidata": "Q5812504", "kinds": "megaliths,historic,dolmens,archaeology,monuments_and_memorials,burial_places,interesting_places,monuments", "point": {"lon": -6.7519731521606445, "lat": 37.352760314941406}}, {"xid": "N1402220023", "name": "Dolmen de La Pastora", "rate": 7, "osm": "node/1402220023", "wikidata": "Q1235860", "kinds": "historic,dolmens,monuments_and_memorials,archaeology,burial_places,interesting_places,other_archaeological_sites,monuments", "point": {"lon": -6.064572334289551, "lat": 37.41317367553711}}, {"xid": "W116689837", "name": "Iglesia de la Magdalena", "rate": 7, "osm": "way/116689837", "wikidata": "Q7419759", "kinds": "religion,churches,historic,burial_places,interesting_places,other_burial_places,catholic_churches", "point": {"lon": -5.998387336730957, "lat": 37.390560150146484}}, {"xid": "W119581553", "name": "Jardines de la Santa Caridad", "rate": 7, "osm": "way/119581553", "wikidata": "Q858907", "kinds": "religion,churches,gardens_and_parks,cultural,urban_environment,interesting_places,other_churches", "point": {"lon": -5.9962005615234375, "lat": 37.383731842041016}}, {"xid": "W119587058", "name": "Chapel of Antiguo Seminario Santa Mar\u00eda de Jes\u00fas", "rate": 7, "osm": "way/119587058", "wikidata": "Q15209082", "kinds": "religion,churches,interesting_places,other_churches", "point": {"lon": -5.99324369430542, "lat": 37.382904052734375}}, {"xid": "W119429975", "name": "Iglesia de San Felipe", "rate": 7, "osm": "way/119429975", "wikidata": "Q44302478", "kinds": "religion,churches,interesting_places,other_churches", "point": {"lon": -5.9915595054626465, "lat": 37.38885498046875}}, {"xid": "W119429326", "name": "Iglesia de San Nicol\u00e1s de Bari (Sevilla)", "rate": 7, "osm": "way/119429326", "wikidata": "Q5911023", "kinds": "religion,churches,interesting_places,catholic_churches", "point": {"lon": -5.989327430725098, "lat": 37.388675689697266}}, {"xid": "W767972076", "name": "Iglesia de San Isidoro", "rate": 7, "osm": "way/767972076", "wikidata": "Q5549091", "kinds": "religion,churches,interesting_places,catholic_churches", "point": {"lon": -5.990521430969238, "lat": 37.389434814453125}}, {"xid": "W40509107", "name": "Iglesia de San Mart\u00edn", "rate": 7, "osm": "way/40509107", "wikidata": "Q5910764", "kinds": "religion,churches,interesting_places,other_churches", "point": {"lon": -5.992825031280518, "lat": 37.396278381347656}}, {"xid": "N1083968158", "name": "Monasterio de San Isidoro del Campo", "rate": 7, "osm": "node/1083968158", "wikidata": "Q778571", "kinds": "religion,monasteries,interesting_places", "point": {"lon": -6.036427974700928, "lat": 37.4345817565918}}, {"xid": "N1461575533", "name": "Iglesia de Nuestra Se\u00f1ora de la Consolaci\u00f3n", "rate": 7, "osm": "node/1461575533", "wikidata": "Q30078443", "kinds": "religion,churches,interesting_places,other_churches", "point": {"lon": -5.763815879821777, "lat": 37.84252166748047}}, {"xid": "N301769591", "name": "Iglesia de Nuestra Se\u00f1ora de la Consolaci\u00f3n", "rate": 7, "osm": "node/301769591", "wikidata": "Q29866560", "kinds": "religion,churches,interesting_places,other_churches", "point": {"lon": -5.758422374725342, "lat": 37.92926788330078}}, {"xid": "N3995961452", "name": "Pelourinho de Beja", "rate": 7, "osm": "node/3995961452", "wikidata": "Q10348072", "kinds": "architecture,historic_architecture,interesting_places,other_buildings_and_structures", "point": {"lon": -7.864718914031982, "lat": 38.015201568603516}}, {"xid": "N4806551607", "name": "pousada castelo de alvito", "rate": 7, "osm": "node/4806551607", "wikidata": "Q4993716", "kinds": "historic,accomodations,castles,guest_houses,interesting_places,fortifications", "point": {"lon": -7.992005825042725, "lat": 38.257877349853516}}, {"xid": "W291399482", "name": "Barragem romana de Nossa Senhora da Represa", "rate": 7, "osm": "way/291399482", "wikidata": "Q16496955", "kinds": "industrial_facilities,dams,historic,archaeology,interesting_places,other_archaeological_sites", "point": {"lon": -7.916057586669922, "lat": 38.233341217041016}}, {"xid": "W115604680", "name": "Castelo de Viana do Alentejo", "rate": 7, "osm": "way/115604680", "wikidata": "Q5050437", "kinds": "fortifications,historic,interesting_places,castles", "point": {"lon": -8.00169849395752, "lat": 38.33210754394531}}, {"xid": "W291407657", "name": "Villa Romana da Tourega", "rate": 7, "osm": "way/291407657", "wikidata": "Q17390294", "kinds": "settlements,historic,archaeology,interesting_places,roman_villas", "point": {"lon": -8.028188705444336, "lat": 38.501983642578125}}, {"xid": "W162376479", "name": "Igreja de S\u00e3o Francisco (\u00c9vora)", "rate": 7, "osm": "way/162376479", "wikidata": "Q1085296", "kinds": "religion,churches,monasteries,interesting_places,catholic_churches", "point": {"lon": -7.90855598449707, "lat": 38.56877517700195}}, {"xid": "N3994190691", "name": "Anta da Vidigueira", "rate": 7, "osm": "node/3994190691", "wikidata": "Q51076285", "kinds": "megaliths,historic,dolmens,monuments_and_memorials,archaeology,burial_places,interesting_places,monuments", "point": {"lon": -7.659550189971924, "lat": 38.67644119262695}}, {"xid": "N1176960988", "name": "Forte de Santa Luzia", "rate": 7, "osm": "node/1176960988", "wikidata": "Q10283905", "kinds": "fortifications,historic,interesting_places,castles", "point": {"lon": -7.158478736877441, "lat": 38.87297058105469}}, {"xid": "N7539402284", "name": "Posto de Vigia Alter Pedroso", "rate": 7, "osm": "node/7539402284", "wikidata": "Q5049747", "kinds": "architecture,towers,fortifications,historic,interesting_places,observation_towers,castles", "point": {"lon": -7.622389316558838, "lat": 39.188873291015625}}, {"xid": "N372900823", "name": "Alter Pedroso", "rate": 7, "osm": "node/372900823", "wikidata": "Q5049747", "kinds": "fortifications,historical_places,historic,interesting_places,castles,historic_settlements", "point": {"lon": -7.623345375061035, "lat": 39.18776321411133}}, {"xid": "W223210574", "name": "Castelo de Monforte", "rate": 7, "osm": "way/223210574", "wikidata": "Q9705463", "kinds": "fortifications,historic,interesting_places,castles", "point": {"lon": -7.439018249511719, "lat": 39.05406951904297}}, {"xid": "W210293597", "name": "Iglesia de Nuestra Se\u00f1ora de Consolaci\u00f3n", "rate": 7, "osm": "way/210293597", "wikidata": "Q97627695", "kinds": "religion,churches,interesting_places,catholic_churches", "point": {"lon": -6.587629318237305, "lat": 38.00849914550781}}, {"xid": "W785383913", "name": "Nertobriga Concordia Iulia", "rate": 7, "osm": "way/785383913", "wikidata": "Q6041035", "kinds": "historic,archaeology,interesting_places,other_archaeological_sites", "point": {"lon": -6.609625339508057, "lat": 38.1158561706543}}, {"xid": "W554723581", "name": "Nertobriga Concordia Iulia", "rate": 7, "osm": "way/554723581", "wikidata": "Q6041035", "kinds": "historic,archaeology,interesting_places,other_archaeological_sites", "point": {"lon": -6.609969139099121, "lat": 38.12044143676758}}, {"xid": "R4655269", "name": "Plaza de toros de San Roque", "rate": 7, "osm": "relation/4655269", "wikidata": "Q24023194", "kinds": "sport,architecture,historic_architecture,interesting_places,stadiums,other_buildings_and_structures", "point": {"lon": -5.38959264755249, "lat": 36.20926284790039}}, {"xid": "N3032984338", "name": "Citadela Castillo del Aguila", "rate": 7, "osm": "node/3032984338", "wikidata": "Q5757792", "kinds": "religion,fortifications,churches,historic,interesting_places,castles,catholic_churches", "point": {"lon": -5.312956809997559, "lat": 36.51763153076172}}, {"xid": "N1243321723", "name": "Torre Anc\u00f3n", "rate": 7, "osm": "node/1243321723", "wikidata": "Q43138256", "kinds": "architecture,towers,fortifications,historical_places,historic,monuments_and_memorials,interesting_places,other_fortifications,watchtowers,historic_settlements,monuments", "point": {"lon": -4.9315185546875, "lat": 36.50103759765625}}, {"xid": "N4428333641", "name": "Cortijo Miraflores", "rate": 7, "osm": "node/4428333641", "wikidata": "Q5173303", "kinds": "architecture,historic_architecture,interesting_places,farms", "point": {"lon": -4.889326095581055, "lat": 36.516075134277344}}, {"xid": "N6350542887", "name": "Freiduria Miraflores", "rate": 7, "osm": "node/6350542887", "wikidata": "Q5173303", "kinds": "architecture,historic_architecture,interesting_places,foods,restaurants,tourist_facilities,farms", "point": {"lon": -4.888993263244629, "lat": 36.51474380493164}}, {"xid": "N4111745889", "name": "Torre Blanca", "rate": 7, "osm": "node/4111745889", "wikidata": "Q97632572", "kinds": "architecture,towers,fortifications,historic,monuments_and_memorials,interesting_places,other_fortifications,watchtowers,monuments", "point": {"lon": -4.610040187835693, "lat": 36.561100006103516}}, {"xid": "N5327355647", "name": "Castillo de Cardela o de Fatima", "rate": 7, "osm": "node/5327355647", "wikidata": "Q43134457", "kinds": "fortifications,historic,monuments_and_memorials,interesting_places,castles,monuments", "point": {"lon": -5.489534854888916, "lat": 36.67686462402344}}, {"xid": "N769164437", "name": "Palacio del Marqu\u00e9s de Salvatierra", "rate": 7, "osm": "node/769164437", "wikidata": "Q6058179", "kinds": "palaces,architecture,historic_architecture,fortifications,historic,interesting_places,castles", "point": {"lon": -5.1636576652526855, "lat": 36.739437103271484}}, {"xid": "W743139790", "name": "Iglesia de Santa Mar\u00eda Magdalena", "rate": 7, "osm": "way/743139790", "wikidata": "Q75126180", "kinds": "religion,churches,interesting_places,other_churches", "point": {"lon": -5.542656898498535, "lat": 37.26420593261719}}, {"xid": "W484112426", "name": "Castillo de Hins-Canit", "rate": 7, "osm": "way/484112426", "wikidata": "Q97633437", "kinds": "architecture,towers,fortifications,historic,monuments_and_memorials,interesting_places,castles,monuments,other_towers", "point": {"lon": -5.026468276977539, "lat": 36.95156478881836}}, {"xid": "N3084299337", "name": "Pie Castillo", "rate": 7, "osm": "node/3084299337", "wikidata": "Q97633437", "kinds": "fortifications,historic,monuments_and_memorials,interesting_places,castles,monuments", "point": {"lon": -5.024940490722656, "lat": 36.951446533203125}}, {"xid": "R7225220", "name": "Sala Mar\u00eda Cristina", "rate": 7, "osm": "relation/7225220", "wikidata": "Q6117084", "kinds": "cultural,theatres_and_entertainments,interesting_places,other_theatres", "point": {"lon": -4.423271656036377, "lat": 36.72455978393555}}, {"xid": "N3972317039", "name": "Torre de Benagalb\u00f3n", "rate": 7, "osm": "node/3972317039", "wikidata": "Q97632444", "kinds": "architecture,towers,fortifications,historic,monuments_and_memorials,interesting_places,watchtowers,monuments,fortified_towers", "point": {"lon": -4.254961967468262, "lat": 36.712223052978516}}, {"xid": "R5446285", "name": "Convento de Santa In\u00e9s del Valle", "rate": 7, "osm": "relation/5446285", "wikidata": "Q6102064", "kinds": "religion,churches,monasteries,interesting_places,other_churches", "point": {"lon": -5.081995010375977, "lat": 37.54611587524414}}, {"xid": "W355705136", "name": "Castillo del Moral", "rate": 7, "osm": "way/355705136", "wikidata": "Q97626354", "kinds": "fortifications,historic,monuments_and_memorials,cultural,museums,interesting_places,castles,other_museums,monuments", "point": {"lon": -4.483677387237549, "lat": 37.408203125}}, {"xid": "W355717641", "name": "Antiguo Hospital de San Juan de Dios", "rate": 7, "osm": "way/355717641", "wikidata": "Q29350961", "kinds": "religion,churches,interesting_places,other_churches", "point": {"lon": -4.486408233642578, "lat": 37.40530014038086}}, {"xid": "W96628325", "name": "Cementerio de la Salud", "rate": 7, "osm": "way/96628325", "wikidata": "Q56653740", "kinds": "cemeteries,historic,burial_places,interesting_places", "point": {"lon": -4.788913726806641, "lat": 37.874908447265625}}, {"xid": "N535073627", "name": "La Torrecilla", "rate": 7, "osm": "node/535073627", "wikidata": "Q14664836", "kinds": "architecture,towers,fortifications,historic,monuments_and_memorials,archaeology,interesting_places,other_fortifications,other_archaeological_sites,watchtowers,monuments", "point": {"lon": -3.8842852115631104, "lat": 36.7410774230957}}, {"xid": "N6003456029", "name": "Alc\u00e1zar Genil", "rate": 7, "osm": "node/6003456029", "wikidata": "Q5295924", "kinds": "palaces,architecture,historic_architecture,fortifications,historic,archaeology,interesting_places,castles,other_archaeological_sites,farms", "point": {"lon": -3.6024649143218994, "lat": 37.164546966552734}}, {"xid": "W121794615", "name": "Alc\u00e1zar Genil", "rate": 7, "osm": "way/121794615", "wikidata": "Q5295924", "kinds": "palaces,architecture,historic_architecture,fortifications,historic,interesting_places,castles,farms", "point": {"lon": -3.6005306243896484, "lat": 37.1646728515625}}, {"xid": "N6313713696", "name": "Alhambra y Generalife", "rate": 7, "osm": "node/6313713696", "wikidata": "Q9603543", "kinds": "architecture,historic_architecture,interesting_places,other_buildings_and_structures", "point": {"lon": -3.5930421352386475, "lat": 37.17595672607422}}, {"xid": "W24456598", "name": "Cementerio de San Jos\u00e9", "rate": 7, "osm": "way/24456598", "wikidata": "Q5760354", "kinds": "cemeteries,historic,burial_places,interesting_places", "point": {"lon": -3.5784237384796143, "lat": 37.16971969604492}}, {"xid": "W79641006", "name": "Granada train station", "rate": 7, "osm": "way/79641006", "wikidata": "Q3096587", "kinds": "railway_stations,industrial_facilities,interesting_places", "point": {"lon": -3.608603000640869, "lat": 37.183738708496094}}, {"xid": "N7201979115", "name": "Granada", "rate": 7, "osm": "node/7201979115", "wikidata": "Q3096587", "kinds": "railway_stations,industrial_facilities,interesting_places", "point": {"lon": -3.6103482246398926, "lat": 37.184024810791016}}, {"xid": "N1242537198", "name": "El Fuerte", "rate": 7, "osm": "node/1242537198", "wikidata": "Q5870565", "kinds": "fortifications,historical_places,historic,monuments_and_memorials,interesting_places,other_fortifications,historic_settlements,monuments", "point": {"lon": -3.2158493995666504, "lat": 36.94817352294922}}, {"xid": "W469561206", "name": "Castillo de Alcaudete", "rate": 7, "osm": "way/469561206", "wikidata": "Q5757043", "kinds": "fortifications,historic,monuments_and_memorials,interesting_places,castles,monuments", "point": {"lon": -4.088481426239014, "lat": 37.590518951416016}}, {"xid": "N3353747469", "name": "Balneario y jardines de Jabalcuz", "rate": 7, "osm": "node/3353747469", "wikidata": "Q8240856", "kinds": "historical_places,historic,interesting_places,historic_settlements", "point": {"lon": -3.816446304321289, "lat": 37.7384147644043}}, {"xid": "N6527719288", "name": "Castillo de las Huelgas", "rate": 7, "osm": "node/6527719288", "wikidata": "Q5757745", "kinds": "architecture,historic_architecture,fortifications,historic,monuments_and_memorials,interesting_places,destroyed_objects,castles,monuments", "point": {"lon": -3.7977702617645264, "lat": 38.01094055175781}}, {"xid": "N7376612273", "name": "Iglesia de Santa Mar\u00eda de los Reales Alc\u00e1zares", "rate": 7, "osm": "node/7376612273", "wikidata": "Q5911869", "kinds": "mosques,churches,historic,catholic_churches,religion,historical_places,burial_places,interesting_places,historic_districts,other_burial_places,historic_settlements", "point": {"lon": -3.368720293045044, "lat": 38.00662612915039}}, {"xid": "N2518552739", "name": "Venta de Borongo", "rate": 7, "osm": "node/2518552739", "wikidata": "Q5478855", "kinds": "architecture,historic_architecture,interesting_places,other_buildings_and_structures", "point": {"lon": -3.559631109237671, "lat": 38.92736053466797}}, {"xid": "W487190300", "name": "Castillo de Alhambra", "rate": 7, "osm": "way/487190300", "wikidata": "Q5757059", "kinds": "fortifications,historic,interesting_places,castles", "point": {"lon": -3.0477356910705566, "lat": 38.89747619628906}}, {"xid": "N301765160", "name": "Cerro de la Vela Blanca", "rate": 7, "osm": "node/301765160", "wikidata": "Q20823076", "kinds": "architecture,towers,historic,monuments_and_memorials,interesting_places,monuments,other_towers", "point": {"lon": -2.1692605018615723, "lat": 36.72461700439453}}, {"xid": "W108120114", "name": "Casa Fuerte de la Cruceta", "rate": 7, "osm": "way/108120114", "wikidata": "Q5755796", "kinds": "fortifications,historic,monuments_and_memorials,interesting_places,castles,monuments", "point": {"lon": -2.326993703842163, "lat": 36.8364372253418}}, {"xid": "N7395966486", "name": "Castell\u00f3n Alto", "rate": 7, "osm": "node/7395966486", "wikidata": "Q5821278", "kinds": "historic,archaeology,settlements,historical_places,monuments_and_memorials,burial_places,interesting_places,other_burial_places,historic_settlements,monuments", "point": {"lon": -2.5660171508789062, "lat": 37.73979187011719}}, {"xid": "W507968137", "name": "Iglesia de la Encarnaci\u00f3n (V\u00e9lez-Rubio)", "rate": 7, "osm": "way/507968137", "wikidata": "Q41251131", "kinds": "religion,churches,interesting_places,catholic_churches", "point": {"lon": -2.0743978023529053, "lat": 37.64746856689453}}, {"xid": "N1446164381", "name": "Isla Plana", "rate": 7, "osm": "node/1446164381", "wikidata": "Q5723880", "kinds": "architecture,historic_architecture,historical_places,historic,archaeology,interesting_places,baths_and_saunas,saunas,other_archaeological_sites,historic_settlements,amusements,other_buildings_and_structures", "point": {"lon": -1.209029197692871, "lat": 37.57489776611328}}, {"xid": "N3065041017", "name": "Bater\u00eda de Rold\u00e1n", "rate": 7, "osm": "node/3065041017", "wikidata": "Q5723513", "kinds": "fortifications,historic,interesting_places,castles,bunkers", "point": {"lon": -1.0405093431472778, "lat": 37.58785629272461}}, {"xid": "W461552255", "name": "Muralla de Carlos III", "rate": 7, "osm": "way/461552255", "wikidata": "Q6032904", "kinds": "fortifications,defensive_walls,historic,monuments_and_memorials,interesting_places,monuments", "point": {"lon": -0.9821733236312866, "lat": 37.59846878051758}}, {"xid": "N1613753272", "name": "Monastery of San Gin\u00e9s de la Jara", "rate": 7, "osm": "node/1613753272", "wikidata": "Q4407365", "kinds": "religion,historical_places,historic,monasteries,interesting_places,historic_settlements", "point": {"lon": -0.8228310942649841, "lat": 37.64125442504883}}, {"xid": "N307806837", "name": "Faro de Cabo de Palos", "rate": 7, "osm": "node/307806837", "wikidata": "Q5856380", "kinds": "view_points,other,lighthouses,architecture,towers,historic,monuments_and_memorials,interesting_places,monuments,other_towers", "point": {"lon": -0.6902651190757751, "lat": 37.63468933105469}}, {"xid": "W162253263", "name": "Libisosa", "rate": 7, "osm": "way/162253263", "wikidata": "Q5974846", "kinds": "settlements,historic,archaeology,interesting_places", "point": {"lon": -2.3546817302703857, "lat": 38.94171905517578}}, {"xid": "W393032217", "name": "Castillo de Lezuza", "rate": 7, "osm": "way/393032217", "wikidata": "Q5974846", "kinds": "settlements,fortifications,historic,archaeology,interesting_places,castles", "point": {"lon": -2.3549022674560547, "lat": 38.941062927246094}}, {"xid": "N3996044857", "name": "Ciudad iberorromana de Libisosa", "rate": 7, "osm": "node/3996044857", "wikidata": "Q5974846", "kinds": "settlements,historic,archaeology,interesting_places", "point": {"lon": -2.355025053024292, "lat": 38.94184494018555}}, {"xid": "W46149680", "name": "Iglesia de las Santas Justa y Rufina", "rate": 7, "osm": "way/46149680", "wikidata": "Q9007686", "kinds": "religion,churches,interesting_places,catholic_churches", "point": {"lon": -0.9495813846588135, "lat": 38.08530044555664}}, {"xid": "W476190854", "name": "Esgl\u00e9sia de Sant Pere del Pin\u00f3s", "rate": 7, "osm": "way/476190854", "wikidata": "Q16577804", "kinds": "religion,churches,interesting_places,other_churches", "point": {"lon": -1.0421462059020996, "lat": 38.40354537963867}}, {"xid": "W868882805", "name": "La Torreta", "rate": 7, "osm": "way/868882805", "wikidata": "Q9089126", "kinds": "architecture,historic_architecture,towers,fortifications,historic,monuments_and_memorials,interesting_places,destroyed_objects,monuments,other_towers,fortified_towers", "point": {"lon": -0.8054023385047913, "lat": 38.49689483642578}}, {"xid": "N2062223647", "name": "Santa Eulalia", "rate": 7, "osm": "node/2062223647", "wikidata": "Q9018423", "kinds": "historical_places,historic,interesting_places,historic_settlements", "point": {"lon": -0.8504541516304016, "lat": 38.5682258605957}}, {"xid": "W195088696", "name": "Esgl\u00e9sia de l'Assumpci\u00f3 de Biar", "rate": 7, "osm": "way/195088696", "wikidata": "Q9006902", "kinds": "religion,churches,interesting_places,other_churches", "point": {"lon": -0.7661560773849487, "lat": 38.63003158569336}}, {"xid": "W22801887", "name": "iglesia de la Misericordia", "rate": 7, "osm": "way/22801887", "wikidata": "Q10975004", "kinds": "religion,churches,interesting_places,other_churches", "point": {"lon": -0.48353567719459534, "lat": 38.351776123046875}}, {"xid": "W22749868", "name": "Archaeological Museum of Alicante", "rate": 7, "osm": "way/22749868", "wikidata": "Q636891", "kinds": "historic,archaeological_museums,monuments_and_memorials,cultural,museums,interesting_places,history_museums,monuments", "point": {"lon": -0.47608011960983276, "lat": 38.35407638549805}}, {"xid": "W22802644", "name": "plaza de la Misericordia", "rate": 7, "osm": "way/22802644", "wikidata": "Q10975004", "kinds": "religion,churches,cultural,urban_environment,interesting_places,squares,other_churches", "point": {"lon": -0.48315516114234924, "lat": 38.35187530517578}}, {"xid": "N3885157501", "name": "Castell d'Alfofra", "rate": 7, "osm": "node/3885157501", "wikidata": "Q383808", "kinds": "architecture,historic_architecture,fortifications,historic,monuments_and_memorials,interesting_places,destroyed_objects,castles,monuments", "point": {"lon": -0.25271761417388916, "lat": 38.67116165161133}}, {"xid": "W169129219", "name": "Santuario de la Virgen de Gracia", "rate": 7, "osm": "way/169129219", "wikidata": "Q5860635", "kinds": "religion,churches,interesting_places,catholic_churches", "point": {"lon": -0.9725258946418762, "lat": 38.7000846862793}}, {"xid": "W690714019", "name": "La Bastida de les Alcusses", "rate": 7, "osm": "way/690714019", "wikidata": "Q9061226", "kinds": "settlements,historic,archaeology,interesting_places", "point": {"lon": -0.8017733097076416, "lat": 38.814453125}}, {"xid": "W198948427", "name": "Cava de Don Miguel", "rate": 7, "osm": "way/198948427", "wikidata": "Q85846463", "kinds": "architecture,historic_architecture,interesting_places,destroyed_objects", "point": {"lon": -0.53349769115448, "lat": 38.766300201416016}}, {"xid": "W580206352", "name": "Esglesia de Santa Maria d'Ontinyent", "rate": 7, "osm": "way/580206352", "wikidata": "Q5912344", "kinds": "religion,churches,interesting_places,other_churches", "point": {"lon": -0.6104437112808228, "lat": 38.82080841064453}}, {"xid": "W376877218", "name": "Castillo de Cocentaina", "rate": 7, "osm": "way/376877218", "wikidata": "Q6746629", "kinds": "fortifications,historic,monuments_and_memorials,interesting_places,castles,monuments", "point": {"lon": -0.4474700391292572, "lat": 38.7459831237793}}, {"xid": "W849004258", "name": "Church of Saint Mary Magdalene in L'Olleria", "rate": 7, "osm": "way/849004258", "wikidata": "Q9007514", "kinds": "religion,churches,interesting_places,other_churches", "point": {"lon": -0.5468751192092896, "lat": 38.912010192871094}}, {"xid": "W330249468", "name": "Palacio de los Condes de Cervell\u00f3n", "rate": 7, "osm": "way/330249468", "wikidata": "Q3813440", "kinds": "palaces,architecture,historic_architecture,historic,monuments_and_memorials,interesting_places,monuments", "point": {"lon": -0.6424354910850525, "lat": 39.022071838378906}}, {"xid": "N948630660", "name": "Torreta de Piles", "rate": 7, "osm": "node/948630660", "wikidata": "Q6150705", "kinds": "architecture,towers,fortifications,historic,interesting_places,other_towers,fortified_towers", "point": {"lon": -0.12232327461242676, "lat": 38.95258712768555}}, {"xid": "W899603535", "name": "Castell de Sumac\u00e0rcer", "rate": 7, "osm": "way/899603535", "wikidata": "Q5757618", "kinds": "architecture,historic_architecture,fortifications,historic,interesting_places,destroyed_objects,castles", "point": {"lon": -0.6280621886253357, "lat": 39.08815002441406}}, {"xid": "W612031626", "name": "Castell d'Al\u00e8dua", "rate": 7, "osm": "way/612031626", "wikidata": "Q3816812", "kinds": "fortifications,historic,interesting_places,castles", "point": {"lon": -0.5614759922027588, "lat": 39.29682922363281}}, {"xid": "N4773594840", "name": "Torre Racef", "rate": 7, "osm": "node/4773594840", "wikidata": "Q810902", "kinds": "architecture,towers,fortifications,historic,monuments_and_memorials,interesting_places,monuments,other_towers,fortified_towers", "point": {"lon": -0.4137275218963623, "lat": 39.29001998901367}}, {"xid": "W172357066", "name": "Segobriga", "rate": 7, "osm": "way/172357066", "wikidata": "Q1759993", "kinds": "settlements,historic,archaeology,interesting_places", "point": {"lon": -2.811962366104126, "lat": 39.887794494628906}}, {"xid": "W126223511", "name": "Castelo de Torres Novas", "rate": 7, "osm": "way/126223511", "wikidata": "Q5049837", "kinds": "fortifications,historic,interesting_places,castles", "point": {"lon": -8.54057788848877, "lat": 39.47998046875}}, {"xid": "W547777149", "name": "Igreja do Convento do Louri\u00e7al", "rate": 7, "osm": "way/547777149", "wikidata": "Q5994320", "kinds": "religion,churches,interesting_places,other_churches", "point": {"lon": -8.735093116760254, "lat": 40.00339126586914}}, {"xid": "N1410597963", "name": "Farol de Aveiro", "rate": 7, "osm": "node/1410597963", "wikidata": "Q3134299", "kinds": "lighthouses,architecture,towers,interesting_places,other_towers", "point": {"lon": -8.747884750366211, "lat": 40.642826080322266}}, {"xid": "W168072475", "name": "Archaeological site of Cabe\u00e7o do Vouga", "rate": 7, "osm": "way/168072475", "wikidata": "Q10276240", "kinds": "fortifications,historic,monuments_and_memorials,archaeology,interesting_places,other_archaeological_sites,hillforts,monuments", "point": {"lon": -8.464083671569824, "lat": 40.63709259033203}}, {"xid": "N5991264505", "name": "Church of Santa Marinha de Cortega\u00e7a (Ovar)", "rate": 7, "osm": "node/5991264505", "wikidata": "Q10300104", "kinds": "religion,churches,historic,burial_places,interesting_places,other_burial_places,other_churches", "point": {"lon": -8.625656127929688, "lat": 40.94276428222656}}, {"xid": "N3939554563", "name": "Espinho", "rate": 7, "osm": "node/3939554563", "wikidata": "Q8779739", "kinds": "railway_stations,industrial_facilities,interesting_places", "point": {"lon": -8.644394874572754, "lat": 41.00628662109375}}, {"xid": "W339864969", "name": "Capela do Senhor da Pedra", "rate": 7, "osm": "way/339864969", "wikidata": "Q9696115", "kinds": "religion,churches,interesting_places,other_churches", "point": {"lon": -8.658773422241211, "lat": 41.068782806396484}}, {"xid": "W453808782", "name": "Farol da Luz", "rate": 7, "osm": "way/453808782", "wikidata": "Q10280141", "kinds": "lighthouses,architecture,towers,interesting_places,other_towers", "point": {"lon": -8.677628517150879, "lat": 41.15444564819336}}, {"xid": "N6541145481", "name": "Casa do Despacho da vener\u00e1vel Ordem Terceira de S\u00e3o Francisco", "rate": 7, "osm": "node/6541145481", "wikidata": "Q9698834", "kinds": "religion,monasteries,cultural,museums,interesting_places,other_museums", "point": {"lon": -8.61626148223877, "lat": 41.141056060791016}}, {"xid": "W133211838", "name": "Fountain of the Lions (Porto)", "rate": 7, "osm": "way/133211838", "wikidata": "Q66814756", "kinds": "fountains,historic,monuments_and_memorials,cultural,urban_environment,interesting_places,sculptures,monuments", "point": {"lon": -8.615614891052246, "lat": 41.147117614746094}}, {"xid": "W475284516", "name": "Quinta do Rio", "rate": 7, "osm": "way/475284516", "wikidata": "Q10356405", "kinds": "architecture,historic_architecture,interesting_places,farms", "point": {"lon": -8.641219139099121, "lat": 41.17803955078125}}, {"xid": "W14327456", "name": "Prado do Repouso Cemetery", "rate": 7, "osm": "way/14327456", "wikidata": "Q30592901", "kinds": "cemeteries,historic,burial_places,interesting_places", "point": {"lon": -8.59442138671875, "lat": 41.14362335205078}}, {"xid": "R2880744", "name": "Episcopal Palace of Oporto", "rate": 7, "osm": "relation/2880744", "wikidata": "Q1107442", "kinds": "religion,palaces,architecture,historic_architecture,other_temples,cultural,museums,interesting_places,other_museums", "point": {"lon": -8.611547470092773, "lat": 41.1419677734375}}, {"xid": "N5268328231", "name": "Prado do Repouso Cemetery", "rate": 7, "osm": "node/5268328231", "wikidata": "Q30592901", "kinds": "cemeteries,historic,cultural,burial_places,urban_environment,interesting_places,sculptures", "point": {"lon": -8.59528923034668, "lat": 41.14216613769531}}, {"xid": "N5280168728", "name": "Miradouro do Prado do Repouso", "rate": 7, "osm": "node/5280168728", "wikidata": "Q30592901", "kinds": "view_points,cemeteries,other,historic,burial_places,interesting_places", "point": {"lon": -8.593488693237305, "lat": 41.141807556152344}}, {"xid": "N6540578835", "name": "S\u00e3o Jo\u00e3o National Theatre", "rate": 7, "osm": "node/6540578835", "wikidata": "Q1109226", "kinds": "cultural,cinemas,theatres_and_entertainments,interesting_places,opera_houses", "point": {"lon": -8.607251167297363, "lat": 41.1447639465332}}, {"xid": "W172045688", "name": "Instituto Superior de Engenharia do Porto", "rate": 7, "osm": "way/172045688", "wikidata": "Q3152860", "kinds": "architecture,historic_architecture,interesting_places,other_buildings_and_structures", "point": {"lon": -8.60783576965332, "lat": 41.17851638793945}}, {"xid": "W770898237", "name": "Igreja de Santa Eul\u00e1lia do Mosteiro de Arnoso", "rate": 7, "osm": "way/770898237", "wikidata": "Q5994148", "kinds": "religion,churches,interesting_places,catholic_churches", "point": {"lon": -8.522431373596191, "lat": 41.46710968017578}}, {"xid": "W185293379", "name": "Forte de S\u00e3o Jo\u00e3o Baptista de Esposende", "rate": 7, "osm": "way/185293379", "wikidata": "Q10284018", "kinds": "fortifications,historic,interesting_places,other_fortifications", "point": {"lon": -8.790409088134766, "lat": 41.54277801513672}}, {"xid": "N3994226678", "name": "Anta da Barrosa", "rate": 7, "osm": "node/3994226678", "wikidata": "Q1270827", "kinds": "megaliths,historic,dolmens,monuments_and_memorials,archaeology,burial_places,interesting_places,monuments", "point": {"lon": -8.850726127624512, "lat": 41.81000518798828}}, {"xid": "N4807730849", "name": "Castro de Moldes", "rate": 7, "osm": "node/4807730849", "wikidata": "Q9706880", "kinds": "fortifications,historic,monuments_and_memorials,archaeology,interesting_places,other_archaeological_sites,hillforts,monuments", "point": {"lon": -8.78516674041748, "lat": 41.61379623413086}}, {"xid": "N6107221443", "name": "Torre de Penegale", "rate": 7, "osm": "node/6107221443", "wikidata": "Q323257", "kinds": "architecture,towers,interesting_places,other_towers", "point": {"lon": -8.491632461547852, "lat": 41.65879821777344}}, {"xid": "N1350731059", "name": "Loja interactiva de Turismo Ponte de Lima", "rate": 7, "osm": "node/1350731059", "wikidata": "Q10351438", "kinds": "roman_bridges,bridges,architecture,historic,archaeology,interesting_places,other_archaeological_sites", "point": {"lon": -8.58515453338623, "lat": 41.767303466796875}}, {"xid": "N3998234606", "name": "Arco visig\u00f3tico de Panx\u00f3n", "rate": 7, "osm": "node/3998234606", "wikidata": "Q25509197", "kinds": "historic,monuments_and_memorials,archaeology,interesting_places,other_archaeological_sites,monuments", "point": {"lon": -8.823698043823242, "lat": 42.14525604248047}}, {"xid": "N2360583738", "name": "Igreja de Ganfei", "rate": 7, "osm": "node/2360583738", "wikidata": "Q10300931", "kinds": "religion,churches,interesting_places,other_churches", "point": {"lon": -8.622252464294434, "lat": 42.03981018066406}}, {"xid": "W368363175", "name": "Igreja de Sanfins de Friestas", "rate": 7, "osm": "way/368363175", "wikidata": "Q5994230", "kinds": "religion,churches,interesting_places,catholic_churches", "point": {"lon": -8.582204818725586, "lat": 42.03142547607422}}, {"xid": "N2354591983", "name": "Castle of Mon\u00e7\u00e3o", "rate": 7, "osm": "node/2354591983", "wikidata": "Q5049797", "kinds": "fortifications,historic,interesting_places,castles", "point": {"lon": -8.485269546508789, "lat": 42.079078674316406}}, {"xid": "W360309560", "name": "Barragem de Castelo do Bode", "rate": 7, "osm": "way/360309560", "wikidata": "Q5049759", "kinds": "factories,industrial_facilities,dams,power_stations,interesting_places", "point": {"lon": -8.319231986999512, "lat": 39.542755126953125}}, {"xid": "W98711367", "name": "Barragem de Castelo do Bode", "rate": 7, "osm": "way/98711367", "wikidata": "Q5049759", "kinds": "factories,industrial_facilities,dams,power_stations,interesting_places", "point": {"lon": -8.318824768066406, "lat": 39.54286193847656}}, {"xid": "N2088966959", "name": "Castelo Novo", "rate": 7, "osm": "node/2088966959", "wikidata": "Q1024355", "kinds": "historical_places,historic,interesting_places,historic_districts,historic_settlements", "point": {"lon": -7.4953765869140625, "lat": 40.0779914855957}}, {"xid": "N3995964388", "name": "Pelourinho de Rosmaninhal", "rate": 7, "osm": "node/3995964388", "wikidata": "Q10348181", "kinds": "architecture,historic_architecture,interesting_places,other_buildings_and_structures", "point": {"lon": -7.089454174041748, "lat": 39.728782653808594}}, {"xid": "N3995965100", "name": "Pelourinho de Zebreira", "rate": 7, "osm": "node/3995965100", "wikidata": "Q10348232", "kinds": "architecture,historic_architecture,interesting_places,other_buildings_and_structures", "point": {"lon": -7.071245193481445, "lat": 39.84497833251953}}, {"xid": "N1444903676", "name": "Chiqueiro", "rate": 7, "osm": "node/1444903676", "wikidata": "Q15053066", "kinds": "historical_places,historic,interesting_places,historic_settlements", "point": {"lon": -8.232744216918945, "lat": 40.08642578125}}, {"xid": "W181087219", "name": "Castle of Av\u00f4", "rate": 7, "osm": "way/181087219", "wikidata": "Q66943766", "kinds": "fortifications,historic,interesting_places,castles", "point": {"lon": -7.904357433319092, "lat": 40.293174743652344}}, {"xid": "N3994226710", "name": "Anta do Pinheiro dos Abra\u00e7os", "rate": 7, "osm": "node/3994226710", "wikidata": "Q51076042", "kinds": "megaliths,historic,dolmens,monuments_and_memorials,archaeology,burial_places,interesting_places,monuments", "point": {"lon": -7.87952995300293, "lat": 40.367069244384766}}, {"xid": "N3995961396", "name": "Pelourinho de Aguieira", "rate": 7, "osm": "node/3995961396", "wikidata": "Q10348031", "kinds": "architecture,historic_architecture,interesting_places,other_buildings_and_structures", "point": {"lon": -7.923446178436279, "lat": 40.52785873413086}}, {"xid": "N3994226716", "name": "Antas de Paranhos", "rate": 7, "osm": "node/3994226716", "wikidata": "Q66814037", "kinds": "megaliths,historic,dolmens,monuments_and_memorials,archaeology,burial_places,interesting_places,monuments", "point": {"lon": -7.806059837341309, "lat": 40.49055862426758}}, {"xid": "N6376822717", "name": "Cava de Viriato", "rate": 7, "osm": "node/6376822717", "wikidata": "Q17390127", "kinds": "fortifications,historical_places,historic,monuments_and_memorials,archaeology,interesting_places,historic_districts,other_archaeological_sites,hillforts,monuments", "point": {"lon": -7.910058975219727, "lat": 40.668128967285156}}, {"xid": "N4288752093", "name": "Chafariz D. Jo\u00e3o V", "rate": 7, "osm": "node/4288752093", "wikidata": "Q25442719", "kinds": "fountains,historic,monuments_and_memorials,cultural,urban_environment,interesting_places,sculptures,monuments", "point": {"lon": -7.468804359436035, "lat": 40.10021209716797}}, {"xid": "W150275881", "name": "Muralha do Castelo de Pinhel", "rate": 7, "osm": "way/150275881", "wikidata": "Q7195878", "kinds": "fortifications,defensive_walls,historic,interesting_places,castles", "point": {"lon": -7.060769557952881, "lat": 40.776302337646484}}, {"xid": "N777365164", "name": "Casa del Sol", "rate": 7, "osm": "node/777365164", "wikidata": "Q6406222", "kinds": "architecture,historic_architecture,interesting_places,other_buildings_and_structures", "point": {"lon": -6.370923042297363, "lat": 39.47345733642578}}, {"xid": "N1285188119", "name": "Castillo de Trevejo", "rate": 7, "osm": "node/1285188119", "wikidata": "Q5757654", "kinds": "fortifications,historic,interesting_places,castles", "point": {"lon": -6.780529022216797, "lat": 40.172454833984375}}, {"xid": "R6012889", "name": "Castelo de Alfaiates", "rate": 7, "osm": "relation/6012889", "wikidata": "Q5049739", "kinds": "fortifications,historic,interesting_places,castles", "point": {"lon": -6.911692142486572, "lat": 40.390472412109375}}, {"xid": "W310774407", "name": "Castelo de Vilar Maior", "rate": 7, "osm": "way/310774407", "wikidata": "Q5049845", "kinds": "fortifications,historic,interesting_places,castles", "point": {"lon": -6.940825462341309, "lat": 40.47679901123047}}, {"xid": "N6421361586", "name": "Castle Fortress of Almeida", "rate": 7, "osm": "node/6421361586", "wikidata": "Q5049743", "kinds": "architecture,historic_architecture,fortifications,historic,interesting_places,destroyed_objects,castles", "point": {"lon": -6.907172203063965, "lat": 40.725162506103516}}, {"xid": "N6421383514", "name": "Castillo de Enrique II", "rate": 7, "osm": "node/6421383514", "wikidata": "Q5757307", "kinds": "guest_houses,historic,accomodations,fortifications,castles,tourist_facilities,hostels,interesting_places,foods,bars", "point": {"lon": -6.535919189453125, "lat": 40.59677505493164}}, {"xid": "R6231924", "name": "The Palace of the Prince", "rate": 7, "osm": "relation/6231924", "wikidata": "Q21480881", "kinds": "palaces,architecture,historic_architecture,interesting_places,manor_houses", "point": {"lon": -6.534700870513916, "lat": 40.59710693359375}}, {"xid": "W48121262", "name": "Castle of Enrique II, Ciudad Rodrigo", "rate": 7, "osm": "way/48121262", "wikidata": "Q5757307", "kinds": "guest_houses,historic,accomodations,fortifications,interesting_places,castles,foods,bars,tourist_facilities,hostels", "point": {"lon": -6.536275386810303, "lat": 40.59633255004883}}, {"xid": "W252172662", "name": "Castillo de Segura de Toro", "rate": 7, "osm": "way/252172662", "wikidata": "Q16641486", "kinds": "megaliths,historic,monuments_and_memorials,archaeology,cultural,urban_environment,interesting_places,sculptures,monuments", "point": {"lon": -5.948066234588623, "lat": 40.22421646118164}}, {"xid": "N3995964150", "name": "Pillory of Fr\u00e1guas", "rate": 7, "osm": "node/3995964150", "wikidata": "Q10348116", "kinds": "architecture,historic_architecture,interesting_places,other_buildings_and_structures", "point": {"lon": -7.7705979347229, "lat": 40.837913513183594}}, {"xid": "R10968326", "name": "\u00c1rea Arqueol\u00f3gica do Freixo", "rate": 7, "osm": "relation/10968326", "wikidata": "Q10383167", "kinds": "settlements,historic,archaeology,interesting_places", "point": {"lon": -8.147418022155762, "lat": 41.16164779663086}}, {"xid": "W651987399", "name": "Igreja de Pias", "rate": 7, "osm": "way/651987399", "wikidata": "Q28679742", "kinds": "religion,churches,interesting_places,other_churches", "point": {"lon": -8.261523246765137, "lat": 41.269874572753906}}, {"xid": "N3941781457", "name": "Esta\u00e7\u00e3o Ferrovi\u00e1ria de Guimar\u00e3es", "rate": 7, "osm": "node/3941781457", "wikidata": "Q8779877", "kinds": "railway_stations,industrial_facilities,interesting_places", "point": {"lon": -8.294892311096191, "lat": 41.435237884521484}}, {"xid": "W820481033", "name": "Padr\u00e3o do Salado", "rate": 7, "osm": "way/820481033", "wikidata": "Q10343505", "kinds": "historic,monuments_and_memorials,burial_places,interesting_places,other_burial_places,monuments", "point": {"lon": -8.292789459228516, "lat": 41.44283676147461}}, {"xid": "W183332879", "name": "Cathedral of Vila Real", "rate": 7, "osm": "way/183332879", "wikidata": "Q5994225", "kinds": "religion,cathedrals,interesting_places", "point": {"lon": -7.746512413024902, "lat": 41.296302795410156}}, {"xid": "W802212089", "name": "Pelourinho de Vila Real", "rate": 7, "osm": "way/802212089", "wikidata": "Q10348223", "kinds": "architecture,historic_architecture,interesting_places,other_buildings_and_structures", "point": {"lon": -7.745734214782715, "lat": 41.296142578125}}, {"xid": "N3995965113", "name": "Pelourinho do Castelo", "rate": 7, "osm": "node/3995965113", "wikidata": "Q10348090", "kinds": "architecture,historic_architecture,interesting_places,other_buildings_and_structures", "point": {"lon": -8.052755355834961, "lat": 41.36431884765625}}, {"xid": "W867968807", "name": "Castelo de Longroiva", "rate": 7, "osm": "way/867968807", "wikidata": "Q5049787", "kinds": "fortifications,historic,interesting_places,castles", "point": {"lon": -7.208577632904053, "lat": 40.96375274658203}}, {"xid": "N3995964173", "name": "Pelourinho de Longroiva", "rate": 7, "osm": "node/3995964173", "wikidata": "Q10348129", "kinds": "architecture,historic_architecture,interesting_places,other_buildings_and_structures", "point": {"lon": -7.209636211395264, "lat": 40.9640998840332}}, {"xid": "W127205016", "name": "Freixo de Num\u00e3o Halt", "rate": 7, "osm": "way/127205016", "wikidata": "Q76957453", "kinds": "railway_stations,industrial_facilities,interesting_places", "point": {"lon": -7.211182594299316, "lat": 41.134796142578125}}, {"xid": "N2177334018", "name": "Santa Cruz Church", "rate": 7, "osm": "node/2177334018", "wikidata": "Q5885120", "kinds": "religion,churches,interesting_places,other_churches", "point": {"lon": -8.424140930175781, "lat": 41.54937744140625}}, {"xid": "N6107696742", "name": "Fonte de Santiago", "rate": 7, "osm": "node/6107696742", "wikidata": "Q10283328", "kinds": "fountains,historic,monuments_and_memorials,cultural,urban_environment,interesting_places,sculptures,monuments", "point": {"lon": -8.434372901916504, "lat": 41.55259323120117}}, {"xid": "N1886728422", "name": "Santo Adriao Fountain", "rate": 7, "osm": "node/1886728422", "wikidata": "Q10283324", "kinds": "architecture,historic,urban_environment,restaurants,tourist_facilities,fountains,historic_architecture,monuments_and_memorials,cultural,interesting_places,foods,sculptures,monuments,other_buildings_and_structures", "point": {"lon": -8.410984992980957, "lat": 41.542179107666016}}, {"xid": "N3995961423", "name": "Pelourinho de Amares", "rate": 7, "osm": "node/3995961423", "wikidata": "Q10348056", "kinds": "architecture,historic_architecture,interesting_places,other_buildings_and_structures", "point": {"lon": -8.350810050964355, "lat": 41.630916595458984}}, {"xid": "W971351186", "name": "Casa da Tapada", "rate": 7, "osm": "way/971351186", "wikidata": "Q66813158", "kinds": "architecture,historic_architecture,interesting_places,manor_houses", "point": {"lon": -8.3817138671875, "lat": 41.652347564697266}}, {"xid": "N2182066777", "name": "Pelourinho de Ponte da Barca", "rate": 7, "osm": "node/2182066777", "wikidata": "Q10348172", "kinds": "architecture,historic_architecture,interesting_places,other_buildings_and_structures", "point": {"lon": -8.420516967773438, "lat": 41.80866241455078}}, {"xid": "N2344550558", "name": "Pelourinho de Arcos de Valdevez", "rate": 7, "osm": "node/2344550558", "wikidata": "Q10348059", "kinds": "architecture,historic_architecture,interesting_places,other_buildings_and_structures", "point": {"lon": -8.418131828308105, "lat": 41.846282958984375}}, {"xid": "W186972263", "name": "Trechos da Igreja de Paderne", "rate": 7, "osm": "way/186972263", "wikidata": "Q5117755", "kinds": "religion,churches,interesting_places,other_churches", "point": {"lon": -8.27395248413086, "lat": 42.08966827392578}}, {"xid": "W311009553", "name": "Igrexa de Santa Comba de Bande", "rate": 7, "osm": "way/311009553", "wikidata": "Q239106", "kinds": "religion,churches,interesting_places,other_churches", "point": {"lon": -8.00208854675293, "lat": 41.973106384277344}}, {"xid": "W134278470", "name": "Forte de S\u00e3o Francisco de Chaves", "rate": 7, "osm": "way/134278470", "wikidata": "Q10283985", "kinds": "fortifications,historic,interesting_places,other_fortifications", "point": {"lon": -7.469128131866455, "lat": 41.74296188354492}}, {"xid": "N3995965101", "name": "Pelourinho de \u00c1guas Rev\u00e9s", "rate": 7, "osm": "node/3995965101", "wikidata": "Q10348236", "kinds": "architecture,historic_architecture,interesting_places,other_buildings_and_structures", "point": {"lon": -7.348354816436768, "lat": 41.55828094482422}}, {"xid": "N3995964446", "name": "Pelourinho de Torre de Dona Chama", "rate": 7, "osm": "node/3995964446", "wikidata": "Q10348206", "kinds": "architecture,historic_architecture,interesting_places,other_buildings_and_structures", "point": {"lon": -7.127366065979004, "lat": 41.65229415893555}}, {"xid": "N3118423686", "name": "Pelourinho de Freixo de Espada \u00e0 Cinta", "rate": 7, "osm": "node/3118423686", "wikidata": "Q10348113", "kinds": "architecture,historic_architecture,interesting_places,other_buildings_and_structures", "point": {"lon": -6.80812406539917, "lat": 41.08982467651367}}, {"xid": "N3995961406", "name": "Pelourinho de Algoso", "rate": 7, "osm": "node/3995961406", "wikidata": "Q10348047", "kinds": "architecture,historic_architecture,interesting_places,other_buildings_and_structures", "point": {"lon": -6.57683801651001, "lat": 41.469181060791016}}, {"xid": "N3995961454", "name": "Pelourinho de Bemposta", "rate": 7, "osm": "node/3995961454", "wikidata": "Q10348074", "kinds": "historic,monuments_and_memorials,interesting_places,monuments", "point": {"lon": -6.502982139587402, "lat": 41.311241149902344}}, {"xid": "R2520396", "name": "Picote Dam", "rate": 7, "osm": "relation/2520396", "wikidata": "Q3375706", "kinds": "factories,industrial_facilities,dams,power_stations,interesting_places", "point": {"lon": -6.351929187774658, "lat": 41.378414154052734}}, {"xid": "R394489", "name": "Colegio de Calatrava", "rate": 7, "osm": "relation/394489", "wikidata": "Q5777238", "kinds": "architecture,historic_architecture,interesting_places,other_buildings_and_structures", "point": {"lon": -5.660940170288086, "lat": 40.95978927612305}}, {"xid": "R9567320", "name": "Patio de escuelas menores", "rate": 7, "osm": "relation/9567320", "wikidata": "Q3732872", "kinds": "historic,monuments_and_memorials,cultural,urban_environment,interesting_places,squares,monuments", "point": {"lon": -5.668052673339844, "lat": 40.961448669433594}}, {"xid": "N2921600481", "name": "La Clerec\u00eda", "rate": 7, "osm": "node/2921600481", "wikidata": "Q5912788", "kinds": "religion,churches,interesting_places,catholic_churches", "point": {"lon": -5.666217803955078, "lat": 40.962989807128906}}, {"xid": "N3995964241", "name": "Pillory of Pa\u00e7\u00f3", "rate": 7, "osm": "node/3995964241", "wikidata": "Q10348158", "kinds": "architecture,historic_architecture,interesting_places,other_buildings_and_structures", "point": {"lon": -6.952156066894531, "lat": 41.8697395324707}}, {"xid": "W124518932", "name": "Iglesia de San Frontis", "rate": 7, "osm": "way/124518932", "wikidata": "Q5910235", "kinds": "religion,churches,interesting_places,other_churches", "point": {"lon": -5.754290580749512, "lat": 41.49365997314453}}, {"xid": "W706057473", "name": "Church of Santa Mar\u00eda la Real, La Hiniesta", "rate": 7, "osm": "way/706057473", "wikidata": "Q5647482", "kinds": "religion,churches,interesting_places,other_churches", "point": {"lon": -5.798946857452393, "lat": 41.55242919921875}}, {"xid": "N2989972333", "name": "Torre de San Sadurni\u00f1o", "rate": 7, "osm": "node/2989972333", "wikidata": "Q10383745", "kinds": "architecture,historic_architecture,towers,interesting_places,destroyed_objects,other_towers", "point": {"lon": -8.82158374786377, "lat": 42.50769805908203}}, {"xid": "N486566327", "name": "Dolmen de Axeitos", "rate": 7, "osm": "node/486566327", "wikidata": "Q4267528", "kinds": "megaliths,historic,dolmens,monuments_and_memorials,archaeology,burial_places,interesting_places,monuments", "point": {"lon": -9.016770362854004, "lat": 42.600067138671875}}, {"xid": "N6759506022", "name": "Pedra Cuberta", "rate": 7, "osm": "node/6759506022", "wikidata": "Q10269361", "kinds": "megaliths,historic,dolmens,monuments_and_memorials,archaeology,burial_places,interesting_places,monuments", "point": {"lon": -8.984367370605469, "lat": 43.08967971801758}}, {"xid": "W332400381", "name": "Castro de Borneiro", "rate": 7, "osm": "way/332400381", "wikidata": "Q2513122", "kinds": "fortifications,historic,monuments_and_memorials,archaeology,interesting_places,other_archaeological_sites,hillforts,monuments", "point": {"lon": -8.952202796936035, "lat": 43.19459915161133}}, {"xid": "N5148340309", "name": "Torre de Nogueira", "rate": 7, "osm": "node/5148340309", "wikidata": "Q18229255", "kinds": "architecture,towers,fortifications,historic,monuments_and_memorials,interesting_places,castles,monuments,other_towers", "point": {"lon": -8.761656761169434, "lat": 43.15392303466797}}, {"xid": "W350676026", "name": "Castle of Mes\u00eda", "rate": 7, "osm": "way/350676026", "wikidata": "Q43144526", "kinds": "fortifications,historic,monuments_and_memorials,interesting_places,castles,monuments", "point": {"lon": -8.24273681640625, "lat": 43.118003845214844}}, {"xid": "W260544055", "name": "Igrexa de San Nicolao de Cis", "rate": 7, "osm": "way/260544055", "wikidata": "Q20546916", "kinds": "religion,monasteries,interesting_places", "point": {"lon": -8.22135066986084, "lat": 43.2215690612793}}, {"xid": "W516881450", "name": "Mosteiro de San Nicolao de Cis", "rate": 7, "osm": "way/516881450", "wikidata": "Q20546916", "kinds": "religion,fortifications,historic,monasteries,interesting_places,castles", "point": {"lon": -8.22176456451416, "lat": 43.22159957885742}}, {"xid": "N1712912810", "name": "Tower of Hercules", "rate": 7, "osm": "node/1712912810", "wikidata": "Q245151", "kinds": "view_points,other,architecture,towers,fortifications,historic,other_towers,fortified_towers,lighthouses,monuments_and_memorials,interesting_places,monuments", "point": {"lon": -8.406485557556152, "lat": 43.385982513427734}}, {"xid": "N277034169", "name": "The Tower of Hercules", "rate": 7, "osm": "node/277034169", "wikidata": "Q245151", "kinds": "architecture,towers,lighthouses,fortifications,historic,monuments_and_memorials,interesting_places,monuments,other_towers,fortified_towers", "point": {"lon": -8.406448364257812, "lat": 43.38615036010742}}, {"xid": "W157839575", "name": "Pazo de Meir\u00e1s", "rate": 7, "osm": "way/157839575", "wikidata": "Q2511354", "kinds": "fortifications,historic,monuments_and_memorials,interesting_places,castles,monuments", "point": {"lon": -8.295804023742676, "lat": 43.357547760009766}}, {"xid": "W107466910", "name": "Castle of Andrade", "rate": 7, "osm": "way/107466910", "wikidata": "Q12385634", "kinds": "fortifications,historic,monuments_and_memorials,interesting_places,castles,monuments", "point": {"lon": -8.135492324829102, "lat": 43.39164733886719}}, {"xid": "W674899985", "name": "Iglesia de Santa Mar\u00eda", "rate": 7, "osm": "way/674899985", "wikidata": "Q5912966", "kinds": "religion,churches,interesting_places,catholic_churches", "point": {"lon": -6.851466178894043, "lat": 42.86700439453125}}, {"xid": "W716615694", "name": "Santo Tom\u00e1s de las Ollas", "rate": 7, "osm": "way/716615694", "wikidata": "Q2223706", "kinds": "religion,churches,interesting_places,other_churches", "point": {"lon": -6.578216552734375, "lat": 42.55359649658203}}, {"xid": "W354187838", "name": "Castillo de los Baz\u00e1n, Palacios de la Valduerna", "rate": 7, "osm": "way/354187838", "wikidata": "Q5757499", "kinds": "fortifications,historic,monuments_and_memorials,interesting_places,castles,monuments", "point": {"lon": -5.941188812255859, "lat": 42.32663345336914}}, {"xid": "N2337332489", "name": "Puente del Paso Honroso", "rate": 7, "osm": "node/2337332489", "wikidata": "Q2055623", "kinds": "bridges,architecture,historic,monuments_and_memorials,interesting_places,monuments,other_bridges", "point": {"lon": -5.879186630249023, "lat": 42.464088439941406}}, {"xid": "N249144088", "name": "Monasterio de San Miguel", "rate": 7, "osm": "node/249144088", "wikidata": "Q5118000", "kinds": "religion,churches,interesting_places,other_churches", "point": {"lon": -6.518253326416016, "lat": 43.365257263183594}}, {"xid": "W410369082", "name": "Casa natal del General Riego", "rate": 7, "osm": "way/410369082", "wikidata": "Q5755486", "kinds": "historic,monuments_and_memorials,interesting_places,monuments", "point": {"lon": -6.3716020584106445, "lat": 43.27199172973633}}, {"xid": "N8642811925", "name": "General Riego", "rate": 7, "osm": "node/8642811925", "wikidata": "Q5755486", "kinds": "historic,monuments_and_memorials,interesting_places,monuments", "point": {"lon": -6.370922088623047, "lat": 43.274166107177734}}, {"xid": "W261332663", "name": "Iglesia de San Salvador", "rate": 7, "osm": "way/261332663", "wikidata": "Q6898295", "kinds": "religion,churches,monasteries,interesting_places,catholic_churches", "point": {"lon": -6.156576156616211, "lat": 43.40921401977539}}, {"xid": "N5813266099", "name": "Los PIlares Aqueduct", "rate": 7, "osm": "node/5813266099", "wikidata": "Q5657071", "kinds": "bridges,architecture,interesting_places,aqueducts", "point": {"lon": -5.857968330383301, "lat": 43.365028381347656}}, {"xid": "W153915397", "name": "Church of Santa Mar\u00eda de la Corte", "rate": 7, "osm": "way/153915397", "wikidata": "Q5117165", "kinds": "religion,churches,interesting_places,catholic_churches", "point": {"lon": -5.842642307281494, "lat": 43.363037109375}}, {"xid": "W370193645", "name": "Iglesia de Santiago", "rate": 7, "osm": "way/370193645", "wikidata": "Q5992019", "kinds": "religion,churches,interesting_places,other_churches", "point": {"lon": -5.904428005218506, "lat": 43.48217010498047}}, {"xid": "W66389254", "name": "Palacio de Villabona", "rate": 7, "osm": "way/66389254", "wikidata": "Q6058232", "kinds": "palaces,architecture,historic_architecture,fortifications,historic,monuments_and_memorials,interesting_places,manor_houses,castles,monuments", "point": {"lon": -5.832028865814209, "lat": 43.462310791015625}}, {"xid": "W204998217", "name": "Plaza Santa Mar\u00eda de Guadalupe", "rate": 7, "osm": "way/204998217", "wikidata": "Q750248", "kinds": "religion,monasteries,cultural,urban_environment,interesting_places,squares", "point": {"lon": -5.327385902404785, "lat": 39.451942443847656}}, {"xid": "R4049097", "name": "Castle of Montalb\u00e1n", "rate": 7, "osm": "relation/4049097", "wikidata": "Q8342466", "kinds": "fortifications,historic,monuments_and_memorials,interesting_places,castles,monuments", "point": {"lon": -4.423007488250732, "lat": 39.75284194946289}}, {"xid": "W619418039", "name": "Church of Nuestra Se\u00f1ora de la Asunci\u00f3n, Erustes", "rate": 7, "osm": "way/619418039", "wikidata": "Q12176424", "kinds": "religion,churches,interesting_places,other_churches", "point": {"lon": -4.496616840362549, "lat": 39.95631790161133}}, {"xid": "W722942422", "name": "Castro de la Mesa de Miranda", "rate": 7, "osm": "way/722942422", "wikidata": "Q2941520", "kinds": "historic,archaeology,interesting_places,other_archaeological_sites", "point": {"lon": -4.946971893310547, "lat": 40.72464370727539}}, {"xid": "W291339254", "name": "Palacio de los Almarza", "rate": 7, "osm": "way/291339254", "wikidata": "Q29613444", "kinds": "palaces,architecture,historic_architecture,interesting_places,manor_houses", "point": {"lon": -4.701927185058594, "lat": 40.655235290527344}}, {"xid": "N2632443010", "name": "Iglesia de San Eutropio", "rate": 7, "osm": "node/2632443010", "wikidata": "Q5910126", "kinds": "religion,churches,interesting_places,other_churches", "point": {"lon": -4.247170925140381, "lat": 40.718055725097656}}, {"xid": "R5697103", "name": "convent of las Carmelitas de San Jos\u00e9", "rate": 7, "osm": "relation/5697103", "wikidata": "Q5166198", "kinds": "religion,monasteries,interesting_places", "point": {"lon": -3.1641178131103516, "lat": 40.63508224487305}}, {"xid": "W370951744", "name": "Iglesia de San Pedro de la Mata", "rate": 7, "osm": "way/370951744", "wikidata": "Q7415155", "kinds": "religion,architecture,historic_architecture,churches,interesting_places,destroyed_objects,catholic_churches", "point": {"lon": -3.9871394634246826, "lat": 39.6136589050293}}, {"xid": "W556323874", "name": "Iglesia de Casalgordo", "rate": 7, "osm": "way/556323874", "wikidata": "Q31778309", "kinds": "religion,churches,interesting_places,other_churches", "point": {"lon": -3.965625286102295, "lat": 39.64191436767578}}, {"xid": "N2657894657", "name": "Presa Romana", "rate": 7, "osm": "node/2657894657", "wikidata": "Q1128365", "kinds": "industrial_facilities,dams,architecture,historic_architecture,historic,monuments_and_memorials,archaeology,interesting_places,destroyed_objects,other_archaeological_sites,monuments", "point": {"lon": -3.6526718139648438, "lat": 39.42866134643555}}, {"xid": "W115089046", "name": "Mercado de Abastos", "rate": 7, "osm": "way/115089046", "wikidata": "Q6010512", "kinds": "architecture,historic_architecture,interesting_places,shops,marketplaces,tourist_facilities,other_buildings_and_structures", "point": {"lon": -4.0225701332092285, "lat": 39.8575325012207}}, {"xid": "W102597821", "name": "Circo romano de Toledo", "rate": 7, "osm": "way/102597821", "wikidata": "Q1985588", "kinds": "historic,monuments_and_memorials,archaeology,interesting_places,other_archaeological_sites,monuments", "point": {"lon": -4.029891490936279, "lat": 39.86432647705078}}, {"xid": "N5582229352", "name": "Segobriga", "rate": 7, "osm": "node/5582229352", "wikidata": "Q1759993", "kinds": "architecture,historic_architecture,historic,archaeology,interesting_places,destroyed_objects,other_archaeological_sites", "point": {"lon": -2.8139309883117676, "lat": 39.8851432800293}}, {"xid": "N3149541881", "name": "Castillo de Olmos", "rate": 7, "osm": "node/3149541881", "wikidata": "Q5757491", "kinds": "fortifications,historic,interesting_places,castles", "point": {"lon": -3.9869329929351807, "lat": 40.1434326171875}}, {"xid": "R3465262", "name": "Castillo de Batres", "rate": 7, "osm": "relation/3465262", "wikidata": "Q8342185", "kinds": "fortifications,historic,interesting_places,castles", "point": {"lon": -3.923236131668091, "lat": 40.210906982421875}}, {"xid": "W663982595", "name": "Palacio del Infante don Luis", "rate": 7, "osm": "way/663982595", "wikidata": "Q7126237", "kinds": "palaces,architecture,historic_architecture,historic,monuments_and_memorials,interesting_places,monuments", "point": {"lon": -3.8742032051086426, "lat": 40.406951904296875}}, {"xid": "N6331984449", "name": "Palacio del Infante", "rate": 7, "osm": "node/6331984449", "wikidata": "Q7126237", "kinds": "palaces,architecture,historic_architecture,historic,monuments_and_memorials,interesting_places,monuments", "point": {"lon": -3.874711751937866, "lat": 40.40673828125}}, {"xid": "N4973920846", "name": "Casino de Madrid", "rate": 7, "osm": "node/4973920846", "wikidata": "Q4891981", "kinds": "architecture,historic_architecture,historic,monuments_and_memorials,interesting_places,casino,adult,monuments,other_buildings_and_structures", "point": {"lon": -3.700526237487793, "lat": 40.41770935058594}}, {"xid": "W28684061", "name": "Palacio de Fomento", "rate": 7, "osm": "way/28684061", "wikidata": "Q15253453", "kinds": "palaces,architecture,historic_architecture,historic,monuments_and_memorials,interesting_places,monuments", "point": {"lon": -3.6903414726257324, "lat": 40.40890121459961}}, {"xid": "W48582857", "name": "Palacio del Canto del Pico", "rate": 7, "osm": "way/48582857", "wikidata": "Q7126220", "kinds": "architecture,historic_architecture,historic,monuments_and_memorials,interesting_places,destroyed_objects,monuments", "point": {"lon": -3.925513505935669, "lat": 40.5892333984375}}, {"xid": "W722379703", "name": "Valley of the Fallen", "rate": 7, "osm": "way/722379703", "wikidata": "Q940833", "kinds": "architecture,historic_architecture,interesting_places,other_buildings_and_structures", "point": {"lon": -4.155301094055176, "lat": 40.64179992675781}}, {"xid": "W83694298", "name": "Institute of Cultural Heritage of Spain", "rate": 7, "osm": "way/83694298", "wikidata": "Q7573185", "kinds": "historic,monuments_and_memorials,interesting_places,monuments", "point": {"lon": -3.734863758087158, "lat": 40.441158294677734}}, {"xid": "W37100610", "name": "Castillo de Casasola", "rate": 7, "osm": "way/37100610", "wikidata": "Q27243337", "kinds": "fortifications,historic,interesting_places,castles", "point": {"lon": -3.478616952896118, "lat": 40.163021087646484}}, {"xid": "N7806298792", "name": "Palacio de Cardenal Espinosa", "rate": 7, "osm": "node/7806298792", "wikidata": "Q11065493", "kinds": "palaces,architecture,historic_architecture,interesting_places", "point": {"lon": -4.595427513122559, "lat": 40.99575424194336}}, {"xid": "R4833248", "name": "Hospital of Sim\u00f3n Ruiz", "rate": 7, "osm": "relation/4833248", "wikidata": "Q16576209", "kinds": "architecture,historic_architecture,historic,monuments_and_memorials,interesting_places,destroyed_objects,monuments", "point": {"lon": -4.920463562011719, "lat": 41.304752349853516}}, {"xid": "N1784398926", "name": "Church of San Andr\u00e9s, Olmedo", "rate": 7, "osm": "node/1784398926", "wikidata": "Q5909858", "kinds": "religion,architecture,historic_architecture,churches,interesting_places,destroyed_objects,catholic_churches", "point": {"lon": -4.6880269050598145, "lat": 41.287261962890625}}, {"xid": "N4793905322", "name": "Torre de la Iglesia de Santa Marina", "rate": 7, "osm": "node/4793905322", "wikidata": "Q5911627", "kinds": "religion,architecture,towers,churches,historic,monuments_and_memorials,interesting_places,monuments,other_towers,other_churches", "point": {"lon": -4.314094543457031, "lat": 41.400062561035156}}, {"xid": "R5676125", "name": "Castle of Torrelobat\u00f3n", "rate": 7, "osm": "relation/5676125", "wikidata": "Q5050429", "kinds": "fortifications,historic,interesting_places,castles", "point": {"lon": -5.025364875793457, "lat": 41.65071105957031}}, {"xid": "W300934029", "name": "Hermitage of Nuestra Se\u00f1ora de La Anunciada, Urue\u00f1a", "rate": 7, "osm": "way/300934029", "wikidata": "Q5909393", "kinds": "religion,churches,interesting_places,catholic_churches", "point": {"lon": -5.1983113288879395, "lat": 41.717411041259766}}, {"xid": "W835323412", "name": "Church of Santa Mar\u00eda del Castillo, Cuenca de Campos", "rate": 7, "osm": "way/835323412", "wikidata": "Q5642536", "kinds": "religion,churches,interesting_places,catholic_churches", "point": {"lon": -5.056522369384766, "lat": 42.06017303466797}}, {"xid": "N4319523910", "name": "Ruinas de la Cartuja de Aniago", "rate": 7, "osm": "node/4319523910", "wikidata": "Q20963049", "kinds": "religion,architecture,historic_architecture,monasteries,interesting_places,destroyed_objects", "point": {"lon": -4.855560779571533, "lat": 41.535675048828125}}, {"xid": "R962752", "name": "Museo de Valladolid", "rate": 7, "osm": "relation/962752", "wikidata": "Q6034142", "kinds": "historic,monuments_and_memorials,cultural,museums,interesting_places,other_museums,monuments", "point": {"lon": -4.728671073913574, "lat": 41.656063079833984}}, {"xid": "N2024730426", "name": "GR 89", "rate": 7, "osm": "node/2024730426", "wikidata": "Q1032560", "kinds": "architecture,historic_architecture,historical_places,historic,water,natural,interesting_places,canals,historic_settlements,other_buildings_and_structures", "point": {"lon": -4.736779689788818, "lat": 41.66783905029297}}, {"xid": "W282941442", "name": "Monastery of La Armedilla, Cogeces de Monte", "rate": 7, "osm": "way/282941442", "wikidata": "Q6021463", "kinds": "religion,architecture,historic_architecture,monasteries,interesting_places,destroyed_objects", "point": {"lon": -4.3413472175598145, "lat": 41.53953552246094}}, {"xid": "W764310326", "name": "Castillo de Villalba de los Alcores", "rate": 7, "osm": "way/764310326", "wikidata": "Q5757687", "kinds": "fortifications,historic,monuments_and_memorials,interesting_places,castles,monuments", "point": {"lon": -4.86166524887085, "lat": 41.86314392089844}}, {"xid": "W262674257", "name": "Monasterio Cisterciense de Matallana", "rate": 7, "osm": "way/262674257", "wikidata": "Q260920", "kinds": "religion,architecture,historic_architecture,monasteries,interesting_places,destroyed_objects", "point": {"lon": -4.865677356719971, "lat": 41.90142822265625}}, {"xid": "W184623951", "name": "Iglesia de San Fructuoso", "rate": 7, "osm": "way/184623951", "wikidata": "Q43140079", "kinds": "religion,churches,interesting_places,catholic_churches", "point": {"lon": -4.804497718811035, "lat": 41.89851379394531}}, {"xid": "W167631706", "name": "Iglesia de Santa Eufemia", "rate": 7, "osm": "way/167631706", "wikidata": "Q41261302", "kinds": "religion,churches,interesting_places,catholic_churches", "point": {"lon": -4.831363677978516, "lat": 42.08806610107422}}, {"xid": "W84894596", "name": "Church of la Compa\u00f1\u00eda, Palencia", "rate": 7, "osm": "way/84894596", "wikidata": "Q5912370", "kinds": "religion,churches,interesting_places,catholic_churches", "point": {"lon": -4.5344648361206055, "lat": 42.00960159301758}}, {"xid": "W242419106", "name": "Train station of Segovia", "rate": 7, "osm": "way/242419106", "wikidata": "Q8841928", "kinds": "railway_stations,industrial_facilities,interesting_places", "point": {"lon": -4.113565444946289, "lat": 40.934139251708984}}, {"xid": "N6825121075", "name": "Segovia", "rate": 7, "osm": "node/6825121075", "wikidata": "Q8841928", "kinds": "railway_stations,industrial_facilities,interesting_places", "point": {"lon": -4.113308429718018, "lat": 40.934059143066406}}, {"xid": "R5583540", "name": "Casa de las Cadenas", "rate": 7, "osm": "relation/5583540", "wikidata": "Q56670038", "kinds": "palaces,architecture,historic_architecture,interesting_places,manor_houses", "point": {"lon": -4.117222309112549, "lat": 40.949363708496094}}, {"xid": "N7656805872", "name": "Castillo de Jadraque", "rate": 7, "osm": "node/7656805872", "wikidata": "Q1049190", "kinds": "fortifications,historic,interesting_places,castles", "point": {"lon": -2.9347198009490967, "lat": 40.91770553588867}}, {"xid": "W263217497", "name": "Ermita de la Virgen del Val", "rate": 7, "osm": "way/263217497", "wikidata": "Q5741905", "kinds": "religion,churches,interesting_places,catholic_churches", "point": {"lon": -3.1943612098693848, "lat": 41.319095611572266}}, {"xid": "W476382208", "name": "Pintia", "rate": 7, "osm": "way/476382208", "wikidata": "Q3814961", "kinds": "fortifications,historic,archaeology,interesting_places,castles,other_archaeological_sites", "point": {"lon": -4.166839122772217, "lat": 41.625267028808594}}, {"xid": "N395328820", "name": "Pe\u00f1afiel Castle", "rate": 7, "osm": "node/395328820", "wikidata": "Q1013495", "kinds": "fortifications,historic,monuments_and_memorials,interesting_places,castles,monuments", "point": {"lon": -4.114301681518555, "lat": 41.596649169921875}}, {"xid": "W824856218", "name": "Palacio de los Z\u00fa\u00f1iga", "rate": 7, "osm": "way/824856218", "wikidata": "Q6058492", "kinds": "palaces,architecture,historic_architecture,fortifications,historic,interesting_places,castles", "point": {"lon": -4.098677635192871, "lat": 41.6402473449707}}, {"xid": "R11483877", "name": "Monasterio de San Pelayo", "rate": 7, "osm": "relation/11483877", "wikidata": "Q6021359", "kinds": "religion,architecture,historic_architecture,monasteries,interesting_places,destroyed_objects", "point": {"lon": -4.165350437164307, "lat": 41.873931884765625}}, {"xid": "W251999034", "name": "Castillo de Ucero", "rate": 7, "osm": "way/251999034", "wikidata": "Q5050436", "kinds": "fortifications,historic,interesting_places,castles", "point": {"lon": -3.045675039291382, "lat": 41.71926498413086}}, {"xid": "N4190320617", "name": "Mirador del Castillo de Ucero", "rate": 7, "osm": "node/4190320617", "wikidata": "Q5050436", "kinds": "view_points,other,fortifications,historic,interesting_places,castles", "point": {"lon": -3.0451197624206543, "lat": 41.719539642333984}}, {"xid": "R6954068", "name": "Castle of Castillo de Garcimu\u00f1oz", "rate": 7, "osm": "relation/6954068", "wikidata": "Q5757217", "kinds": "fortifications,historic,interesting_places,castles", "point": {"lon": -2.3826396465301514, "lat": 39.66104507446289}}, {"xid": "W103592818", "name": "Iglesia de Santa Cruz", "rate": 7, "osm": "way/103592818", "wikidata": "Q9007407", "kinds": "religion,churches,interesting_places,catholic_churches", "point": {"lon": -2.1299731731414795, "lat": 40.07652282714844}}, {"xid": "N2120569991", "name": "Esgl\u00e9sia de Nostra Senyora de l'Assumpci\u00f3", "rate": 7, "osm": "node/2120569991", "wikidata": "Q5909505", "kinds": "religion,churches,interesting_places,other_churches", "point": {"lon": -1.2056299448013306, "lat": 39.567195892333984}}, {"xid": "N6443847329", "name": "Castle of Macastre", "rate": 7, "osm": "node/6443847329", "wikidata": "Q5757419", "kinds": "fortifications,historic,monuments_and_memorials,interesting_places,castles,monuments", "point": {"lon": -0.7889619469642639, "lat": 39.37948989868164}}, {"xid": "N343344299", "name": "Chiva", "rate": 7, "osm": "node/343344299", "wikidata": "Q5846045", "kinds": "railway_stations,industrial_facilities,interesting_places", "point": {"lon": -0.7229450345039368, "lat": 39.471038818359375}}, {"xid": "W571575420", "name": "Castillo De Sot De Chera", "rate": 7, "osm": "way/571575420", "wikidata": "Q5757606", "kinds": "fortifications,historic,interesting_places,castles", "point": {"lon": -0.9102970957756042, "lat": 39.62028503417969}}, {"xid": "W574474235", "name": "Ermita de San Roque", "rate": 7, "osm": "way/574474235", "wikidata": "Q8777126", "kinds": "religion,churches,interesting_places,catholic_churches", "point": {"lon": -0.9041141271591187, "lat": 39.62369918823242}}, {"xid": "W734617571", "name": "Iglesia", "rate": 7, "osm": "way/734617571", "wikidata": "Q5911501", "kinds": "religion,churches,interesting_places,catholic_churches", "point": {"lon": -1.1733496189117432, "lat": 40.06728744506836}}, {"xid": "W818395003", "name": "Torre de telegraf\u00eda \u00f3ptica de Chiva", "rate": 7, "osm": "way/818395003", "wikidata": "Q6150613", "kinds": "architecture,towers,interesting_places,other_towers", "point": {"lon": -0.6235342621803284, "lat": 39.458213806152344}}, {"xid": "N420158713", "name": "Iglesia de Santa Ana", "rate": 7, "osm": "node/420158713", "wikidata": "Q17315152", "kinds": "religion,other_temples,interesting_places", "point": {"lon": -0.4313361346721649, "lat": 39.39856719970703}}, {"xid": "N3973025583", "name": "Massanassa", "rate": 7, "osm": "node/3973025583", "wikidata": "Q5846685", "kinds": "railway_stations,industrial_facilities,interesting_places", "point": {"lon": -0.39532285928726196, "lat": 39.4091682434082}}, {"xid": "W807316866", "name": "\u00c0ngel Tower", "rate": 7, "osm": "way/807316866", "wikidata": "Q11952297", "kinds": "architecture,historic_architecture,interesting_places,destroyed_objects", "point": {"lon": -0.37758833169937134, "lat": 39.47821044921875}}, {"xid": "W807466054", "name": "\u00c0ngel Tower", "rate": 7, "osm": "way/807466054", "wikidata": "Q11952297", "kinds": "architecture,historic_architecture,interesting_places,destroyed_objects", "point": {"lon": -0.3790266811847687, "lat": 39.47724533081055}}, {"xid": "W807466055", "name": "\u00c0ngel Tower", "rate": 7, "osm": "way/807466055", "wikidata": "Q11952297", "kinds": "architecture,historic_architecture,interesting_places,destroyed_objects", "point": {"lon": -0.3794000744819641, "lat": 39.4768180847168}}, {"xid": "W799483954", "name": "Escuelas Profesionales de Artesanos", "rate": 7, "osm": "way/799483954", "wikidata": "Q20014873", "kinds": "architecture,historic_architecture,interesting_places,other_buildings_and_structures", "point": {"lon": -0.36915329098701477, "lat": 39.46364212036133}}, {"xid": "W185053046", "name": "Colegio Guadalaviar", "rate": 7, "osm": "way/185053046", "wikidata": "Q5776909", "kinds": "architecture,historic_architecture,interesting_places,other_buildings_and_structures", "point": {"lon": -0.35541433095932007, "lat": 39.47514724731445}}, {"xid": "W150244048", "name": "Antiguo Monasterio de San Miguel de los Reyes", "rate": 7, "osm": "way/150244048", "wikidata": "Q4891102", "kinds": "religion,monasteries,interesting_places", "point": {"lon": -0.36928266286849976, "lat": 39.49948501586914}}, {"xid": "N3344868534", "name": "Torre del Virrei", "rate": 7, "osm": "node/3344868534", "wikidata": "Q5855087", "kinds": "railway_stations,industrial_facilities,architecture,towers,interesting_places,other_towers", "point": {"lon": -0.54217928647995, "lat": 39.5688362121582}}, {"xid": "N957275487", "name": "Segart", "rate": 7, "osm": "node/957275487", "wikidata": "Q5806360", "kinds": "fortifications,historic,interesting_places,castles", "point": {"lon": -0.3739849627017975, "lat": 39.68380355834961}}, {"xid": "N252475113", "name": "Castillo de Cebolla", "rate": 7, "osm": "node/252475113", "wikidata": "Q3572012", "kinds": "architecture,historic_architecture,fortifications,historic,interesting_places,destroyed_objects,castles", "point": {"lon": -0.30454742908477783, "lat": 39.5911750793457}}, {"xid": "W77409071", "name": "Ermita de San Antonio de Padua", "rate": 7, "osm": "way/77409071", "wikidata": "Q5404351", "kinds": "religion,other_temples,interesting_places", "point": {"lon": -0.40994971990585327, "lat": 39.808284759521484}}, {"xid": "N356673393", "name": "Torre de Altomira", "rate": 7, "osm": "node/356673393", "wikidata": "Q18008368", "kinds": "architecture,towers,fortifications,historic,monuments_and_memorials,interesting_places,monuments,other_towers,fortified_towers", "point": {"lon": -0.5091083645820618, "lat": 39.87312698364258}}, {"xid": "W699703246", "name": "Iglesia de San Pedro", "rate": 7, "osm": "way/699703246", "wikidata": "Q18325636", "kinds": "religion,churches,interesting_places,catholic_churches", "point": {"lon": -0.6984784007072449, "lat": 40.01773452758789}}, {"xid": "W608420246", "name": "Esgl\u00e9sia de la Immaculada Concepci\u00f3 de Toga", "rate": 7, "osm": "way/608420246", "wikidata": "Q20992237", "kinds": "religion,churches,interesting_places,catholic_churches", "point": {"lon": -0.3670038878917694, "lat": 40.0426025390625}}, {"xid": "W480791501", "name": "Ermita del Santo Cristo del Calvario", "rate": 7, "osm": "way/480791501", "wikidata": "Q17155537", "kinds": "religion,other_temples,interesting_places", "point": {"lon": -0.30987629294395447, "lat": 39.879310607910156}}, {"xid": "N445103569", "name": "Ermita de l'Ecce Homo, Burriana", "rate": 7, "osm": "node/445103569", "wikidata": "Q30091897", "kinds": "religion,other_temples,interesting_places", "point": {"lon": -0.08531691879034042, "lat": 39.87491226196289}}, {"xid": "N3635622801", "name": "Ermita del Salvador", "rate": 7, "osm": "node/3635622801", "wikidata": "Q8777310", "kinds": "religion,churches,interesting_places,other_churches", "point": {"lon": -0.2884288728237152, "lat": 39.990482330322266}}, {"xid": "N505821559", "name": "Castillo de Borriol", "rate": 7, "osm": "node/505821559", "wikidata": "Q8342197", "kinds": "architecture,historic_architecture,fortifications,historic,monuments_and_memorials,interesting_places,destroyed_objects,castles,monuments", "point": {"lon": -0.07286334037780762, "lat": 40.045345306396484}}, {"xid": "W516711659", "name": "Acueducto de los Arcos", "rate": 7, "osm": "way/516711659", "wikidata": "Q5657044", "kinds": "bridges,architecture,historic,monuments_and_memorials,interesting_places,aqueducts,monuments", "point": {"lon": -1.1062490940093994, "lat": 40.34574508666992}}, {"xid": "N1641697605", "name": "Ermita de Santa Ana", "rate": 7, "osm": "node/1641697605", "wikidata": "Q5655003", "kinds": "religion,other_temples,interesting_places", "point": {"lon": -0.4549424946308136, "lat": 40.124481201171875}}, {"xid": "N301652951", "name": "Ermita de Sant Joan", "rate": 7, "osm": "node/301652951", "wikidata": "Q19857031", "kinds": "religion,other_temples,interesting_places", "point": {"lon": -0.2026832550764084, "lat": 40.19662857055664}}, {"xid": "N1562545059", "name": "Iglesia Parroquial de San Pedro", "rate": 7, "osm": "node/1562545059", "wikidata": "Q19890794", "kinds": "religion,churches,interesting_places,other_churches", "point": {"lon": -0.17375387251377106, "lat": 40.12065887451172}}, {"xid": "W534986338", "name": "Chapel of Saint Barbara", "rate": 7, "osm": "way/534986338", "wikidata": "Q68473971", "kinds": "religion,churches,interesting_places,catholic_churches", "point": {"lon": -0.2667052149772644, "lat": 40.61864471435547}}, {"xid": "W393495298", "name": "Iglesia de la Virgen de la Carrasca", "rate": 7, "osm": "way/393495298", "wikidata": "Q27032536", "kinds": "religion,churches,interesting_places,catholic_churches", "point": {"lon": -0.32162487506866455, "lat": 40.687347412109375}}, {"xid": "N1574109238", "name": "Esgl\u00e9sia de l'Assumpci\u00f3 de Forcall", "rate": 7, "osm": "node/1574109238", "wikidata": "Q17602031", "kinds": "religion,churches,interesting_places,catholic_churches", "point": {"lon": -0.19804874062538147, "lat": 40.64628219604492}}, {"xid": "W394706366", "name": "Castillo de Sisam\u00f3n", "rate": 7, "osm": "way/394706366", "wikidata": "Q29345566", "kinds": "fortifications,historic,interesting_places,castles", "point": {"lon": -2.003837823867798, "lat": 41.170589447021484}}, {"xid": "W113716134", "name": "Castillo de Maluenda", "rate": 7, "osm": "way/113716134", "wikidata": "Q29345526", "kinds": "architecture,historic_architecture,fortifications,historic,interesting_places,destroyed_objects,castles", "point": {"lon": -1.6160808801651, "lat": 41.288936614990234}}, {"xid": "N1474268228", "name": "Ruesca", "rate": 7, "osm": "node/1474268228", "wikidata": "Q34199739", "kinds": "architecture,towers,fortifications,historic,interesting_places,castles,other_towers,fortified_towers", "point": {"lon": -1.4817074537277222, "lat": 41.28253173828125}}, {"xid": "N279390707", "name": "Villa Romana La Dehesa", "rate": 7, "osm": "node/279390707", "wikidata": "Q20995305", "kinds": "historic,archaeology,interesting_places,other_archaeological_sites", "point": {"lon": -2.620805501937866, "lat": 41.66936492919922}}, {"xid": "N6546839512", "name": "Palacio", "rate": 7, "osm": "node/6546839512", "wikidata": "Q2046820", "kinds": "architecture,historic_architecture,historic,monuments_and_memorials,interesting_places,foods,restaurants,monuments,tourist_facilities,other_buildings_and_structures", "point": {"lon": -2.4632556438446045, "lat": 41.765872955322266}}, {"xid": "N8353481217", "name": "Nuestra Se\u00f1ora de los \u00c1ngeles (Fuensa\u00faco)", "rate": 7, "osm": "node/8353481217", "wikidata": "Q14541533", "kinds": "religion,churches,interesting_places,other_churches", "point": {"lon": -2.337074041366577, "lat": 41.76587677001953}}, {"xid": "N2054888800", "name": "Puente romano de Masegoso", "rate": 7, "osm": "node/2054888800", "wikidata": "Q4966441", "kinds": "roman_bridges,bridges,architecture,historic,monuments_and_memorials,archaeology,interesting_places,other_archaeological_sites,monuments", "point": {"lon": -2.1473441123962402, "lat": 41.76381301879883}}, {"xid": "W382750359", "name": "Castillo de Vozmediano", "rate": 7, "osm": "way/382750359", "wikidata": "Q52852645", "kinds": "fortifications,historic,interesting_places,castles", "point": {"lon": -1.8564223051071167, "lat": 41.83782196044922}}, {"xid": "R7253002", "name": "Monasterio Cisterciense Santa Maria de la Caridad", "rate": 7, "osm": "relation/7253002", "wikidata": "Q6021467", "kinds": "religion,monasteries,interesting_places", "point": {"lon": -1.6760834455490112, "lat": 41.976715087890625}}, {"xid": "N4861251318", "name": "Castillo de Ablitas", "rate": 7, "osm": "node/4861251318", "wikidata": "Q20492288", "kinds": "fortifications,historic,monuments_and_memorials,interesting_places,castles,monuments", "point": {"lon": -1.6376738548278809, "lat": 41.972999572753906}}, {"xid": "W609097492", "name": "Iglesia Parroquial del Salvador", "rate": 7, "osm": "way/609097492", "wikidata": "Q5909215", "kinds": "religion,churches,interesting_places,catholic_churches", "point": {"lon": -0.5921056270599365, "lat": 41.0301628112793}}, {"xid": "W24381834", "name": "Complejo Funerario del Cementerio de Torrero", "rate": 7, "osm": "way/24381834", "wikidata": "Q5680961", "kinds": "cemeteries,historic,burial_places,interesting_places", "point": {"lon": -0.8867756128311157, "lat": 41.6199951171875}}, {"xid": "W181513462", "name": "Rinc\u00f3n de Goya", "rate": 7, "osm": "way/181513462", "wikidata": "Q6108954", "kinds": "architecture,historic_architecture,interesting_places,other_buildings_and_structures", "point": {"lon": -0.8986482620239258, "lat": 41.630611419677734}}, {"xid": "W799179026", "name": "Averly", "rate": 7, "osm": "way/799179026", "wikidata": "Q5714362", "kinds": "factories,industrial_facilities,interesting_places", "point": {"lon": -0.8936150670051575, "lat": 41.65419006347656}}, {"xid": "N259498958", "name": "Monumento a los m\u00e1rtires de la religi\u00f3n y de la patria", "rate": 7, "osm": "node/259498958", "wikidata": "Q6023186", "kinds": "historic,monuments_and_memorials,interesting_places,monuments", "point": {"lon": -0.881007194519043, "lat": 41.65205001831055}}, {"xid": "N2055364709", "name": "Casa Solans", "rate": 7, "osm": "node/2055364709", "wikidata": "Q8341677", "kinds": "historic,monuments_and_memorials,interesting_places,monuments", "point": {"lon": -0.8676570057868958, "lat": 41.66081237792969}}, {"xid": "N1210572475", "name": "Iglesia de Santa Mar\u00eda la Mayor", "rate": 7, "osm": "node/1210572475", "wikidata": "Q43113584", "kinds": "religion,churches,interesting_places,other_churches", "point": {"lon": -0.002951225731521845, "lat": 41.961021423339844}}, {"xid": "W160944453", "name": "Monasterio de Valverde de Sandoval", "rate": 7, "osm": "way/160944453", "wikidata": "Q1540402", "kinds": "religion,monasteries,interesting_places", "point": {"lon": -5.459279537200928, "lat": 42.499359130859375}}, {"xid": "W28521172", "name": "Le\u00f3n Arena", "rate": 7, "osm": "way/28521172", "wikidata": "Q6538229", "kinds": "sport,architecture,historic_architecture,interesting_places,stadiums,other_buildings_and_structures", "point": {"lon": -5.572566032409668, "lat": 42.587013244628906}}, {"xid": "N806933358", "name": "Head bowings", "rate": 7, "osm": "node/806933358", "wikidata": "Q2547508", "kinds": "historic,monuments_and_memorials,cultural,urban_environment,interesting_places,sculptures,monuments", "point": {"lon": -5.570621490478516, "lat": 42.600372314453125}}, {"xid": "W485019218", "name": "Ermita de Santa Cecilia", "rate": 7, "osm": "way/485019218", "wikidata": "Q14530185", "kinds": "religion,churches,interesting_places,catholic_churches", "point": {"lon": -4.367648601531982, "lat": 42.77440643310547}}, {"xid": "W77377867", "name": "Church of Santa Mar\u00eda (Lebe\u00f1a)", "rate": 7, "osm": "way/77377867", "wikidata": "Q1131940", "kinds": "religion,churches,interesting_places,catholic_churches", "point": {"lon": -4.5905351638793945, "lat": 43.215335845947266}}, {"xid": "W534289151", "name": "Church of San Pedro de Plec\u00edn", "rate": 7, "osm": "way/534289151", "wikidata": "Q5117133", "kinds": "religion,architecture,historic_architecture,churches,interesting_places,destroyed_objects,other_churches", "point": {"lon": -4.701380252838135, "lat": 43.329837799072266}}, {"xid": "W534520866", "name": "San Antol\u00edn de Bed\u00f3n", "rate": 7, "osm": "way/534520866", "wikidata": "Q7413275", "kinds": "religion,architecture,historic_architecture,churches,interesting_places,destroyed_objects,other_churches", "point": {"lon": -4.869338512420654, "lat": 43.43811798095703}}, {"xid": "N689450021", "name": "Las Huelgas", "rate": 7, "osm": "node/689450021", "wikidata": "Q1539949", "kinds": "religion,historical_places,historic,monasteries,interesting_places,historic_districts", "point": {"lon": -3.719055414199829, "lat": 42.337520599365234}}, {"xid": "N741497762", "name": "Huelgas", "rate": 7, "osm": "node/741497762", "wikidata": "Q1539949", "kinds": "religion,architecture,historic_architecture,monasteries,interesting_places,foods,bars,tourist_facilities,other_buildings_and_structures", "point": {"lon": -3.7198359966278076, "lat": 42.33726501464844}}, {"xid": "W82058731", "name": "Arch of Fern\u00e1n Gonz\u00e1lez", "rate": 7, "osm": "way/82058731", "wikidata": "Q16488677", "kinds": "architecture,historic_architecture,historic,monuments_and_memorials,interesting_places,monuments,triumphal_archs", "point": {"lon": -3.707040786743164, "lat": 42.34031677246094}}, {"xid": "R1209743", "name": "Hospital de la Concepci\u00f3n (Burgos)", "rate": 7, "osm": "relation/1209743", "wikidata": "Q5903143", "kinds": "architecture,historic_architecture,accomodations,interesting_places,manor_houses,hostels", "point": {"lon": -3.700791835784912, "lat": 42.336421966552734}}, {"xid": "N492412213", "name": "Rubena", "rate": 7, "osm": "node/492412213", "wikidata": "Q1630697", "kinds": "historical_places,historic,interesting_places,historic_settlements", "point": {"lon": -3.5739710330963135, "lat": 42.38779067993164}}, {"xid": "W442948851", "name": "Torre de Cadalso", "rate": 7, "osm": "way/442948851", "wikidata": "Q6150355", "kinds": "architecture,historic_architecture,towers,fortifications,historic,monuments_and_memorials,interesting_places,destroyed_objects,castles,monuments,other_towers,fortified_towers", "point": {"lon": -3.8854305744171143, "lat": 42.83304214477539}}, {"xid": "N5626402992", "name": "Monasterio de San Juan de Ortega", "rate": 7, "osm": "node/5626402992", "wikidata": "Q29561578", "kinds": "religion,monasteries,interesting_places", "point": {"lon": -3.436673879623413, "lat": 42.376163482666016}}, {"xid": "N4510880388", "name": "San Juan de Ortega", "rate": 7, "osm": "node/4510880388", "wikidata": "Q29561578", "kinds": "religion,monasteries,interesting_places", "point": {"lon": -3.4364383220672607, "lat": 42.37466812133789}}, {"xid": "R3105227", "name": "Sanctuary of Santa Mar\u00eda del Espino", "rate": 7, "osm": "relation/3105227", "wikidata": "Q43130132", "kinds": "religion,churches,monasteries,interesting_places,catholic_churches", "point": {"lon": -3.0476362705230713, "lat": 42.727149963378906}}, {"xid": "N2272933285", "name": "Ermita de San Miguel", "rate": 7, "osm": "node/2272933285", "wikidata": "Q5836151", "kinds": "religion,churches,interesting_places,catholic_churches", "point": {"lon": -4.176051139831543, "lat": 42.93787384033203}}, {"xid": "W469738014", "name": "Palacio de Mijares", "rate": 7, "osm": "way/469738014", "wikidata": "Q6058155", "kinds": "palaces,architecture,historic_architecture,historic,monuments_and_memorials,interesting_places,foods,restaurants,monuments,tourist_facilities", "point": {"lon": -4.083446025848389, "lat": 43.36864471435547}}, {"xid": "W812591973", "name": "Gran Casino Sardinero", "rate": 7, "osm": "way/812591973", "wikidata": "Q5593984", "kinds": "architecture,historic_architecture,historical_places,historic,interesting_places,casino,adult,historic_settlements,other_buildings_and_structures", "point": {"lon": -3.7827775478363037, "lat": 43.47172546386719}}, {"xid": "N4355985694", "name": "El Sardinero", "rate": 7, "osm": "node/4355985694", "wikidata": "Q2625348", "kinds": "historical_places,historic,natural,interesting_places,beaches,other_beaches,historic_settlements", "point": {"lon": -3.787916660308838, "lat": 43.473106384277344}},