[{"xid": "N1932068321", "name": "Huaca Pucllana In-Site Museum", "rate": 7, "osm": "node/1932068321", "wikidata": "Q677387", "kinds": "historic,archaeology,cultural,museums,interesting_places,other_museums,other_archaeological_sites", "point": {"lon": -77.03335571289062, "lat": -12.111069679260254}}, {"xid": "W517820246", "name": "Hospital V\u00edctor Larco Herrera", "rate": 7, "osm": "way/517820246", "wikidata": "Q17333591", "kinds": "cultural,museums,interesting_places,other_museums", "point": {"lon": -77.06448364257812, "lat": -12.099238395690918}}, {"xid": "N2706052618", "name": "Casa O'Higgins", "rate": 7, "osm": "node/2706052618", "wikidata": "Q25413558", "kinds": "cultural,museums,interesting_places,other_museums", "point": {"lon": -77.03255462646484, "lat": -12.047598838806152}}, {"xid": "N4486063699", "name": "Palacio Torre Tagle", "rate": 7, "osm": "node/4486063699", "wikidata": "Q2506000", "kinds": "palaces,architecture,historic_architecture,cultural,museums,interesting_places,other_museums", "point": {"lon": -77.02942657470703, "lat": -12.048596382141113}}, {"xid": "N4401169390", "name": "Balc\u00f3n de Huaura", "rate": 7, "osm": "node/4401169390", "wikidata": "Q42845654", "kinds": "historic,monuments_and_memorials,cultural,museums,interesting_places,other_museums,monuments", "point": {"lon": -77.59884643554688, "lat": -11.070313453674316}}, {"xid": "N4438023994", "name": "Teatro Principal Manuel A. Segura", "rate": 7, "osm": "node/4438023994", "wikidata": "Q5201636", "kinds": "cultural,theatres_and_entertainments,interesting_places,other_theatres", "point": {"lon": -77.03446960449219, "lat": -12.04711627960205}}, {"xid": "W612055040", "name": "", "rate": 7, "osm": "way/612055040", "wikidata": "Q2620036", "kinds": "rock_formations,historic,archaeology,geological_formations,natural,interesting_places,other_archaeological_sites", "point": {"lon": -75.1662368774414, "lat": -14.52835750579834}}, {"xid": "W116025968", "name": "", "rate": 7, "osm": "way/116025968", "wikidata": "Q2620036", "kinds": "rock_formations,historic,archaeology,geological_formations,natural,interesting_places,other_archaeological_sites", "point": {"lon": -75.10111999511719, "lat": -14.679967880249023}}, {"xid": "W173692102", "name": "", "rate": 7, "osm": "way/173692102", "wikidata": "Q2620036", "kinds": "rock_formations,historic,archaeology,geological_formations,natural,interesting_places,other_archaeological_sites", "point": {"lon": -75.14508056640625, "lat": -14.692018508911133}}, {"xid": "W817978356", "name": "", "rate": 7, "osm": "way/817978356", "wikidata": "Q2620036", "kinds": "rock_formations,historic,archaeology,geological_formations,natural,interesting_places,other_archaeological_sites", "point": {"lon": -75.092041015625, "lat": -14.677620887756348}}, {"xid": "W173725447", "name": "", "rate": 7, "osm": "way/173725447", "wikidata": "Q2620036", "kinds": "rock_formations,historic,archaeology,geological_formations,natural,interesting_places,other_archaeological_sites", "point": {"lon": -75.12217712402344, "lat": -14.692466735839844}}, {"xid": "W116025972", "name": "", "rate": 7, "osm": "way/116025972", "wikidata": "Q2620036", "kinds": "rock_formations,historic,archaeology,geological_formations,natural,interesting_places,other_archaeological_sites", "point": {"lon": -75.11474609375, "lat": -14.692815780639648}}, {"xid": "W817289913", "name": "", "rate": 7, "osm": "way/817289913", "wikidata": "Q2620036", "kinds": "rock_formations,historic,archaeology,geological_formations,natural,interesting_places,other_archaeological_sites", "point": {"lon": -75.1434097290039, "lat": -14.695000648498535}}, {"xid": "W612053195", "name": "", "rate": 7, "osm": "way/612053195", "wikidata": "Q2620036", "kinds": "rock_formations,historic,archaeology,geological_formations,natural,interesting_places,other_archaeological_sites", "point": {"lon": -75.16477966308594, "lat": -14.526704788208008}}, {"xid": "W817289787", "name": "", "rate": 7, "osm": "way/817289787", "wikidata": "Q2620036", "kinds": "rock_formations,historic,archaeology,geological_formations,natural,interesting_places,other_archaeological_sites", "point": {"lon": -75.14466857910156, "lat": -14.694551467895508}}, {"xid": "W817290313", "name": "", "rate": 7, "osm": "way/817290313", "wikidata": "Q2620036", "kinds": "rock_formations,historic,archaeology,geological_formations,natural,interesting_places,other_archaeological_sites", "point": {"lon": -75.14337921142578, "lat": -14.698802947998047}}, {"xid": "W817294634", "name": "", "rate": 7, "osm": "way/817294634", "wikidata": "Q2620036", "kinds": "rock_formations,historic,archaeology,geological_formations,natural,interesting_places,other_archaeological_sites", "point": {"lon": -75.12284851074219, "lat": -14.690488815307617}}, {"xid": "W612053197", "name": "", "rate": 7, "osm": "way/612053197", "wikidata": "Q2620036", "kinds": "rock_formations,historic,archaeology,geological_formations,natural,interesting_places,other_archaeological_sites", "point": {"lon": -75.16537475585938, "lat": -14.528605461120605}}, {"xid": "W817294636", "name": "", "rate": 7, "osm": "way/817294636", "wikidata": "Q2620036", "kinds": "rock_formations,historic,archaeology,geological_formations,natural,interesting_places,other_archaeological_sites", "point": {"lon": -75.12281036376953, "lat": -14.690181732177734}}, {"xid": "W817294635", "name": "", "rate": 7, "osm": "way/817294635", "wikidata": "Q2620036", "kinds": "rock_formations,historic,archaeology,geological_formations,natural,interesting_places,other_archaeological_sites", "point": {"lon": -75.12232208251953, "lat": -14.690047264099121}}, {"xid": "W817978357", "name": "", "rate": 7, "osm": "way/817978357", "wikidata": "Q2620036", "kinds": "rock_formations,historic,archaeology,geological_formations,natural,interesting_places,other_archaeological_sites", "point": {"lon": -75.09263610839844, "lat": -14.676350593566895}}, {"xid": "W818442000", "name": "", "rate": 7, "osm": "way/818442000", "wikidata": "Q2620036", "kinds": "rock_formations,historic,archaeology,geological_formations,natural,interesting_places,other_archaeological_sites", "point": {"lon": -75.09284973144531, "lat": -14.678394317626953}}, {"xid": "W873154001", "name": "", "rate": 7, "osm": "way/873154001", "wikidata": "Q2620036", "kinds": "rock_formations,historic,archaeology,geological_formations,natural,interesting_places,other_archaeological_sites", "point": {"lon": -75.0926742553711, "lat": -14.67884635925293}}, {"xid": "W328421154", "name": "Teatro Municipal de Arequipa", "rate": 7, "osm": "way/328421154", "wikidata": "Q26213874", "kinds": "cultural,theatres_and_entertainments,interesting_places,other_theatres", "point": {"lon": -71.53423309326172, "lat": -16.39896011352539}}, {"xid": "W554501325", "name": "Templo de la Sagrada Familia", "rate": 7, "osm": "way/554501325", "wikidata": "Q42827777", "kinds": "religion,churches,interesting_places,other_churches", "point": {"lon": -71.97801971435547, "lat": -13.516007423400879}}, {"xid": "R4461413", "name": "Monasterio de Santa Catalina de Sena", "rate": 7, "osm": "relation/4461413", "wikidata": "Q71896434", "kinds": "religion,churches,interesting_places,other_churches", "point": {"lon": -71.97725677490234, "lat": -13.518021583557129}}, {"xid": "W31134646", "name": "Centro Cultural Metropolitano", "rate": 7, "osm": "way/31134646", "wikidata": "Q18418370", "kinds": "architecture,historic_architecture,interesting_places,other_buildings_and_structures", "point": {"lon": -78.51326751708984, "lat": -0.22034455835819244}}, {"xid": "W48864706", "name": "Catedral de la Inmaculada", "rate": 7, "osm": "way/48864706", "wikidata": "Q15072543", "kinds": "religion,cathedrals,churches,interesting_places,catholic_churches", "point": {"lon": -79.00541687011719, "lat": -2.897325277328491}}, {"xid": "N2497824337", "name": "Ventarron", "rate": 7, "osm": "node/2497824337", "wikidata": "Q523757", "kinds": "historic,archaeology,interesting_places,other_archaeological_sites", "point": {"lon": -79.75936126708984, "lat": -6.804778575897217}}, {"xid": "W612055041", "name": "", "rate": 7, "osm": "way/612055041", "wikidata": "Q2620036", "kinds": "rock_formations,historic,archaeology,geological_formations,natural,interesting_places,other_archaeological_sites", "point": {"lon": -75.16615295410156, "lat": -14.527944564819336}}, {"xid": "N6089156313", "name": "Belen Square", "rate": 7, "osm": "node/6089156313", "wikidata": "Q84095511", "kinds": "urban_environment,cultural,interesting_places,squares", "point": {"lon": -71.98111724853516, "lat": -13.526623725891113}}, {"xid": "W33782571", "name": "Parque Reducto", "rate": 7, "osm": "way/33782571", "wikidata": "Q6062486", "kinds": "historic,monuments_and_memorials,urban_environment,gardens_and_parks,cultural,interesting_places,monuments", "point": {"lon": -77.02264404296875, "lat": -12.12629508972168}}, {"xid": "R6142740", "name": "Campo de Marte", "rate": 7, "osm": "relation/6142740", "wikidata": "Q3390457", "kinds": "urban_environment,gardens_and_parks,cultural,interesting_places", "point": {"lon": -77.0418930053711, "lat": -12.068117141723633}}, {"xid": "N995446025", "name": "Museo de Santa Catalina", "rate": 7, "osm": "node/995446025", "wikidata": "Q71896434", "kinds": "religion,churches,cultural,museums,interesting_places,other_museums,other_churches", "point": {"lon": -71.97734069824219, "lat": -13.517576217651367}}, {"xid": "W520372493", "name": "Museo bolivariano Simon Bolivar Pativilca", "rate": 7, "osm": "way/520372493", "wikidata": "Q93138510", "kinds": "cultural,museums,interesting_places,other_museums", "point": {"lon": -77.780517578125, "lat": -10.695354461669922}}, {"xid": "R11256967", "name": "Manu National Park", "rate": 7, "osm": "relation/11256967", "wikidata": "Q390264", "kinds": "urban_environment,gardens_and_parks,cultural,natural,interesting_places,nature_reserves,national_parks", "point": {"lon": -71.48407745361328, "lat": -12.262602806091309}}, {"xid": "W66325356", "name": "Limacpampa Chico", "rate": 7, "osm": "way/66325356", "wikidata": "Q65212667", "kinds": "urban_environment,cultural,interesting_places,squares", "point": {"lon": -71.97454833984375, "lat": -13.519481658935547}}, {"xid": "W33847858", "name": "Parque Pucllana", "rate": 7, "osm": "way/33847858", "wikidata": "Q677387", "kinds": "historic,urban_environment,gardens_and_parks,archaeology,cultural,interesting_places,other_archaeological_sites", "point": {"lon": -77.033447265625, "lat": -12.112223625183105}}, {"xid": "W85617576", "name": "Plazoleta Santa Teresa", "rate": 7, "osm": "way/85617576", "wikidata": "Q65630053", "kinds": "religion,churches,urban_environment,gardens_and_parks,monasteries,cultural,interesting_places,other_churches", "point": {"lon": -71.98100280761719, "lat": -13.515548706054688}}, {"xid": "N5794199498", "name": "Lineas de Nasca", "rate": 7, "osm": "node/5794199498", "wikidata": "Q2620036", "kinds": "historic,historical_places,archaeology,interesting_places,other_archaeological_sites,historic_settlements", "point": {"lon": -75.1312484741211, "lat": -14.698598861694336}}, {"xid": "N5794280625", "name": "Giant", "rate": 7, "osm": "node/5794280625", "wikidata": "Q2620036", "kinds": "historic,historical_places,archaeology,interesting_places,other_archaeological_sites,historic_settlements", "point": {"lon": -75.07999420166016, "lat": -14.74544620513916}}, {"xid": "N5794475944", "name": "Dog", "rate": 7, "osm": "node/5794475944", "wikidata": "Q2620036", "kinds": "historic,historical_places,archaeology,interesting_places,other_archaeological_sites,historic_settlements", "point": {"lon": -75.13085174560547, "lat": -14.706714630126953}}, {"xid": "W907610361", "name": "serpiente python", "rate": 7, "osm": "way/907610361", "wikidata": "Q2620036", "kinds": "historic,archaeology,interesting_places,other_archaeological_sites", "point": {"lon": -75.07681274414062, "lat": -14.746855735778809}}, {"xid": "W817978354", "name": "", "rate": 7, "osm": "way/817978354", "wikidata": "Q2620036", "kinds": "rock_formations,historic,archaeology,geological_formations,natural,interesting_places,other_archaeological_sites", "point": {"lon": -75.0870132446289, "lat": -14.677947044372559}}, {"xid": "W612053188", "name": "", "rate": 7, "osm": "way/612053188", "wikidata": "Q2620036", "kinds": "rock_formations,historic,archaeology,geological_formations,natural,interesting_places,other_archaeological_sites", "point": {"lon": -75.16534423828125, "lat": -14.52844524383545}}, {"xid": "W612053196", "name": "", "rate": 7, "osm": "way/612053196", "wikidata": "Q2620036", "kinds": "rock_formations,historic,archaeology,geological_formations,natural,interesting_places,other_archaeological_sites", "point": {"lon": -75.16500091552734, "lat": -14.527835845947266}}, {"xid": "W612074518", "name": "", "rate": 7, "osm": "way/612074518", "wikidata": "Q2620036", "kinds": "rock_formations,historic,archaeology,geological_formations,natural,interesting_places,other_archaeological_sites", "point": {"lon": -75.06954956054688, "lat": -14.750452995300293}}, {"xid": "W310697421", "name": "Giant", "rate": 7, "osm": "way/310697421", "wikidata": "Q2620036", "kinds": "rock_formations,historic,archaeology,geological_formations,natural,interesting_places,other_archaeological_sites", "point": {"lon": -75.07978057861328, "lat": -14.74521255493164}}, {"xid": "W817294637", "name": "", "rate": 7, "osm": "way/817294637", "wikidata": "Q2620036", "kinds": "rock_formations,historic,archaeology,geological_formations,natural,interesting_places,other_archaeological_sites", "point": {"lon": -75.122314453125, "lat": -14.689763069152832}}, {"xid": "W612053206", "name": "la pista", "rate": 7, "osm": "way/612053206", "wikidata": "Q2620036", "kinds": "rock_formations,historic,archaeology,geological_formations,natural,interesting_places,other_archaeological_sites", "point": {"lon": -75.16554260253906, "lat": -14.528870582580566}}, {"xid": "W319773464", "name": "", "rate": 7, "osm": "way/319773464", "wikidata": "Q2620036", "kinds": "historic,archaeology,interesting_places,other_archaeological_sites", "point": {"lon": -75.07594299316406, "lat": -14.793182373046875}}, {"xid": "W668044931", "name": "", "rate": 7, "osm": "way/668044931", "wikidata": "Q2620036", "kinds": "historic,archaeology,interesting_places,other_archaeological_sites", "point": {"lon": -75.1444320678711, "lat": -14.685830116271973}}, {"xid": "W173725458", "name": "", "rate": 7, "osm": "way/173725458", "wikidata": "Q2620036", "kinds": "historic,archaeology,interesting_places,other_archaeological_sites", "point": {"lon": -75.12743377685547, "lat": -14.7124662399292}}, {"xid": "W612074525", "name": "Archeological site", "rate": 7, "osm": "way/612074525", "wikidata": "Q2620036", "kinds": "rock_formations,historic,archaeology,geological_formations,natural,interesting_places,other_archaeological_sites", "point": {"lon": -75.07478332519531, "lat": -14.749706268310547}}, {"xid": "W319773459", "name": "", "rate": 7, "osm": "way/319773459", "wikidata": "Q2620036", "kinds": "rock_formations,historic,archaeology,geological_formations,natural,interesting_places,other_archaeological_sites", "point": {"lon": -75.06458282470703, "lat": -14.807012557983398}}, {"xid": "W612074462", "name": "", "rate": 7, "osm": "way/612074462", "wikidata": "Q2620036", "kinds": "rock_formations,historic,archaeology,geological_formations,natural,interesting_places,other_archaeological_sites", "point": {"lon": -75.04037475585938, "lat": -14.808450698852539}}, {"xid": "W612082934", "name": "", "rate": 7, "osm": "way/612082934", "wikidata": "Q2620036", "kinds": "rock_formations,historic,archaeology,geological_formations,natural,interesting_places,other_archaeological_sites", "point": {"lon": -75.01570129394531, "lat": -14.786834716796875}}, {"xid": "W872816050", "name": "", "rate": 7, "osm": "way/872816050", "wikidata": "Q2620036", "kinds": "rock_formations,historic,archaeology,geological_formations,natural,interesting_places,other_archaeological_sites", "point": {"lon": -75.06121826171875, "lat": -14.804428100585938}}, {"xid": "W319775670", "name": "", "rate": 7, "osm": "way/319775670", "wikidata": "Q2620036", "kinds": "rock_formations,historic,archaeology,geological_formations,natural,interesting_places,other_archaeological_sites", "point": {"lon": -75.0699691772461, "lat": -14.785164833068848}}, {"xid": "W660054999", "name": "", "rate": 7, "osm": "way/660054999", "wikidata": "Q2620036", "kinds": "rock_formations,historic,archaeology,geological_formations,natural,interesting_places,other_archaeological_sites", "point": {"lon": -75.00006866455078, "lat": -14.868866920471191}}, {"xid": "W660055000", "name": "", "rate": 7, "osm": "way/660055000", "wikidata": "Q2620036", "kinds": "rock_formations,historic,archaeology,geological_formations,natural,interesting_places,other_archaeological_sites", "point": {"lon": -74.99456787109375, "lat": -14.867485046386719}}, {"xid": "W612050279", "name": "", "rate": 7, "osm": "way/612050279", "wikidata": "Q2620036", "kinds": "rock_formations,historic,archaeology,geological_formations,natural,interesting_places,other_archaeological_sites", "point": {"lon": -75.1053466796875, "lat": -14.688302040100098}}, {"xid": "W817289788", "name": "", "rate": 7, "osm": "way/817289788", "wikidata": "Q2620036", "kinds": "rock_formations,historic,archaeology,geological_formations,natural,interesting_places,other_archaeological_sites", "point": {"lon": -75.14759826660156, "lat": -14.691927909851074}}, {"xid": "R8485882", "name": "", "rate": 7, "osm": "relation/8485882", "wikidata": "Q2620036", "kinds": "rock_formations,historic,archaeology,geological_formations,natural,interesting_places,other_archaeological_sites", "point": {"lon": -75.00463104248047, "lat": -14.815411567687988}}, {"xid": "W612059048", "name": "", "rate": 7, "osm": "way/612059048", "wikidata": "Q2620036", "kinds": "rock_formations,historic,archaeology,geological_formations,natural,interesting_places,other_archaeological_sites", "point": {"lon": -75.00511169433594, "lat": -14.821063995361328}}, {"xid": "W323506093", "name": "", "rate": 7, "osm": "way/323506093", "wikidata": "Q2620036", "kinds": "rock_formations,historic,archaeology,geological_formations,natural,interesting_places,other_archaeological_sites", "point": {"lon": -75.12876892089844, "lat": -14.694055557250977}}, {"xid": "W173725456", "name": "", "rate": 7, "osm": "way/173725456", "wikidata": "Q2620036", "kinds": "rock_formations,historic,archaeology,geological_formations,natural,interesting_places,other_archaeological_sites", "point": {"lon": -75.12399291992188, "lat": -14.695469856262207}}, {"xid": "W612074527", "name": "Archeological site", "rate": 7, "osm": "way/612074527", "wikidata": "Q2620036", "kinds": "rock_formations,historic,archaeology,geological_formations,natural,interesting_places,other_archaeological_sites", "point": {"lon": -75.07576751708984, "lat": -14.749449729919434}}, {"xid": "W612074530", "name": "Archeological site", "rate": 7, "osm": "way/612074530", "wikidata": "Q2620036", "kinds": "rock_formations,historic,archaeology,geological_formations,natural,interesting_places,other_archaeological_sites", "point": {"lon": -75.07379150390625, "lat": -14.750822067260742}}, {"xid": "W612074533", "name": "Archeological site", "rate": 7, "osm": "way/612074533", "wikidata": "Q2620036", "kinds": "rock_formations,historic,archaeology,geological_formations,natural,interesting_places,other_archaeological_sites", "point": {"lon": -75.0739974975586, "lat": -14.750593185424805}}, {"xid": "W173725449", "name": "", "rate": 7, "osm": "way/173725449", "wikidata": "Q2620036", "kinds": "rock_formations,historic,archaeology,geological_formations,natural,interesting_places,other_archaeological_sites", "point": {"lon": -75.12117004394531, "lat": -14.690308570861816}}, {"xid": "W612074521", "name": "Archeological site", "rate": 7, "osm": "way/612074521", "wikidata": "Q2620036", "kinds": "rock_formations,historic,archaeology,geological_formations,natural,interesting_places,other_archaeological_sites", "point": {"lon": -75.07813262939453, "lat": -14.748398780822754}}, {"xid": "W137051404", "name": "Spiral", "rate": 7, "osm": "way/137051404", "wikidata": "Q2620036", "kinds": "rock_formations,historic,archaeology,geological_formations,natural,interesting_places,other_archaeological_sites", "point": {"lon": -75.12248992919922, "lat": -14.688755989074707}}, {"xid": "W323497464", "name": "", "rate": 7, "osm": "way/323497464", "wikidata": "Q2620036", "kinds": "rock_formations,historic,archaeology,geological_formations,natural,interesting_places,other_archaeological_sites", "point": {"lon": -75.10411834716797, "lat": -14.694330215454102}}, {"xid": "W126587273", "name": "St. Peter's Church", "rate": 7, "osm": "way/126587273", "wikidata": "Q3319986", "kinds": "religion,churches,interesting_places,catholic_churches", "point": {"lon": -77.02873992919922, "lat": -12.049379348754883}}, {"xid": "W93061843", "name": "Catedral de Piura", "rate": 7, "osm": "way/93061843", "wikidata": "Q26250307", "kinds": "religion,cathedrals,interesting_places", "point": {"lon": -80.62673950195312, "lat": -5.1962690353393555}}, {"xid": "W31281502", "name": "Museo de la Ciudad", "rate": 7, "osm": "way/31281502", "wikidata": "Q19896440", "kinds": "cultural,museums,interesting_places,other_museums", "point": {"lon": -78.51500701904297, "lat": -0.22306276857852936}}, {"xid": "W225903400", "name": "Iglesia de San Juan", "rate": 7, "osm": "way/225903400", "wikidata": "Q6063558", "kinds": "religion,churches,interesting_places,catholic_churches", "point": {"lon": -70.02886962890625, "lat": -15.837932586669922}}, {"xid": "N4717567995", "name": "Casona Mercaderes", "rate": 7, "osm": "node/4717567995", "wikidata": "Q19593765", "kinds": "architecture,historic_architecture,urban_environment,cultural,interesting_places,restaurants,foods,squares,tourist_facilities,other_buildings_and_structures", "point": {"lon": -71.53227233886719, "lat": -16.399810791015625}}, {"xid": "W286762986", "name": "Catedral de Tacna", "rate": 7, "osm": "way/286762986", "wikidata": "Q5758603", "kinds": "religion,cathedrals,interesting_places", "point": {"lon": -70.25198364257812, "lat": -18.014516830444336}}, {"xid": "R2729059", "name": "Lines and Geoglyphs of Nasca and Palpa", "rate": 7, "osm": "relation/2729059", "wikidata": "Q2620036", "kinds": "historic,archaeology,interesting_places,other_archaeological_sites", "point": {"lon": -75.17153930664062, "lat": -14.687481880187988}}, {"xid": "R12530031", "name": "Nasca Lines and Geoglyphs Archaeological Reserve Zone", "rate": 7, "osm": "relation/12530031", "wikidata": "Q2620036", "kinds": "historic,archaeology,interesting_places,other_archaeological_sites", "point": {"lon": -75.0816650390625, "lat": -14.751341819763184}}, {"xid": "N5794422061", "name": "Baby condor", "rate": 7, "osm": "node/5794422061", "wikidata": "Q2620036", "kinds": "historic,archaeology,interesting_places,other_archaeological_sites", "point": {"lon": -75.00628662109375, "lat": -14.790619850158691}}, {"xid": "W173725448", "name": "", "rate": 7, "osm": "way/173725448", "wikidata": "Q2620036", "kinds": "historic,archaeology,interesting_places,other_archaeological_sites", "point": {"lon": -75.12833404541016, "lat": -14.705443382263184}}, {"xid": "W131940605", "name": "Huaca San Marcos", "rate": 7, "osm": "way/131940605", "wikidata": "Q5903823", "kinds": "historic,archaeology,interesting_places,other_archaeological_sites", "point": {"lon": -77.08683776855469, "lat": -12.06001091003418}}, {"xid": "W496000353", "name": "Huaca Pucllana", "rate": 7, "osm": "way/496000353", "wikidata": "Q677387", "kinds": "historic,archaeology,interesting_places,other_archaeological_sites", "point": {"lon": -77.03395080566406, "lat": -12.111471176147461}}, {"xid": "W438082538", "name": "Huaca Pucllana", "rate": 7, "osm": "way/438082538", "wikidata": "Q677387", "kinds": "historic,archaeology,interesting_places,other_archaeological_sites", "point": {"lon": -77.03211975097656, "lat": -12.11023235321045}}, {"xid": "N2169513303", "name": "Restaurante Huaca Pucllana", "rate": 7, "osm": "node/2169513303", "wikidata": "Q677387", "kinds": "architecture,historic_architecture,historic,archaeology,interesting_places,other_archaeological_sites,restaurants,foods,tourist_facilities,other_buildings_and_structures", "point": {"lon": -77.03303527832031, "lat": -12.11105728149414}}, {"xid": "N4966811022", "name": "Huaca Pucllana", "rate": 7, "osm": "node/4966811022", "wikidata": "Q677387", "kinds": "historic,archaeology,interesting_places,other_archaeological_sites", "point": {"lon": -77.03328704833984, "lat": -12.111567497253418}}, {"xid": "W435365880", "name": "Monastery of San Francisco", "rate": 7, "osm": "way/435365880", "wikidata": "Q2404214", "kinds": "religion,churches,monasteries,interesting_places,other_churches", "point": {"lon": -77.02710723876953, "lat": -12.045461654663086}}, {"xid": "N6348526085", "name": "Churros San Francisco", "rate": 7, "osm": "node/6348526085", "wikidata": "Q2404214", "kinds": "religion,architecture,historic_architecture,churches,monasteries,interesting_places,fast_food,foods,tourist_facilities,other_buildings_and_structures,other_churches", "point": {"lon": -77.0284652709961, "lat": -12.04598331451416}}, {"xid": "N3099279836", "name": "Galaria San Francisco", "rate": 7, "osm": "node/3099279836", "wikidata": "Q2404214", "kinds": "religion,churches,monasteries,interesting_places,other_churches", "point": {"lon": -77.0283203125, "lat": -12.045695304870605}}, {"xid": "N4471448464", "name": "Convent of San Fransisco", "rate": 7, "osm": "node/4471448464", "wikidata": "Q2404214", "kinds": "religion,churches,monasteries,interesting_places,other_churches", "point": {"lon": -77.02717590332031, "lat": -12.045477867126465}}, {"xid": "W771625882", "name": "Wari Willka", "rate": 7, "osm": "way/771625882", "wikidata": "Q9005122", "kinds": "historic,archaeology,interesting_places,other_archaeological_sites", "point": {"lon": -75.20612335205078, "lat": -12.117607116699219}}, {"xid": "W37857794", "name": "Almudena", "rate": 7, "osm": "way/37857794", "wikidata": "Q68859382", "kinds": "cemeteries,historic,burial_places,interesting_places", "point": {"lon": -71.98851776123047, "lat": -13.527287483215332}}, {"xid": "N4413841689", "name": "San Pedro", "rate": 7, "osm": "node/4413841689", "wikidata": "Q83372379", "kinds": "architecture,historic_architecture,interesting_places,shops,bakeries,tourist_facilities,other_buildings_and_structures", "point": {"lon": -71.98408508300781, "lat": -13.52099895477295}}, {"xid": "W255536421", "name": "Plazoleta Santa Catalina", "rate": 7, "osm": "way/255536421", "wikidata": "Q71896434", "kinds": "religion,churches,urban_environment,gardens_and_parks,cultural,interesting_places,other_churches", "point": {"lon": -71.97704315185547, "lat": -13.517671585083008}}, {"xid": "N993167780", "name": "Iglesia de Santa Teresa", "rate": 7, "osm": "node/993167780", "wikidata": "Q65630053", "kinds": "religion,churches,monasteries,interesting_places,other_churches", "point": {"lon": -71.98139190673828, "lat": -13.515456199645996}}, {"xid": "N4804419826", "name": "Church of San Blas", "rate": 7, "osm": "node/4804419826", "wikidata": "Q83286477", "kinds": "religion,other_temples,interesting_places", "point": {"lon": -71.97538757324219, "lat": -13.515395164489746}}, {"xid": "W307633838", "name": "Huaca Prieta", "rate": 7, "osm": "way/307633838", "wikidata": "Q1632701", "kinds": "historic,archaeology,interesting_places,other_archaeological_sites", "point": {"lon": -79.30619812011719, "lat": -7.924899578094482}}, {"xid": "W942423831", "name": "Iglesia de San Crist\u00f3bal, Hu\u00e1nuco", "rate": 7, "osm": "way/942423831", "wikidata": "Q28171729", "kinds": "religion,churches,interesting_places,other_churches", "point": {"lon": -76.23603820800781, "lat": -9.930930137634277}}, {"xid": "N1728416578", "name": "Ruinas Ventanillas de Otuzco", "rate": 7, "osm": "node/1728416578", "wikidata": "Q2045826", "kinds": "historic,archaeology,interesting_places,other_archaeological_sites", "point": {"lon": -78.4574966430664, "lat": -7.125}}, {"xid": "N633710901", "name": "Ventanillas de Otuzco", "rate": 7, "osm": "node/633710901", "wikidata": "Q2045826", "kinds": "architecture,historic_architecture,historic,archaeology,interesting_places,destroyed_objects,other_archaeological_sites", "point": {"lon": -78.45787811279297, "lat": -7.125317096710205}}, {"xid": "W405340982", "name": "Santa Catalina Monastery", "rate": 7, "osm": "way/405340982", "wikidata": "Q1538957", "kinds": "religion,monasteries,cultural,museums,interesting_places,other_museums", "point": {"lon": -71.53656005859375, "lat": -16.39514923095703}}, {"xid": "N6814304487", "name": "Sucre House", "rate": 7, "osm": "node/6814304487", "wikidata": "Q18416972", "kinds": "cultural,museums,interesting_places,other_museums", "point": {"lon": -78.51202392578125, "lat": -0.22354716062545776}}, {"xid": "N635420368", "name": "Catedral - Santa Catalina", "rate": 7, "osm": "node/635420368", "wikidata": "Q16490511", "kinds": "religion,cathedrals,interesting_places", "point": {"lon": -78.51805877685547, "lat": -7.156766414642334}}, {"xid": "W573324443", "name": "Templo de Santa Cruz de Jerusalen", "rate": 7, "osm": "way/573324443", "wikidata": "Q5911560", "kinds": "religion,churches,interesting_places,other_churches", "point": {"lon": -69.4614486694336, "lat": -16.210247039794922}}, {"xid": "R8531715", "name": "Catedral de Lima", "rate": 7, "osm": "relation/8531715", "wikidata": "Q2446793", "kinds": "religion,cathedrals,churches,interesting_places,other_churches", "point": {"lon": -77.02970123291016, "lat": -12.046764373779297}}, {"xid": "N4139782991", "name": "Convento Santa Catalina", "rate": 7, "osm": "node/4139782991", "wikidata": "Q1538957", "kinds": "religion,monasteries,interesting_places", "point": {"lon": -71.53681945800781, "lat": -16.395273208618164}}, {"xid": "W673212786", "name": "Church of Saint Francis", "rate": 7, "osm": "way/673212786", "wikidata": "Q5116751", "kinds": "religion,churches,interesting_places,catholic_churches", "point": {"lon": -78.51538848876953, "lat": -0.2203492969274521}}, {"xid": "W298433493", "name": "Our Lady of Guadalupe College", "rate": 7, "osm": "way/298433493", "wikidata": "Q5551444", "kinds": "architecture,historic_architecture,interesting_places,other_buildings_and_structures", "point": {"lon": -77.04116821289062, "lat": -12.055329322814941}}, {"xid": "R6421151", "name": "R\u00edo Abiseo National Park", "rate": 7, "osm": "relation/6421151", "wikidata": "Q941412", "kinds": "urban_environment,gardens_and_parks,cultural,natural,interesting_places,nature_reserves,national_parks", "point": {"lon": -77.26570129394531, "lat": -7.732485294342041}}, {"xid": "N2706089579", "name": "Casa de la Literatura Peruana", "rate": 7, "osm": "node/2706089579", "wikidata": "Q5201438", "kinds": "railway_stations,industrial_facilities,cultural,museums,interesting_places,other_museums", "point": {"lon": -77.02875518798828, "lat": -12.044415473937988}}, {"xid": "W31149837", "name": "Casa de Sucre", "rate": 7, "osm": "way/31149837", "wikidata": "Q18416972", "kinds": "cultural,museums,interesting_places,other_museums", "point": {"lon": -78.51317596435547, "lat": -0.22188816964626312}}, {"xid": "N5921333767", "name": "Cathedral of Lima", "rate": 7, "osm": "node/5921333767", "wikidata": "Q2446793", "kinds": "religion,cathedrals,cultural,museums,interesting_places,art_galleries", "point": {"lon": -77.02983856201172, "lat": -12.046372413635254}}, {"xid": "W198984715", "name": "Teatro Municipal de Lima", "rate": 7, "osm": "way/198984715", "wikidata": "Q5201615", "kinds": "cultural,theatres_and_entertainments,interesting_places,other_theatres", "point": {"lon": -77.03511810302734, "lat": -12.045692443847656}}, {"xid": "N7107582760", "name": "Machu Picchu", "rate": 7, "osm": "node/7107582760", "wikidata": "Q676203", "kinds": "settlements,historic,historical_places,archaeology,interesting_places,historic_settlements", "point": {"lon": -72.54535675048828, "lat": -13.162784576416016}}, {"xid": "W770641291", "name": "Pa\u00f1amarka", "rate": 7, "osm": "way/770641291", "wikidata": "Q9057204", "kinds": "historic,archaeology,interesting_places,other_archaeological_sites", "point": {"lon": -78.37542724609375, "lat": -9.206231117248535}}, {"xid": "W157376572", "name": "Machu Picchu", "rate": 7, "osm": "way/157376572", "wikidata": "Q676203", "kinds": "settlements,historic,archaeology,interesting_places", "point": {"lon": -72.54508209228516, "lat": -13.164422035217285}}, {"xid": "W771627507", "name": "Sillustani", "rate": 7, "osm": "way/771627507", "wikidata": "Q2603118", "kinds": "tumuluses,historic,burial_places,archaeology,natural,interesting_places,nature_reserves,other_archaeological_sites,other_nature_conservation_areas", "point": {"lon": -70.15898895263672, "lat": -15.721653938293457}}, {"xid": "W366673645", "name": "Templo de Santo Domingo", "rate": 7, "osm": "way/366673645", "wikidata": "Q46169893", "kinds": "religion,churches,interesting_places,other_churches", "point": {"lon": -74.22543334960938, "lat": -13.158465385437012}}, {"xid": "W23799161", "name": "Church of the Society of Jesus", "rate": 7, "osm": "way/23799161", "wikidata": "Q10974742", "kinds": "religion,churches,interesting_places,catholic_churches", "point": {"lon": -71.9779281616211, "lat": -13.517566680908203}}, {"xid": "W260992503", "name": "Church of Our Lady of the Pillar", "rate": 7, "osm": "way/260992503", "wikidata": "Q5909710", "kinds": "religion,churches,interesting_places,other_churches", "point": {"lon": -79.71572875976562, "lat": -4.640320777893066}}, {"xid": "W107938444", "name": "Basilica of the National Vow", "rate": 7, "osm": "way/107938444", "wikidata": "Q4868435", "kinds": "religion,cathedrals,churches,interesting_places,other_churches", "point": {"lon": -78.50732421875, "lat": -0.2147284299135208}}, {"xid": "N1932068320", "name": "Museo de Sitio Huallamarca", "rate": 7, "osm": "node/1932068320", "wikidata": "Q9005094", "kinds": "architecture,historic_architecture,historic,archaeology,cultural,museums,interesting_places,pyramids,other_museums,other_archaeological_sites", "point": {"lon": -77.04024505615234, "lat": -12.096830368041992}}, {"xid": "W159408371", "name": "Iglesia de San Francisco", "rate": 7, "osm": "way/159408371", "wikidata": "Q5116751", "kinds": "religion,churches,interesting_places,catholic_churches", "point": {"lon": -78.5155258178711, "lat": -0.22028543055057526}}, {"xid": "N1680803098", "name": "Monolito Barbado", "rate": 7, "osm": "node/1680803098", "wikidata": "Q9034613", "kinds": "architecture,historic_architecture,interesting_places,destroyed_objects", "point": {"lon": -68.67251586914062, "lat": -16.554765701293945}}, {"xid": "N4248837794", "name": "Restaurante San Francisco", "rate": 7, "osm": "node/4248837794", "wikidata": "Q5116751", "kinds": "religion,architecture,historic_architecture,churches,interesting_places,restaurants,foods,tourist_facilities,other_buildings_and_structures,other_churches", "point": {"lon": -78.51387023925781, "lat": -0.22003212571144104}}, {"xid": "W171442171", "name": "Catedral Santo Domingo", "rate": 7, "osm": "way/171442171", "wikidata": "Q26822930", "kinds": "religion,churches,interesting_places,other_churches", "point": {"lon": -70.93360900878906, "lat": -17.194026947021484}}, {"xid": "R8483449", "name": "Presb\u00edtero Maestro", "rate": 7, "osm": "relation/8483449", "wikidata": "Q3776989", "kinds": "cemeteries,historic,burial_places,interesting_places", "point": {"lon": -77.00731658935547, "lat": -12.041178703308105}}, {"xid": "W129822356", "name": "Huaca Huallamarca", "rate": 7, "osm": "way/129822356", "wikidata": "Q9005094", "kinds": "architecture,historic_architecture,historic,archaeology,interesting_places,pyramids,other_archaeological_sites", "point": {"lon": -77.04048919677734, "lat": -12.097403526306152}}, {"xid": "N6275182985", "name": "Cathedral of Lima", "rate": 7, "osm": "node/6275182985", "wikidata": "Q2446793", "kinds": "religion,cathedrals,interesting_places", "point": {"lon": -77.02978515625, "lat": -12.046716690063477}}, {"xid": "N5370984694", "name": "Santuario De Cocharcas", "rate": 7, "osm": "node/5370984694", "wikidata": "Q27023417", "kinds": "religion,churches,interesting_places,other_churches", "point": {"lon": -73.73944854736328, "lat": -13.612020492553711}}, {"xid": "W236481490", "name": "Suntur", "rate": 7, "osm": "way/236481490", "wikidata": "Q12070303", "kinds": "historic,archaeology,interesting_places,other_archaeological_sites", "point": {"lon": -73.26992797851562, "lat": -13.606128692626953}}, {"xid": "N4324616875", "name": "Extension cultural del Monasterio de Santa Catalina", "rate": 7, "osm": "node/4324616875", "wikidata": "Q1538957", "kinds": "religion,monasteries,interesting_places", "point": {"lon": -71.53723907470703, "lat": -16.395889282226562}}, {"xid": "N877180165", "name": "Monolito Ponce", "rate": 7, "osm": "node/877180165", "wikidata": "Q9034613", "kinds": "architecture,historic_architecture,interesting_places,destroyed_objects", "point": {"lon": -68.67317962646484, "lat": -16.554773330688477}}, {"xid": "N257941624", "name": "Wayna Picchu", "rate": 7, "osm": "node/257941624", "wikidata": "Q676203", "kinds": "settlements,historic,archaeology,interesting_places", "point": {"lon": -72.54561614990234, "lat": -13.161825180053711}}, {"xid": "N4324661090", "name": "Machu Picchu", "rate": 7, "osm": "node/4324661090", "wikidata": "Q676203", "kinds": "settlements,historic,archaeology,interesting_places", "point": {"lon": -72.54472351074219, "lat": -13.16266918182373}}, {"xid": "W234919581", "name": "Huaca del Drag\u00f3n", "rate": 7, "osm": "way/234919581", "wikidata": "Q289725", "kinds": "architecture,historic_architecture,historic,archaeology,interesting_places,destroyed_objects,other_archaeological_sites", "point": {"lon": -79.04900360107422, "lat": -8.07637882232666}}, {"xid": "W741759390", "name": "Kunturwasi qhapana", "rate": 7, "osm": "way/741759390", "wikidata": "Q1792721", "kinds": "historic,archaeology,interesting_places,other_archaeological_sites", "point": {"lon": -78.84632873535156, "lat": -7.12908935546875}}, {"xid": "N1701062194", "name": "Kunturwasi", "rate": 7, "osm": "node/1701062194", "wikidata": "Q1792721", "kinds": "architecture,historic_architecture,historic,archaeology,interesting_places,destroyed_objects,other_archaeological_sites", "point": {"lon": -78.82498168945312, "lat": -7.122056007385254}}, {"xid": "R2093902", "name": "Aspero", "rate": 7, "osm": "relation/2093902", "wikidata": "Q2475846", "kinds": "historic,archaeology,interesting_places,other_archaeological_sites", "point": {"lon": -77.74076080322266, "lat": -10.815008163452148}}, {"xid": "N1728416362", "name": "Pa\u00f1amarka", "rate": 7, "osm": "node/1728416362", "wikidata": "Q9057204", "kinds": "historic,archaeology,interesting_places,other_archaeological_sites", "point": {"lon": -78.37166595458984, "lat": -9.209166526794434}}, {"xid": "N5271683647", "name": "Huacramarca", "rate": 7, "osm": "node/5271683647", "wikidata": "Q15949873", "kinds": "mountain_peaks,historic,archaeology,geological_formations,natural,interesting_places,other_archaeological_sites", "point": {"lon": -77.43316650390625, "lat": -9.17568588256836}}, {"xid": "W425598181", "name": "San Francisco", "rate": 7, "osm": "way/425598181", "wikidata": "Q5116751", "kinds": "religion,architecture,historic_architecture,churches,interesting_places,restaurants,foods,tourist_facilities,other_buildings_and_structures,other_churches", "point": {"lon": -78.513916015625, "lat": -0.21998752653598785}}, {"xid": "N2230835962", "name": "San Fransisco", "rate": 7, "osm": "node/2230835962", "wikidata": "Q5116751", "kinds": "religion,churches,interesting_places,other_churches", "point": {"lon": -78.51454162597656, "lat": -0.220482736825943}}, {"xid": "N6855882369", "name": "San Francisco", "rate": 7, "osm": "node/6855882369", "wikidata": "Q5116751", "kinds": "religion,churches,interesting_places,other_churches", "point": {"lon": -78.51432037353516, "lat": -0.2205999195575714}}, {"xid": "W854096364", "name": "Tacna Courthouse", "rate": 7, "osm": "way/854096364", "wikidata": "Q17232550", "kinds": "cultural,museums,interesting_places,other_museums", "point": {"lon": -70.24845123291016, "lat": -18.01093292236328}}, {"xid": "W383861976", "name": "Museo de Pedro de Osma", "rate": 7, "osm": "way/383861976", "wikidata": "Q6033665", "kinds": "cultural,museums,interesting_places,art_galleries", "point": {"lon": -77.02264404296875, "lat": -12.154638290405273}}, {"xid": "N1932068186", "name": "Museo Convento de Santo Domingo", "rate": 7, "osm": "node/1932068186", "wikidata": "Q5722131", "kinds": "religion,churches,cultural,museums,interesting_places,other_museums,other_churches", "point": {"lon": -77.0316162109375, "lat": -12.044084548950195}}, {"xid": "N346631428", "name": "Museo de la Catedral", "rate": 7, "osm": "node/346631428", "wikidata": "Q5758380", "kinds": "religion,cathedrals,cultural,museums,interesting_places,other_museums", "point": {"lon": -78.51238250732422, "lat": -0.22092211246490479}}, {"xid": "W673325435", "name": "Iglesia de Santo Domingo", "rate": 7, "osm": "way/673325435", "wikidata": "Q6447145", "kinds": "religion,churches,interesting_places,other_churches", "point": {"lon": -78.51245880126953, "lat": -0.2243117094039917}}, {"xid": "W293642349", "name": "Plaza Vea Acho", "rate": 7, "osm": "way/293642349", "wikidata": "Q2744878", "kinds": "sport,architecture,historic_architecture,interesting_places,shops,supermarkets,stadiums,tourist_facilities,other_buildings_and_structures", "point": {"lon": -77.02196502685547, "lat": -12.041548728942871}}, {"xid": "W402523841", "name": "Basilica Cathedral of Arequipa", "rate": 7, "osm": "way/402523841", "wikidata": "Q2942282", "kinds": "religion,cathedrals,interesting_places", "point": {"lon": -71.53665924072266, "lat": -16.39809799194336}}, {"xid": "W233697898", "name": "Iglesia Santa Catalina", "rate": 7, "osm": "way/233697898", "wikidata": "Q5909058", "kinds": "religion,churches,interesting_places,catholic_churches", "point": {"lon": -70.1345443725586, "lat": -15.493478775024414}}, {"xid": "W253234080", "name": "Catedral Metropolitana Quito", "rate": 7, "osm": "way/253234080", "wikidata": "Q5758380", "kinds": "religion,cathedrals,interesting_places", "point": {"lon": -78.51244354248047, "lat": -0.22052250802516937}}, {"xid": "W705289513", "name": "Convento de Santo Domingo", "rate": 7, "osm": "way/705289513", "wikidata": "Q6447145", "kinds": "religion,monasteries,interesting_places", "point": {"lon": -78.51189422607422, "lat": -0.22415345907211304}}, {"xid": "W711130443", "name": "Monasterio de Santo Domingo", "rate": 7, "osm": "way/711130443", "wikidata": "Q6447145", "kinds": "religion,monasteries,interesting_places", "point": {"lon": -78.5126724243164, "lat": -0.22485896944999695}}, {"xid": "N6556532685", "name": "Cristo Blanco Mirador", "rate": 7, "osm": "node/6556532685", "wikidata": "Q107554678", "kinds": "view_points,other,historic,monuments_and_memorials,urban_environment,cultural,interesting_places,sculptures,monuments", "point": {"lon": -71.97808837890625, "lat": -13.509636878967285}}, {"xid": "R8596479", "name": "Chavin Archaeological Site", "rate": 7, "osm": "relation/8596479", "wikidata": "Q732554", "kinds": "historic,archaeology,interesting_places,other_archaeological_sites", "point": {"lon": -77.17791748046875, "lat": -9.593748092651367}}, {"xid": "W439126948", "name": "Willkawayin", "rate": 7, "osm": "way/439126948", "wikidata": "Q469528", "kinds": "historic,archaeology,interesting_places,other_archaeological_sites", "point": {"lon": -77.5114517211914, "lat": -9.483248710632324}}, {"xid": "N4337620606", "name": "Museo de la Catedral de Arequipa", "rate": 7, "osm": "node/4337620606", "wikidata": "Q2942282", "kinds": "religion,cathedrals,cultural,museums,interesting_places,other_museums", "point": {"lon": -71.53704071044922, "lat": -16.39806365966797}}, {"xid": "W28764769", "name": "Plaza de Armas", "rate": 7, "osm": "way/28764769", "wikidata": "Q9060924", "kinds": "urban_environment,cultural,interesting_places,squares", "point": {"lon": -79.02867889404297, "lat": -8.111743927001953}}, {"xid": "N6556530988", "name": "Cristo Blanco", "rate": 7, "osm": "node/6556530988", "wikidata": "Q107554678", "kinds": "historic,monuments_and_memorials,urban_environment,cultural,interesting_places,sculptures,monuments", "point": {"lon": -71.9780502319336, "lat": -13.509642601013184}}, {"xid": "R2093848", "name": "Cerro Sech\u00edn", "rate": 7, "osm": "relation/2093848", "wikidata": "Q2045790", "kinds": "historic,archaeology,interesting_places,other_archaeological_sites", "point": {"lon": -78.2171401977539, "lat": -9.528177261352539}}, {"xid": "W31144711", "name": "Palacio de Cristal Centro cultural Itchimbia", "rate": 7, "osm": "way/31144711", "wikidata": "Q5761156", "kinds": "architecture,historic_architecture,interesting_places,other_buildings_and_structures", "point": {"lon": -78.50177764892578, "lat": -0.21998003125190735}}, {"xid": "W303520289", "name": "Huamanga Cathedral", "rate": 7, "osm": "way/303520289", "wikidata": "Q15628630", "kinds": "religion,cathedrals,churches,interesting_places,catholic_churches", "point": {"lon": -74.22486877441406, "lat": -13.160834312438965}}, {"xid": "W157862184", "name": "Willkawayin", "rate": 7, "osm": "way/157862184", "wikidata": "Q469528", "kinds": "architecture,historic_architecture,historic,archaeology,cultural,museums,interesting_places,destroyed_objects,other_museums,other_archaeological_sites", "point": {"lon": -77.50709533691406, "lat": -9.487565040588379}}, {"xid": "W155719387", "name": "Kalasasaya", "rate": 7, "osm": "way/155719387", "wikidata": "Q1722063", "kinds": "religion,architecture,historic_architecture,other_temples,historic,archaeology,interesting_places,destroyed_objects,other_archaeological_sites", "point": {"lon": -68.67342376708984, "lat": -16.55478858947754}}, {"xid": "N1932068250", "name": "Plaza de toros de Acho", "rate": 7, "osm": "node/1932068250", "wikidata": "Q2744878", "kinds": "sport,architecture,historic_architecture,interesting_places,stadiums,other_buildings_and_structures", "point": {"lon": -77.02325439453125, "lat": -12.041433334350586}}, {"xid": "N4353135484", "name": "Calle Espaderos", "rate": 7, "osm": "node/4353135484", "wikidata": "Q83278682", "kinds": "architecture,historic_architecture,interesting_places,restaurants,foods,tourist_facilities,other_buildings_and_structures", "point": {"lon": -71.97966766357422, "lat": -13.51662826538086}}, {"xid": "R8543642", "name": "Historic Centre of Lima", "rate": 7, "osm": "relation/8543642", "wikidata": "Q3320442", "kinds": "historic,historical_places,interesting_places,historic_districts", "point": {"lon": -77.0300521850586, "lat": -12.043832778930664}}, {"xid": "W379421151", "name": "Escuela Socoroma", "rate": 7, "osm": "way/379421151", "wikidata": "Q16577961", "kinds": "religion,churches,interesting_places,other_churches", "point": {"lon": -69.60271453857422, "lat": -18.263607025146484}}, {"xid": "W145575810", "name": "Plaza de Socoroma", "rate": 7, "osm": "way/145575810", "wikidata": "Q16577961", "kinds": "religion,churches,urban_environment,gardens_and_parks,cultural,interesting_places,other_churches", "point": {"lon": -69.60237884521484, "lat": -18.26358413696289}}, {"xid": "N410692007", "name": "Iglesia de Socoroma", "rate": 7, "osm": "node/410692007", "wikidata": "Q16577961", "kinds": "religion,churches,interesting_places,other_churches", "point": {"lon": -69.60240936279297, "lat": -18.263256072998047}}, {"xid": "W153125090", "name": "Huaca San Borja", "rate": 7, "osm": "way/153125090", "wikidata": "Q5903819", "kinds": "historic,archaeology,interesting_places,other_archaeological_sites", "point": {"lon": -77.00023651123047, "lat": -12.084131240844727}}, {"xid": "W75223316", "name": "Plaza Bolivar", "rate": 7, "osm": "way/75223316", "wikidata": "Q6079438", "kinds": "urban_environment,cultural,interesting_places,squares", "point": {"lon": -77.02601623535156, "lat": -12.047618865966797}}, {"xid": "N6575791322", "name": "Plaza Bolivar", "rate": 7, "osm": "node/6575791322", "wikidata": "Q6079438", "kinds": "urban_environment,cultural,interesting_places,squares", "point": {"lon": -77.026123046875, "lat": -12.047619819641113}}, {"xid": "W559862793", "name": "Templo Santa Catalina", "rate": 7, "osm": "way/559862793", "wikidata": "Q5909058", "kinds": "religion,churches,urban_environment,gardens_and_parks,cultural,interesting_places,other_churches", "point": {"lon": -70.13460540771484, "lat": -15.493376731872559}}, {"xid": "W74154888", "name": "Spiritual and Political Centre of the Tiwanaku Culture", "rate": 7, "osm": "way/74154888", "wikidata": "Q61750", "kinds": "settlements,megaliths,historic,archaeology,interesting_places", "point": {"lon": -68.67191314697266, "lat": -16.5584659576416}}, {"xid": "W255159007", "name": "Kalasasaya", "rate": 7, "osm": "way/255159007", "wikidata": "Q1722063", "kinds": "religion,architecture,historic_architecture,other_temples,historic,archaeology,interesting_places,destroyed_objects,other_archaeological_sites", "point": {"lon": -68.6735610961914, "lat": -16.55567169189453}}, {"xid": "N4746310711", "name": "Cristo Blanco", "rate": 7, "osm": "node/4746310711", "wikidata": "Q107554678", "kinds": "historic,monuments_and_memorials,urban_environment,cultural,interesting_places,sculptures,monuments", "point": {"lon": -71.97808837890625, "lat": -13.509592056274414}}, {"xid": "W111216572", "name": "Trujillo Cathedral", "rate": 7, "osm": "way/111216572", "wikidata": "Q2942844", "kinds": "religion,cathedrals,churches,interesting_places,catholic_churches", "point": {"lon": -79.02827453613281, "lat": -8.110697746276855}}, {"xid": "W951794202", "name": "Chavin de Huantar", "rate": 7, "osm": "way/951794202", "wikidata": "Q732554", "kinds": "historic,archaeology,interesting_places,other_archaeological_sites", "point": {"lon": -77.17755889892578, "lat": -9.593265533447266}}, {"xid": "N633941529", "name": "Cumbe Mayo", "rate": 7, "osm": "node/633941529", "wikidata": "Q973833", "kinds": "bridges,architecture,historic,archaeology,interesting_places,other_archaeological_sites,other_bridges", "point": {"lon": -78.57305145263672, "lat": -7.190561771392822}}, {"xid": "W425584867", "name": "hotel casa gangotena", "rate": 7, "osm": "way/425584867", "wikidata": "Q19950445", "kinds": "palaces,architecture,historic_architecture,accomodations,interesting_places,other_hotels", "point": {"lon": -78.51541137695312, "lat": -0.2211197167634964}}, {"xid": "N2706072952", "name": "Casa Aliaga", "rate": 7, "osm": "node/2706072952", "wikidata": "Q47500053", "kinds": "cultural,museums,interesting_places,other_museums", "point": {"lon": -77.03028869628906, "lat": -12.044410705566406}}, {"xid": "W401815318", "name": "Puruchuco", "rate": 7, "osm": "way/401815318", "wikidata": "Q2615433", "kinds": "historic,archaeology,interesting_places,other_archaeological_sites", "point": {"lon": -76.93343353271484, "lat": -12.047772407531738}}, {"xid": "W551501229", "name": "Miraya Geoglyphs", "rate": 7, "osm": "way/551501229", "wikidata": "Q219279", "kinds": "historic,archaeology,interesting_places,other_archaeological_sites", "point": {"lon": -77.54320526123047, "lat": -10.883057594299316}}, {"xid": "N4347851994", "name": "Parroquia Santa Catalina", "rate": 7, "osm": "node/4347851994", "wikidata": "Q6121619", "kinds": "religion,churches,interesting_places,other_churches", "point": {"lon": -77.02639770507812, "lat": -12.055282592773438}}, {"xid": "N7011528847", "name": "Palacio de La Recoleta", "rate": 7, "osm": "node/7011528847", "wikidata": "Q6058076", "kinds": "architecture,historic_architecture,interesting_places,restaurants,foods,tourist_facilities,other_buildings_and_structures", "point": {"lon": -78.5131607055664, "lat": -0.23142337799072266}}, {"xid": "R9088043", "name": "Convento de Ocopa", "rate": 7, "osm": "relation/9088043", "wikidata": "Q5785880", "kinds": "religion,monasteries,interesting_places", "point": {"lon": -75.29422760009766, "lat": -11.873738288879395}}, {"xid": "N6967685316", "name": "Marcavilca Hill", "rate": 7, "osm": "node/6967685316", "wikidata": "Q6914170", "kinds": "mountain_peaks,geological_formations,natural,interesting_places", "point": {"lon": -77.02684783935547, "lat": -12.181979179382324}}, {"xid": "N2973916145", "name": "Morro Solar", "rate": 7, "osm": "node/2973916145", "wikidata": "Q6914170", "kinds": "mountain_peaks,geological_formations,natural,interesting_places", "point": {"lon": -77.03206634521484, "lat": -12.170242309570312}}, {"xid": "R3616286", "name": "belmond hotel monasterio", "rate": 7, "osm": "relation/3616286", "wikidata": "Q5911753", "kinds": "architecture,historic_architecture,accomodations,interesting_places,other_hotels,other_buildings_and_structures", "point": {"lon": -71.97634887695312, "lat": -13.515308380126953}}, {"xid": "W44364378", "name": "San Martin Plaza", "rate": 7, "osm": "way/44364378", "wikidata": "Q3294506", "kinds": "urban_environment,cultural,interesting_places,squares", "point": {"lon": -77.03460693359375, "lat": -12.05165958404541}}, {"xid": "W160072706", "name": "Plaza Italia", "rate": 7, "osm": "way/160072706", "wikidata": "Q6079604", "kinds": "urban_environment,cultural,interesting_places,squares", "point": {"lon": -77.02281188964844, "lat": -12.050820350646973}}, {"xid": "N5324603015", "name": "Ciudad Sagrada de Caral", "rate": 7, "osm": "node/5324603015", "wikidata": "Q219279", "kinds": "settlements,historic,archaeology,interesting_places", "point": {"lon": -77.52088165283203, "lat": -10.895313262939453}}, {"xid": "W157129502", "name": "Huaca La Esmeralda", "rate": 7, "osm": "way/157129502", "wikidata": "Q289583", "kinds": "architecture,historic_architecture,historic,archaeology,cultural,museums,interesting_places,destroyed_objects,other_museums,other_archaeological_sites", "point": {"lon": -79.04496765136719, "lat": -8.10471248626709}}, {"xid": "N6095477218", "name": "Museo de la catedral del cusco", "rate": 7, "osm": "node/6095477218", "wikidata": "Q2942242", "kinds": "religion,cathedrals,churches,cultural,museums,interesting_places,other_museums,catholic_churches", "point": {"lon": -71.97761535644531, "lat": -13.5164155960083}}, {"xid": "N1932068313", "name": "Puruchuco", "rate": 7, "osm": "node/1932068313", "wikidata": "Q2615433", "kinds": "historic,archaeology,cultural,museums,interesting_places,other_museums,other_archaeological_sites", "point": {"lon": -76.93444061279297, "lat": -12.04808235168457}}, {"xid": "N7965602395", "name": "Teatro Municipal de Tacna", "rate": 7, "osm": "node/7965602395", "wikidata": "Q17232551", "kinds": "cultural,theatres_and_entertainments,interesting_places,other_theatres", "point": {"lon": -70.24922180175781, "lat": -18.009929656982422}}, {"xid": "W117755695", "name": "Alameda de los Descalzos", "rate": 7, "osm": "way/117755695", "wikidata": "Q5662196", "kinds": "urban_environment,gardens_and_parks,cultural,interesting_places", "point": {"lon": -77.0255126953125, "lat": -12.035183906555176}}, {"xid": "W156255349", "name": "Caral", "rate": 7, "osm": "way/156255349", "wikidata": "Q219279", "kinds": "settlements,historic,archaeology,interesting_places", "point": {"lon": -77.52120208740234, "lat": -10.892288208007812}}, {"xid": "W551501227", "name": "Lurihuasi", "rate": 7, "osm": "way/551501227", "wikidata": "Q219279", "kinds": "settlements,historic,archaeology,interesting_places", "point": {"lon": -77.55064392089844, "lat": -10.877758026123047}}, {"xid": "W73635316", "name": "Cementerio de Chauchilla", "rate": 7, "osm": "way/73635316", "wikidata": "Q2390928", "kinds": "cemeteries,historic,burial_places,archaeology,interesting_places,other_archaeological_sites", "point": {"lon": -74.92686462402344, "lat": -14.982808113098145}}, {"xid": "W551501231", "name": "Miraya", "rate": 7, "osm": "way/551501231", "wikidata": "Q219279", "kinds": "settlements,historic,archaeology,interesting_places", "point": {"lon": -77.53956604003906, "lat": -10.883432388305664}}, {"xid": "W372364484", "name": "La Recoleta", "rate": 7, "osm": "way/372364484", "wikidata": "Q26730541", "kinds": "religion,churches,interesting_places,other_churches", "point": {"lon": -78.51295471191406, "lat": -7.1611480712890625}}, {"xid": "W448924553", "name": "Cusco Cathedral", "rate": 7, "osm": "way/448924553", "wikidata": "Q2942242", "kinds": "religion,cathedrals,churches,interesting_places,catholic_churches", "point": {"lon": -71.97787475585938, "lat": -13.516265869140625}}, {"xid": "W31150860", "name": "Ministerio de Defensa", "rate": 7, "osm": "way/31150860", "wikidata": "Q6058076", "kinds": "architecture,historic_architecture,interesting_places,other_buildings_and_structures", "point": {"lon": -78.51214599609375, "lat": -0.2309669852256775}}, {"xid": "R8605278", "name": "Museo de la Inquisici\u00f3n y del Congreso", "rate": 7, "osm": "relation/8605278", "wikidata": "Q5075650", "kinds": "cultural,museums,interesting_places,history_museums", "point": {"lon": -77.0263671875, "lat": -12.048145294189453}}, {"xid": "R11913766", "name": "Historical Centre of the City of Arequipa", "rate": 7, "osm": "relation/11913766", "wikidata": "Q8343756", "kinds": "historic,historical_places,interesting_places,historic_districts", "point": {"lon": -71.53688049316406, "lat": -16.399677276611328}}, {"xid": "W115981121", "name": "Mateo Salado", "rate": 7, "osm": "way/115981121", "wikidata": "Q6005941", "kinds": "historic,archaeology,interesting_places,other_archaeological_sites", "point": {"lon": -77.06261444091797, "lat": -12.065463066101074}}, {"xid": "W528020499", "name": "Mateo Salado", "rate": 7, "osm": "way/528020499", "wikidata": "Q6005941", "kinds": "historic,archaeology,interesting_places,other_archaeological_sites", "point": {"lon": -77.06034088134766, "lat": -12.064010620117188}}, {"xid": "W439602855", "name": "Huaca Garagay", "rate": 7, "osm": "way/439602855", "wikidata": "Q4133519", "kinds": "historic,archaeology,interesting_places,other_archaeological_sites", "point": {"lon": -77.0879135131836, "lat": -12.002910614013672}}, {"xid": "W442982237", "name": "Quinta de Presa", "rate": 7, "osm": "way/442982237", "wikidata": "Q6095062", "kinds": "architecture,historic_architecture,interesting_places,other_buildings_and_structures", "point": {"lon": -77.03256225585938, "lat": -12.035889625549316}}, {"xid": "W551338268", "name": "Puruchuco", "rate": 7, "osm": "way/551338268", "wikidata": "Q2615433", "kinds": "historic,archaeology,interesting_places,other_archaeological_sites", "point": {"lon": -76.93038177490234, "lat": -12.048453330993652}}, {"xid": "W348099338", "name": "Puruchuco", "rate": 7, "osm": "way/348099338", "wikidata": "Q2615433", "kinds": "settlements,historic,archaeology,interesting_places", "point": {"lon": -76.93599700927734, "lat": -12.049619674682617}}, {"xid": "N1728424202", "name": "Rupac", "rate": 7, "osm": "node/1728424202", "wikidata": "Q26939478", "kinds": "historic,archaeology,interesting_places,other_archaeological_sites", "point": {"lon": -76.8044662475586, "lat": -11.325374603271484}}, {"xid": "W156259317", "name": "Iglesia de San Juan Bautista", "rate": 7, "osm": "way/156259317", "wikidata": "Q28001707", "kinds": "religion,historic,churches,monuments_and_memorials,interesting_places,monuments,other_churches", "point": {"lon": -75.35435485839844, "lat": -13.604727745056152}}, {"xid": "N4702167195", "name": "Historic Centre of Arequipa", "rate": 7, "osm": "node/4702167195", "wikidata": "Q8343756", "kinds": "historic,historical_places,interesting_places,historic_districts", "point": {"lon": -71.53456115722656, "lat": -16.393325805664062}}, {"xid": "N801679696", "name": "San Pedro", "rate": 7, "osm": "node/801679696", "wikidata": "Q25893292", "kinds": "religion,churches,interesting_places,other_churches", "point": {"lon": -71.9835205078125, "lat": -13.520797729492188}}, {"xid": "W153870610", "name": "Wi\u00f1ay Wayna", "rate": 7, "osm": "way/153870610", "wikidata": "Q1585056", "kinds": "historic,archaeology,interesting_places,other_archaeological_sites", "point": {"lon": -72.53633117675781, "lat": -13.19290828704834}}, {"xid": "N1728415960", "name": "Wi\u00f1ay Wayna", "rate": 7, "osm": "node/1728415960", "wikidata": "Q1585056", "kinds": "historic,archaeology,interesting_places,other_archaeological_sites", "point": {"lon": -72.537353515625, "lat": -13.19061279296875}}, {"xid": "R225629", "name": "Parque Nacional Machalilla", "rate": 7, "osm": "relation/225629", "wikidata": "Q1076030", "kinds": "urban_environment,gardens_and_parks,cultural,natural,interesting_places,nature_reserves,national_parks", "point": {"lon": -80.71269989013672, "lat": -1.4126551151275635}}, {"xid": "R11914224", "name": "Sacred City of Caral-Supe", "rate": 7, "osm": "relation/11914224", "wikidata": "Q219279", "kinds": "historic,archaeology,interesting_places,other_archaeological_sites", "point": {"lon": -77.52349853515625, "lat": -10.898663520812988}}, {"xid": "W156797991", "name": "Paramonga Fortess", "rate": 7, "osm": "way/156797991", "wikidata": "Q2039561", "kinds": "historic,archaeology,interesting_places,other_archaeological_sites", "point": {"lon": -77.84152221679688, "lat": -10.65328311920166}}, {"xid": "N637028735", "name": "La Recoleta", "rate": 7, "osm": "node/637028735", "wikidata": "Q26730541", "kinds": "religion,churches,interesting_places,other_churches", "point": {"lon": -78.51310729980469, "lat": -7.160969257354736}}, {"xid": "W301848145", "name": "Kotosh", "rate": 7, "osm": "way/301848145", "wikidata": "Q2669852", "kinds": "historic,archaeology,cultural,museums,interesting_places,other_archaeological_sites,art_galleries", "point": {"lon": -76.2795639038086, "lat": -9.932180404663086}}, {"xid": "W111289587", "name": "Teatro Municipal", "rate": 7, "osm": "way/111289587", "wikidata": "Q26260366", "kinds": "cultural,theatres_and_entertainments,interesting_places,other_theatres", "point": {"lon": -79.02464294433594, "lat": -8.109461784362793}}, {"xid": "W157862627", "name": "Kuelap", "rate": 7, "osm": "way/157862627", "wikidata": "Q1361820", "kinds": "fortifications,historic,burial_places,archaeology,interesting_places,castles,necropolises,other_archaeological_sites", "point": {"lon": -77.92388153076172, "lat": -6.417344093322754}}, {"xid": "W790167680", "name": "Iglesia de San Pedro", "rate": 7, "osm": "way/790167680", "wikidata": "Q28475495", "kinds": "religion,churches,interesting_places,other_churches", "point": {"lon": -76.11212921142578, "lat": -10.855681419372559}}, {"xid": "N965378786", "name": "Escuela San Cristobal", "rate": 7, "osm": "node/965378786", "wikidata": "Q70759876", "kinds": "religion,churches,interesting_places,other_churches", "point": {"lon": -71.97908020019531, "lat": -13.513060569763184}}, {"xid": "W68629616", "name": "San Sebastian", "rate": 7, "osm": "way/68629616", "wikidata": "Q26905493", "kinds": "religion,churches,interesting_places,other_churches", "point": {"lon": -71.93810272216797, "lat": -13.530027389526367}}, {"xid": "W32482219", "name": "Fortaleza Real Felipe", "rate": 7, "osm": "way/32482219", "wikidata": "Q2031014", "kinds": "fortifications,historic,interesting_places,castles", "point": {"lon": -77.14933013916016, "lat": -12.062747955322266}}, {"xid": "R207400", "name": "Parque Nacional Sangay", "rate": 7, "osm": "relation/207400", "wikidata": "Q839603", "kinds": "urban_environment,gardens_and_parks,cultural,natural,interesting_places,nature_reserves,national_parks", "point": {"lon": -78.29644012451172, "lat": -2.0493321418762207}}, {"xid": "R225636", "name": "Parque Nacional Cajas", "rate": 7, "osm": "relation/225636", "wikidata": "Q1295864", "kinds": "urban_environment,gardens_and_parks,cultural,natural,interesting_places,nature_reserves,national_parks", "point": {"lon": -79.24137115478516, "lat": -2.848353862762451}}, {"xid": "W648297770", "name": "Iglesia de Santo Domingo", "rate": 7, "osm": "way/648297770", "wikidata": "Q3001637", "kinds": "religion,churches,monasteries,interesting_places,catholic_churches", "point": {"lon": -71.97567749023438, "lat": -13.520193099975586}}, {"xid": "R12225048", "name": "Cultural Landscape The Candelabro of Paracas", "rate": 7, "osm": "relation/12225048", "wikidata": "Q2574847", "kinds": "other,unclassified_objects,interesting_places,historic_object", "point": {"lon": -76.3164291381836, "lat": -13.801532745361328}}, {"xid": "N412139200", "name": "Kotosh Preinca Culture", "rate": 7, "osm": "node/412139200", "wikidata": "Q2669852", "kinds": "historic,archaeology,cultural,museums,interesting_places,other_museums,other_archaeological_sites", "point": {"lon": -76.27863311767578, "lat": -9.932206153869629}}, {"xid": "N5180608240", "name": "Casona Trist\u00e1n del Pozo, Arequipa", "rate": 7, "osm": "node/5180608240", "wikidata": "Q5754552", "kinds": "cultural,museums,interesting_places,other_museums", "point": {"lon": -71.53595733642578, "lat": -16.398109436035156}}, {"xid": "W369741061", "name": "Plaza Santa Ana", "rate": 7, "osm": "way/369741061", "wikidata": "Q88477839", "kinds": "religion,churches,urban_environment,cultural,interesting_places,catholic_churches,squares", "point": {"lon": -71.98554992675781, "lat": -13.514631271362305}}, {"xid": "W258787958", "name": "Iglesia de San Sebasti\u00e1n, Cusco", "rate": 7, "osm": "way/258787958", "wikidata": "Q26905493", "kinds": "religion,churches,urban_environment,gardens_and_parks,cultural,interesting_places,other_churches", "point": {"lon": -71.93740844726562, "lat": -13.530016899108887}}, {"xid": "W463793109", "name": "Pileta Ornamental de Tacna", "rate": 7, "osm": "way/463793109", "wikidata": "Q6075908", "kinds": "fountains,historic,monuments_and_memorials,urban_environment,cultural,interesting_places,sculptures,monuments", "point": {"lon": -70.2512435913086, "lat": -18.01395034790039}}, {"xid": "N6918024177", "name": "Kotosh", "rate": 7, "osm": "node/6918024177", "wikidata": "Q2669852", "kinds": "historic,historical_places,archaeology,interesting_places,other_archaeological_sites,historic_settlements", "point": {"lon": -76.27914428710938, "lat": -9.929030418395996}}, {"xid": "N7265423014", "name": "The Oxen", "rate": 7, "osm": "node/7265423014", "wikidata": "Q91648292", "kinds": "historic,monuments_and_memorials,urban_environment,cultural,interesting_places,sculptures,monuments", "point": {"lon": -77.03619384765625, "lat": -12.056719779968262}}, {"xid": "R6553940", "name": "Pachacamac", "rate": 7, "osm": "relation/6553940", "wikidata": "Q430563", "kinds": "historic,archaeology,interesting_places,other_archaeological_sites", "point": {"lon": -76.90679168701172, "lat": -12.249824523925781}}, {"xid": "W157298324", "name": "Pukatampu", "rate": 7, "osm": "way/157298324", "wikidata": "Q1513848", "kinds": "historic,archaeology,interesting_places,other_archaeological_sites", "point": {"lon": -75.82882690429688, "lat": -13.705093383789062}}, {"xid": "W442987103", "name": "Iglesia de Santa Liberata", "rate": 7, "osm": "way/442987103", "wikidata": "Q5911595", "kinds": "religion,churches,interesting_places,other_churches", "point": {"lon": -77.02608489990234, "lat": -12.035600662231445}}, {"xid": "W76344171", "name": "Iglesia de San Cristobal", "rate": 7, "osm": "way/76344171", "wikidata": "Q70759876", "kinds": "religion,churches,interesting_places,other_churches", "point": {"lon": -71.98009490966797, "lat": -13.513359069824219}}, {"xid": "W446991480", "name": "Santa Ana", "rate": 7, "osm": "way/446991480", "wikidata": "Q88477839", "kinds": "religion,churches,interesting_places,catholic_churches", "point": {"lon": -71.98576354980469, "lat": -13.514769554138184}}, {"xid": "N1932068150", "name": "Casa Museo Ricardo Palma", "rate": 7, "osm": "node/1932068150", "wikidata": "Q96756883", "kinds": "biographical_museums,historic_house_museums,cultural,museums,interesting_places,history_museums", "point": {"lon": -77.02760314941406, "lat": -12.118415832519531}}, {"xid": "R9045384", "name": "Convent of Santo Domingo, Cusco", "rate": 7, "osm": "relation/9045384", "wikidata": "Q3001637", "kinds": "religion,monasteries,interesting_places", "point": {"lon": -71.97543334960938, "lat": -13.520295143127441}}, {"xid": "W154078609", "name": "Pachacamac", "rate": 7, "osm": "way/154078609", "wikidata": "Q430563", "kinds": "architecture,historic_architecture,historic,archaeology,cultural,museums,interesting_places,destroyed_objects,other_museums,other_archaeological_sites", "point": {"lon": -76.90096282958984, "lat": -12.259356498718262}}, {"xid": "N3949384791", "name": "Casona", "rate": 7, "osm": "node/3949384791", "wikidata": "Q5754552", "kinds": "architecture,historic_architecture,interesting_places,restaurants,foods,tourist_facilities,other_buildings_and_structures", "point": {"lon": -71.53477478027344, "lat": -16.39676284790039}}, {"xid": "W173837516", "name": "El Candelabro de Paraca", "rate": 7, "osm": "way/173837516", "wikidata": "Q2574847", "kinds": "historic,archaeology,interesting_places,other_archaeological_sites", "point": {"lon": -76.30859375, "lat": -13.794397354125977}}, {"xid": "N2023937613", "name": "Iglesia Mar\u00eda Magdalena, Pueblo Libre", "rate": 7, "osm": "node/2023937613", "wikidata": "Q42850567", "kinds": "religion,other_temples,interesting_places", "point": {"lon": -77.06330108642578, "lat": -12.07815170288086}}, {"xid": "N1728416736", "name": "Tambo Colorado", "rate": 7, "osm": "node/1728416736", "wikidata": "Q1513848", "kinds": "historic,archaeology,interesting_places,other_archaeological_sites", "point": {"lon": -75.82888793945312, "lat": -13.706110954284668}}, {"xid": "N408866644", "name": "Tambo Colorado", "rate": 7, "osm": "node/408866644", "wikidata": "Q1513848", "kinds": "architecture,historic_architecture,historic,archaeology,interesting_places,destroyed_objects,other_archaeological_sites", "point": {"lon": -75.82911682128906, "lat": -13.705876350402832}}, {"xid": "W157858140", "name": "Choquequirao", "rate": 7, "osm": "way/157858140", "wikidata": "Q1076285", "kinds": "historic,archaeology,interesting_places,other_archaeological_sites", "point": {"lon": -72.86885833740234, "lat": -13.393890380859375}}, {"xid": "N967192319", "name": "San Cristobal", "rate": 7, "osm": "node/967192319", "wikidata": "Q70759876", "kinds": "view_points,other,religion,churches,interesting_places,other_churches", "point": {"lon": -71.97978210449219, "lat": -13.513481140136719}}, {"xid": "W157859519", "name": "Huacas del Sol", "rate": 7, "osm": "way/157859519", "wikidata": "Q1632711", "kinds": "settlements,architecture,historic_architecture,historic,archaeology,natural,interesting_places,nature_reserves,destroyed_objects,other_nature_conservation_areas", "point": {"lon": -78.99505615234375, "lat": -8.131866455078125}}, {"xid": "W156256710", "name": "Huaca Cao Viejo", "rate": 7, "osm": "way/156256710", "wikidata": "Q5748136", "kinds": "historic,archaeology,interesting_places,other_archaeological_sites", "point": {"lon": -79.30338287353516, "lat": -7.915192604064941}}, {"xid": "W91235681", "name": "San Pedro", "rate": 7, "osm": "way/91235681", "wikidata": "Q26813202", "kinds": "religion,churches,interesting_places,other_churches", "point": {"lon": -79.90620422363281, "lat": -6.70348596572876}}, {"xid": "N1728415724", "name": "Kotosh", "rate": 7, "osm": "node/1728415724", "wikidata": "Q2669852", "kinds": "historic,archaeology,interesting_places,other_archaeological_sites", "point": {"lon": -76.27889251708984, "lat": -9.931944847106934}}, {"xid": "N5620107890", "name": "Sarcophagi of Caraj\u00eda", "rate": 7, "osm": "node/5620107890", "wikidata": "Q1728918", "kinds": "historic,burial_places,archaeology,interesting_places,necropolises,other_archaeological_sites", "point": {"lon": -78.02142333984375, "lat": -6.162606239318848}}, {"xid": "N5620130644", "name": "Sarcophagi of Caraj\u00eda", "rate": 7, "osm": "node/5620130644", "wikidata": "Q1728918", "kinds": "historic,burial_places,archaeology,interesting_places,necropolises,other_archaeological_sites", "point": {"lon": -78.02177429199219, "lat": -6.161768913269043}}, {"xid": "N8250165567", "name": "Iglesia Matriz de Iquitos", "rate": 7, "osm": "node/8250165567", "wikidata": "Q5909043", "kinds": "religion,cathedrals,interesting_places", "point": {"lon": -73.24482727050781, "lat": -3.74944806098938}}, {"xid": "W424993603", "name": "Palacio Arzobispal", "rate": 7, "osm": "way/424993603", "wikidata": "Q6057565", "kinds": "religion,palaces,architecture,historic_architecture,other_temples,interesting_places,shops,malls,tourist_facilities", "point": {"lon": -78.5115966796875, "lat": -0.2196539342403412}}, {"xid": "N4307874813", "name": "Casa de Zela", "rate": 7, "osm": "node/4307874813", "wikidata": "Q17232523", "kinds": "cultural,museums,interesting_places,other_museums", "point": {"lon": -70.24983978271484, "lat": -18.011850357055664}}, {"xid": "W156256712", "name": "El Brujo", "rate": 7, "osm": "way/156256712", "wikidata": "Q2603112", "kinds": "historic,archaeology,natural,interesting_places,nature_reserves,other_archaeological_sites,other_nature_conservation_areas", "point": {"lon": -79.30827331542969, "lat": -7.911345958709717}}, {"xid": "N3141079986", "name": "Iglesia San Sebasti\u00e1n", "rate": 7, "osm": "node/3141079986", "wikidata": "Q28132038", "kinds": "religion,churches,interesting_places,other_churches", "point": {"lon": -74.97616577148438, "lat": -12.788167953491211}}, {"xid": "N995446108", "name": "Iglesia de Santa Clara", "rate": 7, "osm": "node/995446108", "wikidata": "Q42828387", "kinds": "religion,churches,interesting_places,other_churches", "point": {"lon": -71.98210144042969, "lat": -13.520037651062012}}, {"xid": "W408470796", "name": "Sanctuary of Saint Rose of Lima", "rate": 7, "osm": "way/408470796", "wikidata": "Q6121562", "kinds": "religion,churches,interesting_places,other_churches", "point": {"lon": -77.03524017333984, "lat": -12.042577743530273}}, {"xid": "N877179922", "name": "Monolito del Fraile", "rate": 7, "osm": "node/877179922", "wikidata": "Q6021908", "kinds": "other,unclassified_objects,interesting_places,historic_object", "point": {"lon": -68.67390441894531, "lat": -16.55525016784668}}, {"xid": "W172097116", "name": "Main Square of Lima", "rate": 7, "osm": "way/172097116", "wikidata": "Q2536763", "kinds": "urban_environment,cultural,interesting_places,squares", "point": {"lon": -77.03055572509766, "lat": -12.045933723449707}}, {"xid": "N4195856506", "name": "Casa de Moral", "rate": 7, "osm": "node/4195856506", "wikidata": "Q5047944", "kinds": "cultural,museums,interesting_places,other_museums", "point": {"lon": -71.53778076171875, "lat": -16.396961212158203}}, {"xid": "R421862", "name": "Parque Nacional Sajama", "rate": 7, "osm": "relation/421862", "wikidata": "Q1519747", "kinds": "urban_environment,gardens_and_parks,cultural,natural,interesting_places,nature_reserves,national_parks", "point": {"lon": -68.9330825805664, "lat": -18.120038986206055}}, {"xid": "W172742395", "name": "Italian Art Museum", "rate": 7, "osm": "way/172742395", "wikidata": "Q776515", "kinds": "cultural,museums,interesting_places,art_galleries", "point": {"lon": -77.03678894042969, "lat": -12.058436393737793}}, {"xid": "N1932068156", "name": "Museo del Banco Central de Reserva del Per\u00fa", "rate": 7, "osm": "node/1932068156", "wikidata": "Q42849962", "kinds": "national_museums,cultural,museums,interesting_places", "point": {"lon": -77.03013610839844, "lat": -12.048142433166504}}, {"xid": "W23811932", "name": "Plaza de Armas", "rate": 7, "osm": "way/23811932", "wikidata": "Q5857151", "kinds": "urban_environment,cultural,interesting_places,squares", "point": {"lon": -71.53697204589844, "lat": -16.398828506469727}}, {"xid": "R12175742", "name": "Park of the Reserve", "rate": 7, "osm": "relation/12175742", "wikidata": "Q5201334", "kinds": "urban_environment,gardens_and_parks,cultural,interesting_places", "point": {"lon": -77.03363037109375, "lat": -12.071089744567871}}, {"xid": "N315359327", "name": "Cuenca", "rate": 7, "osm": "node/315359327", "wikidata": "Q54886", "kinds": "historic,historical_places,interesting_places,historic_settlements", "point": {"lon": -79.0043716430664, "lat": -2.897172451019287}}, {"xid": "N4439948190", "name": "Freedom", "rate": 7, "osm": "node/4439948190", "wikidata": "Q75053182", "kinds": "historic,monuments_and_memorials,urban_environment,cultural,interesting_places,sculptures,monuments", "point": {"lon": -77.03780364990234, "lat": -12.053217887878418}}, {"xid": "W771625899", "name": "Tunanmarka", "rate": 7, "osm": "way/771625899", "wikidata": "Q12071621", "kinds": "historic,archaeology,interesting_places,other_archaeological_sites", "point": {"lon": -75.59825134277344, "lat": -11.721108436584473}}, {"xid": "W73658343", "name": "Cahuachi temple-piramyd", "rate": 7, "osm": "way/73658343", "wikidata": "Q1025802", "kinds": "historic,historical_places,archaeology,interesting_places,other_archaeological_sites,historic_settlements", "point": {"lon": -75.11653137207031, "lat": -14.818785667419434}}, {"xid": "W252683990", "name": "Catedral Vieja", "rate": 7, "osm": "way/252683990", "wikidata": "Q50327423", "kinds": "religion,cathedrals,cultural,museums,interesting_places,art_galleries", "point": {"lon": -79.00386810302734, "lat": -2.8978171348571777}}, {"xid": "R7528062", "name": "Iglesia de Las Nazarenas", "rate": 7, "osm": "relation/7528062", "wikidata": "Q5201720", "kinds": "religion,cathedrals,churches,monasteries,interesting_places,other_churches", "point": {"lon": -77.03746032714844, "lat": -12.045559883117676}}, {"xid": "R8607795", "name": "Church of San Agust\u00edn, Lima", "rate": 7, "osm": "relation/8607795", "wikidata": "Q5117076", "kinds": "religion,churches,interesting_places,other_churches", "point": {"lon": -77.03335571289062, "lat": -12.046523094177246}}, {"xid": "W448924563", "name": "Basilica of La Merced, Cusco", "rate": 7, "osm": "way/448924563", "wikidata": "Q1798947", "kinds": "religion,churches,interesting_places,other_churches", "point": {"lon": -71.97936248779297, "lat": -13.518214225769043}}, {"xid": "W23782201", "name": "Basilica Catedral de Puno", "rate": 7, "osm": "way/23782201", "wikidata": "Q2942317", "kinds": "religion,cathedrals,churches,interesting_places,catholic_churches", "point": {"lon": -70.02900695800781, "lat": -15.84095573425293}}, {"xid": "N4937583025", "name": "La Merced", "rate": 7, "osm": "node/4937583025", "wikidata": "Q5912483", "kinds": "religion,architecture,historic_architecture,churches,interesting_places,restaurants,foods,tourist_facilities,other_buildings_and_structures,other_churches", "point": {"lon": -79.02726745605469, "lat": -8.110907554626465}}, {"xid": "W431569850", "name": "Cementerio General de Tacna", "rate": 7, "osm": "way/431569850", "wikidata": "Q5760306", "kinds": "cemeteries,historic,burial_places,interesting_places", "point": {"lon": -70.2579574584961, "lat": -18.000835418701172}}, {"xid": "N6338630732", "name": "Combate del Dos de Mayo", "rate": 7, "osm": "node/6338630732", "wikidata": "Q95385692", "kinds": "historic,monuments_and_memorials,interesting_places,monuments", "point": {"lon": -77.04276275634766, "lat": -12.046384811401367}}, {"xid": "R6585870", "name": "Escuela Nacional de Bellas Artes", "rate": 7, "osm": "relation/6585870", "wikidata": "Q5202236", "kinds": "architecture,historic_architecture,interesting_places,other_buildings_and_structures", "point": {"lon": -77.02384948730469, "lat": -12.046634674072266}}, {"xid": "N7265423015", "name": "The Llamas", "rate": 7, "osm": "node/7265423015", "wikidata": "Q91655945", "kinds": "historic,monuments_and_memorials,urban_environment,cultural,interesting_places,sculptures,monuments", "point": {"lon": -77.0359115600586, "lat": -12.056564331054688}}, {"xid": "W435683569", "name": "Church of San Agust\u00edn, Lima", "rate": 7, "osm": "way/435683569", "wikidata": "Q5117076", "kinds": "religion,churches,urban_environment,cultural,interesting_places,squares,other_churches", "point": {"lon": -77.0331039428711, "lat": -12.04623031616211}}, {"xid": "W183453707", "name": "Huaca Mangoma", "rate": 7, "osm": "way/183453707", "wikidata": "Q2888813", "kinds": "historic,archaeology,interesting_places,other_archaeological_sites", "point": {"lon": -76.98110961914062, "lat": -12.015053749084473}}, {"xid": "W328274153", "name": "Jesuit Church, Arequipa", "rate": 7, "osm": "way/328274153", "wikidata": "Q5912363", "kinds": "religion,churches,interesting_places,catholic_churches", "point": {"lon": -71.53657531738281, "lat": -16.39991569519043}}, {"xid": "W37082862", "name": "Puka Pukara", "rate": 7, "osm": "way/37082862", "wikidata": "Q2390374", "kinds": "historic,archaeology,interesting_places,other_archaeological_sites", "point": {"lon": -71.96215057373047, "lat": -13.48333740234375}}, {"xid": "W156256711", "name": "El Brujo", "rate": 7, "osm": "way/156256711", "wikidata": "Q2603112", "kinds": "historic,archaeology,natural,interesting_places,nature_reserves,other_archaeological_sites,other_nature_conservation_areas", "point": {"lon": -79.3056640625, "lat": -7.916982650756836}}, {"xid": "N1413746245", "name": "Iglesia de La Merced", "rate": 7, "osm": "node/1413746245", "wikidata": "Q5912483", "kinds": "religion,churches,interesting_places,other_churches", "point": {"lon": -79.02693176269531, "lat": -8.111227989196777}}, {"xid": "W664282346", "name": "Mazur", "rate": 7, "osm": "way/664282346", "wikidata": "Q2840705", "kinds": "architecture,historic_architecture,historic,archaeology,interesting_places,destroyed_objects,other_archaeological_sites", "point": {"lon": -76.60154724121094, "lat": -9.859930038452148}}, {"xid": "W435603606", "name": "Casa de Fierro", "rate": 7, "osm": "way/435603606", "wikidata": "Q2509734", "kinds": "architecture,historic_architecture,interesting_places,other_buildings_and_structures", "point": {"lon": -73.24407196044922, "lat": -3.7499141693115234}}, {"xid": "W157857597", "name": "Sitio Arqueologico Chankillo", "rate": 7, "osm": "way/157857597", "wikidata": "Q1062357", "kinds": "historic,archaeology,interesting_places,other_archaeological_sites", "point": {"lon": -78.2271499633789, "lat": -9.563417434692383}}, {"xid": "N3827565421", "name": "Iglesia y Convento del Patrocinio", "rate": 7, "osm": "node/3827565421", "wikidata": "Q42850830", "kinds": "religion,churches,monasteries,interesting_places,other_churches", "point": {"lon": -77.02559661865234, "lat": -12.035919189453125}}, {"xid": "W68629618", "name": "San Francisco Church", "rate": 7, "osm": "way/68629618", "wikidata": "Q65951354", "kinds": "religion,other_temples,interesting_places", "point": {"lon": -71.98207092285156, "lat": -13.518332481384277}}, {"xid": "W581618398", "name": "Parque El Ejido", "rate": 7, "osm": "way/581618398", "wikidata": "Q16915453", "kinds": "urban_environment,gardens_and_parks,cultural,interesting_places", "point": {"lon": -78.50051879882812, "lat": -0.21006110310554504}}, {"xid": "R3424882", "name": "Serra do Divisor National Park", "rate": 7, "osm": "relation/3424882", "wikidata": "Q1132181", "kinds": "urban_environment,gardens_and_parks,cultural,natural,interesting_places,nature_reserves,national_parks", "point": {"lon": -73.49604034423828, "lat": -8.155509948730469}}, {"xid": "W435559310", "name": "Museo del Palacio Arzobispal de Lima", "rate": 7, "osm": "way/435559310", "wikidata": "Q4785597", "kinds": "religion,palaces,architecture,historic_architecture,other_temples,cultural,museums,interesting_places,other_museums", "point": {"lon": -77.02963256835938, "lat": -12.04610824584961}}, {"xid": "W408779614", "name": "Plaza MacLean", "rate": 7, "osm": "way/408779614", "wikidata": "Q42855778", "kinds": "urban_environment,cultural,interesting_places,squares", "point": {"lon": -70.24951934814453, "lat": -18.010164260864258}}, {"xid": "W97799651", "name": "San Francisco", "rate": 7, "osm": "way/97799651", "wikidata": "Q26823266", "kinds": "religion,churches,urban_environment,gardens_and_parks,monasteries,cultural,interesting_places,catholic_churches", "point": {"lon": -71.5352554321289, "lat": -16.394994735717773}}, {"xid": "W83145489", "name": "Tampu Mach'ay", "rate": 7, "osm": "way/83145489", "wikidata": "Q1360456", "kinds": "historic,archaeology,interesting_places,other_archaeological_sites", "point": {"lon": -71.96742248535156, "lat": -13.478767395019531}}, {"xid": "W573324439", "name": "Templo de San Pedro Martir", "rate": 7, "osm": "way/573324439", "wikidata": "Q20971285", "kinds": "religion,churches,interesting_places,other_churches", "point": {"lon": -69.46048736572266, "lat": -16.212678909301758}}, {"xid": "W23799145", "name": "San Blas", "rate": 7, "osm": "way/23799145", "wikidata": "Q5910016", "kinds": "religion,churches,interesting_places,catholic_churches", "point": {"lon": -71.97431182861328, "lat": -13.514902114868164}}, {"xid": "W371242334", "name": "San Francisco Church", "rate": 7, "osm": "way/371242334", "wikidata": "Q65951354", "kinds": "religion,other_temples,cultural,museums,interesting_places,other_museums", "point": {"lon": -71.98201751708984, "lat": -13.518808364868164}}, {"xid": "W159408376", "name": "La Iglesia de El Sagrario", "rate": 7, "osm": "way/159408376", "wikidata": "Q6446453", "kinds": "religion,churches,interesting_places,catholic_churches", "point": {"lon": -78.51273345947266, "lat": -0.22063273191452026}}, {"xid": "W155719393", "name": "Pumapunku", "rate": 7, "osm": "way/155719393", "wikidata": "Q665223", "kinds": "architecture,historic_architecture,historic,archaeology,interesting_places,destroyed_objects,other_archaeological_sites", "point": {"lon": -68.6795883178711, "lat": -16.561689376831055}}, {"xid": "N6542457487", "name": "Ticani San Francisco", "rate": 7, "osm": "node/6542457487", "wikidata": "Q26823266", "kinds": "religion,architecture,historic_architecture,churches,monasteries,interesting_places,restaurants,foods,catholic_churches,tourist_facilities,other_buildings_and_structures", "point": {"lon": -71.53559875488281, "lat": -16.39508056640625}}, {"xid": "R12292929", "name": "Pikillaqta National Archaeological Park", "rate": 7, "osm": "relation/12292929", "wikidata": "Q2665757", "kinds": "historic,archaeology,interesting_places,other_archaeological_sites", "point": {"lon": -71.71339416503906, "lat": -13.630423545837402}}, {"xid": "W37084957", "name": "Piquillacta", "rate": 7, "osm": "way/37084957", "wikidata": "Q2665757", "kinds": "historic,archaeology,interesting_places,other_archaeological_sites", "point": {"lon": -71.7171630859375, "lat": -13.612712860107422}}, {"xid": "W420109510", "name": "El Para\u00edso", "rate": 7, "osm": "way/420109510", "wikidata": "Q4717894", "kinds": "architecture,historic_architecture,historic,archaeology,interesting_places,destroyed_objects,other_archaeological_sites", "point": {"lon": -77.11710357666016, "lat": -11.955162048339844}}, {"xid": "W49520856", "name": "Estadio Telmo Carbajo", "rate": 7, "osm": "way/49520856", "wikidata": "Q5848411", "kinds": "sport,architecture,historic_architecture,interesting_places,stadiums,other_buildings_and_structures", "point": {"lon": -77.13065338134766, "lat": -12.064005851745605}}, {"xid": "W160264224", "name": "Quinta Heeren", "rate": 7, "osm": "way/160264224", "wikidata": "Q6095043", "kinds": "architecture,historic_architecture,interesting_places,other_buildings_and_structures", "point": {"lon": -77.01791381835938, "lat": -12.049901008605957}}, {"xid": "N5449146035", "name": "Antonio Raimondi", "rate": 7, "osm": "node/5449146035", "wikidata": "Q95365743", "kinds": "historic,monuments_and_memorials,urban_environment,cultural,interesting_places,sculptures,monuments", "point": {"lon": -77.02284240722656, "lat": -12.05105972290039}}, {"xid": "N1459528357", "name": "Santo Cristo", "rate": 7, "osm": "node/1459528357", "wikidata": "Q5912871", "kinds": "religion,churches,interesting_places,other_churches", "point": {"lon": -77.01221466064453, "lat": -12.044987678527832}}, {"xid": "N2833894605", "name": "El Para\u00edso", "rate": 7, "osm": "node/2833894605", "wikidata": "Q4717894", "kinds": "architecture,historic_architecture,historic,archaeology,interesting_places,destroyed_objects,other_archaeological_sites", "point": {"lon": -77.11833953857422, "lat": -11.953971862792969}}, {"xid": "N4326971942", "name": "Iglesia de Andahuaylas", "rate": 7, "osm": "node/4326971942", "wikidata": "Q27023961", "kinds": "religion,churches,interesting_places,other_churches", "point": {"lon": -73.38994598388672, "lat": -13.656999588012695}}, {"xid": "W771625884", "name": "Willkapampa", "rate": 7, "osm": "way/771625884", "wikidata": "Q827432", "kinds": "historic,archaeology,interesting_places,other_archaeological_sites", "point": {"lon": -73.20706939697266, "lat": -12.901939392089844}}, {"xid": "N4946319365", "name": "Espiritu Pampa", "rate": 7, "osm": "node/4946319365", "wikidata": "Q827432", "kinds": "historic,archaeology,interesting_places,other_archaeological_sites", "point": {"lon": -73.2071304321289, "lat": -12.902149200439453}}, {"xid": "N4354959156", "name": "Palacio Goyeneche", "rate": 7, "osm": "node/4354959156", "wikidata": "Q5590201", "kinds": "palaces,architecture,historic_architecture,interesting_places", "point": {"lon": -71.56663513183594, "lat": -16.429595947265625}}, {"xid": "N1132091660", "name": "San Francisco", "rate": 7, "osm": "node/1132091660", "wikidata": "Q26823266", "kinds": "religion,churches,monasteries,interesting_places,catholic_churches", "point": {"lon": -71.53491973876953, "lat": -16.395105361938477}}, {"xid": "N2608876714", "name": "Pumapunku Temple", "rate": 7, "osm": "node/2608876714", "wikidata": "Q665223", "kinds": "architecture,historic_architecture,historic,archaeology,interesting_places,destroyed_objects,other_archaeological_sites", "point": {"lon": -68.68018341064453, "lat": -16.561643600463867}}, {"xid": "N877180132", "name": "Sun Gate", "rate": 7, "osm": "node/877180132", "wikidata": "Q2669375", "kinds": "architecture,historic_architecture,historic,monuments_and_memorials,interesting_places,destroyed_objects,monuments", "point": {"lon": -68.67393493652344, "lat": -16.554418563842773}}, {"xid": "N288542491", "name": "Piedra de Sayhuite", "rate": 7, "osm": "node/288542491", "wikidata": "Q2989639", "kinds": "historic,archaeology,interesting_places,other_archaeological_sites", "point": {"lon": -72.80296325683594, "lat": -13.547341346740723}}, {"xid": "W367135460", "name": "San Francisco Church", "rate": 7, "osm": "way/367135460", "wikidata": "Q65951354", "kinds": "religion,other_temples,interesting_places", "point": {"lon": -71.98326110839844, "lat": -13.518440246582031}}, {"xid": "W24025873", "name": "Plaza San Francisco", "rate": 7, "osm": "way/24025873", "wikidata": "Q65951354", "kinds": "religion,other_temples,urban_environment,gardens_and_parks,cultural,interesting_places", "point": {"lon": -71.98143005371094, "lat": -13.518370628356934}}, {"xid": "N5061093143", "name": "Paraninfo Universitario", "rate": 7, "osm": "node/5061093143", "wikidata": "Q67186614", "kinds": "cultural,theatres_and_entertainments,interesting_places,other_theatres", "point": {"lon": -71.97859191894531, "lat": -13.517722129821777}}, {"xid": "W234943274", "name": "iglesia de Santa Luc\u00eda", "rate": 7, "osm": "way/234943274", "wikidata": "Q27244675", "kinds": "religion,churches,interesting_places,other_churches", "point": {"lon": -79.78829956054688, "lat": -6.640152931213379}}, {"xid": "W680782128", "name": "Bandurria, Peru", "rate": 7, "osm": "way/680782128", "wikidata": "Q2045821", "kinds": "architecture,historic_architecture,historic,archaeology,interesting_places,destroyed_objects,other_archaeological_sites", "point": {"lon": -77.58827209472656, "lat": -11.187085151672363}}, {"xid": "W156250541", "name": "Bandurria", "rate": 7, "osm": "way/156250541", "wikidata": "Q2045821", "kinds": "historic,archaeology,interesting_places,other_archaeological_sites", "point": {"lon": -77.58941650390625, "lat": -11.182036399841309}}, {"xid": "W157857599", "name": "Chanquillo", "rate": 7, "osm": "way/157857599", "wikidata": "Q1062357", "kinds": "architecture,historic_architecture,historic,archaeology,interesting_places,destroyed_objects,other_archaeological_sites", "point": {"lon": -78.23595428466797, "lat": -9.556975364685059}}, {"xid": "N5620263250", "name": "Mausoleums of Revash", "rate": 7, "osm": "node/5620263250", "wikidata": "Q2088559", "kinds": "historic,archaeology,interesting_places,other_archaeological_sites", "point": {"lon": -77.85645294189453, "lat": -6.540717601776123}}, {"xid": "W381053952", "name": "Palacio de Carondelet", "rate": 7, "osm": "way/381053952", "wikidata": "Q3288157", "kinds": "architecture,historic_architecture,interesting_places,other_buildings_and_structures", "point": {"lon": -78.51253509521484, "lat": -0.219717338681221}}, {"xid": "W24679567", "name": "Parque El Ejido", "rate": 7, "osm": "way/24679567", "wikidata": "Q16915453", "kinds": "urban_environment,gardens_and_parks,cultural,interesting_places", "point": {"lon": -78.49803924560547, "lat": -0.2088647037744522}}, {"xid": "N5371522426", "name": "Casa de Osambela", "rate": 7, "osm": "node/5371522426", "wikidata": "Q5201102", "kinds": "cultural,museums,interesting_places,other_museums", "point": {"lon": -77.0324935913086, "lat": -12.043927192687988}}, {"xid": "W772086802", "name": "Luren", "rate": 7, "osm": "way/772086802", "wikidata": "Q24273092", "kinds": "religion,churches,monasteries,interesting_places,other_churches", "point": {"lon": -75.72555541992188, "lat": -14.070666313171387}}, {"xid": "W180051243", "name": "Iglesia Matriz de Jauja", "rate": 7, "osm": "way/180051243", "wikidata": "Q6063575", "kinds": "religion,other_temples,interesting_places", "point": {"lon": -75.50094604492188, "lat": -11.775402069091797}}, {"xid": "N4348845461", "name": "Colegio de San Bernando", "rate": 7, "osm": "node/4348845461", "wikidata": "Q67200716", "kinds": "architecture,historic_architecture,interesting_places,other_buildings_and_structures", "point": {"lon": -71.97941589355469, "lat": -13.518996238708496}}, {"xid": "W88324296", "name": "Cathedral of Huancayo", "rate": 7, "osm": "way/88324296", "wikidata": "Q5758478", "kinds": "religion,cathedrals,interesting_places", "point": {"lon": -75.20970916748047, "lat": -12.067564964294434}}, {"xid": "N6639014987", "name": "V\u00edctor Ra\u00fal Haya de la Torre", "rate": 7, "osm": "node/6639014987", "wikidata": "Q379977", "kinds": "historic,monuments_and_memorials,interesting_places,monuments", "point": {"lon": -76.94984436035156, "lat": -12.166746139526367}}, {"xid": "R3805257", "name": "Huascar\u00e1n National Park", "rate": 7, "osm": "relation/3805257", "wikidata": "Q917369", "kinds": "urban_environment,gardens_and_parks,cultural,natural,interesting_places,nature_reserves,national_parks", "point": {"lon": -77.37306213378906, "lat": -9.42573070526123}}, {"xid": "N1888176574", "name": "Museo San Francisco", "rate": 7, "osm": "node/1888176574", "wikidata": "Q5910160", "kinds": "religion,churches,cultural,museums,interesting_places,other_museums,other_churches", "point": {"lon": -78.51618194580078, "lat": -7.158025741577148}}, {"xid": "N2303615791", "name": "Museo Ferroviario Nacional de Tacna", "rate": 7, "osm": "node/2303615791", "wikidata": "Q6975186", "kinds": "national_museums,cultural,museums,interesting_places,museums_of_science_and_technology,railway_museums", "point": {"lon": -70.2544937133789, "lat": -18.012937545776367}}, {"xid": "N7702927569", "name": "Tip\u00f3n", "rate": 7, "osm": "node/7702927569", "wikidata": "Q2003624", "kinds": "historic,historical_places,archaeology,interesting_places,other_archaeological_sites,historic_settlements", "point": {"lon": -71.78431701660156, "lat": -13.57108211517334}}, {"xid": "N6543506846", "name": "V\u00edctor Ra\u00fal Haya de la Torre", "rate": 7, "osm": "node/6543506846", "wikidata": "Q379977", "kinds": "historic,monuments_and_memorials,urban_environment,cultural,interesting_places,sculptures,monuments", "point": {"lon": -77.03681182861328, "lat": -12.064330101013184}}, {"xid": "W402798295", "name": "Santuario de Mama Ashu", "rate": 7, "osm": "way/402798295", "wikidata": "Q6121494", "kinds": "religion,churches,interesting_places,other_churches", "point": {"lon": -77.36593627929688, "lat": -9.162904739379883}}, {"xid": "W40301549", "name": "Museo de Arte de Lima", "rate": 7, "osm": "way/40301549", "wikidata": "Q6033913", "kinds": "cultural,museums,interesting_places,art_galleries", "point": {"lon": -77.03702545166016, "lat": -12.06048583984375}}, {"xid": "R12294917", "name": "Tip\u00f3n", "rate": 7, "osm": "relation/12294917", "wikidata": "Q2003624", "kinds": "historic,archaeology,interesting_places,other_archaeological_sites", "point": {"lon": -71.78514862060547, "lat": -13.570334434509277}}, {"xid": "R11913341", "name": "Chan Chan Archaeological Zone", "rate": 7, "osm": "relation/11913341", "wikidata": "Q277540", "kinds": "historic,archaeology,interesting_places,other_archaeological_sites", "point": {"lon": -79.08159637451172, "lat": -8.105490684509277}}, {"xid": "R89703", "name": "Historic Center of Quito", "rate": 7, "osm": "relation/89703", "wikidata": "Q8343766", "kinds": "historic,historical_places,interesting_places,historic_districts", "point": {"lon": -78.51476287841797, "lat": -0.22745224833488464}}, {"xid": "N6211172404", "name": "IASD Arco Tica Tica", "rate": 7, "osm": "node/6211172404", "wikidata": "Q99977428", "kinds": "religion,other_temples,interesting_places", "point": {"lon": -72.00420379638672, "lat": -13.507750511169434}}, {"xid": "N444056873", "name": "Church of Bel\u00e9n", "rate": 7, "osm": "node/444056873", "wikidata": "Q77992147", "kinds": "religion,churches,interesting_places,other_churches", "point": {"lon": -71.9813232421875, "lat": -13.527209281921387}}, {"xid": "N978145632", "name": "Iglesia de la Recoleta", "rate": 7, "osm": "node/978145632", "wikidata": "Q83389656", "kinds": "religion,other_temples,interesting_places", "point": {"lon": -71.96542358398438, "lat": -13.516303062438965}}, {"xid": "N7396095851", "name": "iglesia de la recoleta", "rate": 7, "osm": "node/7396095851", "wikidata": "Q83389656", "kinds": "religion,other_temples,interesting_places", "point": {"lon": -71.96527099609375, "lat": -13.516351699829102}}, {"xid": "W178467315", "name": "Convento San Francisco", "rate": 7, "osm": "way/178467315", "wikidata": "Q5910160", "kinds": "religion,churches,interesting_places,other_churches", "point": {"lon": -78.51626586914062, "lat": -7.157525062561035}}, {"xid": "N635420370", "name": "San Francisco", "rate": 7, "osm": "node/635420370", "wikidata": "Q5910160", "kinds": "religion,churches,interesting_places,other_churches", "point": {"lon": -78.51638793945312, "lat": -7.1576313972473145}}, {"xid": "N4422319891", "name": "Castillo Rospigliosi", "rate": 7, "osm": "node/4422319891", "wikidata": "Q5756984", "kinds": "palaces,architecture,historic_architecture,fortifications,historic,interesting_places,castles", "point": {"lon": -77.03302001953125, "lat": -12.078521728515625}}, {"xid": "N5324605695", "name": "Zona Arqueologica Puruchuco", "rate": 7, "osm": "node/5324605695", "wikidata": "Q2615433", "kinds": "historic,archaeology,interesting_places,other_archaeological_sites", "point": {"lon": -76.929443359375, "lat": -12.048701286315918}}, {"xid": "N1728416285", "name": "Pakatnamu", "rate": 7, "osm": "node/1728416285", "wikidata": "Q16254649", "kinds": "historic,archaeology,interesting_places,other_archaeological_sites", "point": {"lon": -79.58055877685547, "lat": -7.317500114440918}},