[{"xid": "N380755344", "name": "Cromwell's Castle", "rate": 7, "osm": "node/380755344", "wikidata": "Q5187650", "kinds": "fortifications,historic,interesting_places,castles", "point": {"lon": -6.349515914916992, "lat": 49.96223831176758}}, {"xid": "W233500074", "name": "St Senara", "rate": 7, "osm": "way/233500074", "wikidata": "Q7595455", "kinds": "religion,churches,interesting_places,other_churches", "point": {"lon": -5.567392826080322, "lat": 50.19178009033203}}, {"xid": "W136433601", "name": "Castle an Dinas", "rate": 7, "osm": "way/136433601", "wikidata": "Q5050344", "kinds": "fortifications,historic,monuments_and_memorials,archaeology,interesting_places,other_archaeological_sites,hillforts,monuments", "point": {"lon": -4.893795013427734, "lat": 50.4251823425293}}, {"xid": "N2150848970", "name": "Trethevy Quoit", "rate": 7, "osm": "node/2150848970", "wikidata": "Q1403777", "kinds": "megaliths,historic,dolmens,archaeology,burial_places,interesting_places", "point": {"lon": -4.455428123474121, "lat": 50.49318313598633}}, {"xid": "W455314510", "name": "St. Andrew", "rate": 7, "osm": "way/455314510", "wikidata": "Q17529052", "kinds": "religion,churches,interesting_places,other_churches", "point": {"lon": -4.206133842468262, "lat": 50.502159118652344}}, {"xid": "W23359646", "name": "Oldway Mansion", "rate": 7, "osm": "way/23359646", "wikidata": "Q17549905", "kinds": "architecture,historic_architecture,interesting_places,other_buildings_and_structures", "point": {"lon": -3.567621946334839, "lat": 50.44306182861328}}, {"xid": "N1950779723", "name": "Buckfast Abbey", "rate": 7, "osm": "node/1950779723", "wikidata": "Q999611", "kinds": "religion,monasteries,interesting_places", "point": {"lon": -3.775364637374878, "lat": 50.492977142333984}}, {"xid": "W408290700", "name": "St Georges Centre", "rate": 7, "osm": "way/408290700", "wikidata": "Q15979344", "kinds": "architecture,historic_architecture,interesting_places,other_buildings_and_structures", "point": {"lon": -2.4407870769500732, "lat": 50.546993255615234}}, {"xid": "W147476428", "name": "Cove House Inn", "rate": 7, "osm": "way/147476428", "wikidata": "Q15979553", "kinds": "architecture,historic_architecture,interesting_places,pubs,foods,tourist_facilities,other_buildings_and_structures", "point": {"lon": -2.4485971927642822, "lat": 50.56059265136719}}, {"xid": "W71331335", "name": "St Andrew", "rate": 7, "osm": "way/71331335", "wikidata": "Q7586826", "kinds": "religion,churches,interesting_places,other_churches", "point": {"lon": -1.3185855150222778, "lat": 50.5958137512207}}, {"xid": "W220182570", "name": "St Mary and St Rhadegund", "rate": 7, "osm": "way/220182570", "wikidata": "Q5117297", "kinds": "religion,churches,interesting_places,other_churches", "point": {"lon": -1.264154076576233, "lat": 50.59737014770508}}, {"xid": "W364415920", "name": "Listowel Castle", "rate": 7, "osm": "way/364415920", "wikidata": "Q4215383", "kinds": "fortifications,historic,interesting_places,castles", "point": {"lon": -9.487001419067383, "lat": 52.44445037841797}}, {"xid": "W758415047", "name": "King John's Castle", "rate": 7, "osm": "way/758415047", "wikidata": "Q30246642", "kinds": "architecture,historic_architecture,towers,fortifications,historic,interesting_places,manor_houses,castles,other_towers,fortified_towers", "point": {"lon": -8.576679229736328, "lat": 52.401371002197266}}, {"xid": "W771599768", "name": "Kilrush Church", "rate": 7, "osm": "way/771599768", "wikidata": "Q30246649", "kinds": "religion,architecture,historic_architecture,churches,interesting_places,destroyed_objects,other_churches", "point": {"lon": -8.655064582824707, "lat": 52.66084671020508}}, {"xid": "N7199583441", "name": "Cloch\u00e1n na Carraige", "rate": 7, "osm": "node/7199583441", "wikidata": "Q15616569", "kinds": "historic,archaeology,interesting_places,other_archaeological_sites", "point": {"lon": -9.760196685791016, "lat": 53.14216613769531}}, {"xid": "W228397178", "name": "Quin Abbey", "rate": 7, "osm": "way/228397178", "wikidata": "Q1383077", "kinds": "religion,architecture,historic_architecture,monasteries,interesting_places,destroyed_objects", "point": {"lon": -8.862942695617676, "lat": 52.819114685058594}}, {"xid": "W693619580", "name": "Magh Adhair", "rate": 7, "osm": "way/693619580", "wikidata": "Q28196030", "kinds": "historic,archaeology,interesting_places,other_archaeological_sites", "point": {"lon": -8.8287992477417, "lat": 52.84123992919922}}, {"xid": "W642512274", "name": "St Declan's Monastery", "rate": 7, "osm": "way/642512274", "wikidata": "Q32824160", "kinds": "religion,architecture,historic_architecture,cathedrals,monasteries,interesting_places,destroyed_objects", "point": {"lon": -7.726044178009033, "lat": 51.948829650878906}}, {"xid": "W488742180", "name": "Conna Castle", "rate": 7, "osm": "way/488742180", "wikidata": "Q30200593", "kinds": "fortifications,historic,interesting_places,castles", "point": {"lon": -8.10173225402832, "lat": 52.09443664550781}}, {"xid": "W118424532", "name": "Athassel Priory", "rate": 7, "osm": "way/118424532", "wikidata": "Q754931", "kinds": "religion,architecture,historic_architecture,monasteries,interesting_places,destroyed_objects", "point": {"lon": -7.9831862449646, "lat": 52.47899627685547}}, {"xid": "W153610309", "name": "Callan Augustinian Friary (Abbey Meadow)", "rate": 7, "osm": "way/153610309", "wikidata": "Q5021743", "kinds": "religion,architecture,historic_architecture,monasteries,interesting_places,destroyed_objects", "point": {"lon": -7.387156009674072, "lat": 52.54580307006836}}, {"xid": "W191740307", "name": "Portumna Castle and Gardens", "rate": 7, "osm": "way/191740307", "wikidata": "Q5757525", "kinds": "gardens_and_parks,cultural,museums,urban_environment,interesting_places,military_museums", "point": {"lon": -8.220846176147461, "lat": 53.087440490722656}}, {"xid": "W191740297", "name": "Portumna Castle", "rate": 7, "osm": "way/191740297", "wikidata": "Q5757525", "kinds": "fortifications,historic,cultural,museums,interesting_places,castles,military_museums", "point": {"lon": -8.2207612991333, "lat": 53.086639404296875}}, {"xid": "W264221376", "name": "Kilconnell Abbey", "rate": 7, "osm": "way/264221376", "wikidata": "Q1775412", "kinds": "religion,architecture,historic_architecture,monasteries,interesting_places,destroyed_objects", "point": {"lon": -8.400869369506836, "lat": 53.33272171020508}}, {"xid": "N6551033145", "name": "Historic Town - Athlone Castle & Church of SS Peter and Paul", "rate": 7, "osm": "node/6551033145", "wikidata": "Q4815603", "kinds": "fortifications,historic,interesting_places,castles", "point": {"lon": -7.9431071281433105, "lat": 53.42344284057617}}, {"xid": "W463369130", "name": "Athlone Castle", "rate": 7, "osm": "way/463369130", "wikidata": "Q4815603", "kinds": "fortifications,historic,interesting_places,castles", "point": {"lon": -7.942797660827637, "lat": 53.4232177734375}}, {"xid": "N378430534", "name": "Rock of Dunamase Information", "rate": 7, "osm": "node/378430534", "wikidata": "Q2160523", "kinds": "fortifications,historic,interesting_places,castles", "point": {"lon": -7.208227634429932, "lat": 53.03108215332031}}, {"xid": "W258169333", "name": "Coolhull Castle", "rate": 7, "osm": "way/258169333", "wikidata": "Q26905527", "kinds": "architecture,historic_architecture,fortifications,historic,interesting_places,destroyed_objects,castles", "point": {"lon": -6.704508304595947, "lat": 52.23421096801758}}, {"xid": "W189294971", "name": "Castledermot Round Tower", "rate": 7, "osm": "way/189294971", "wikidata": "Q22083903", "kinds": "religion,architecture,towers,historic,monasteries,archaeology,interesting_places,other_archaeological_sites,other_towers", "point": {"lon": -6.8349480628967285, "lat": 52.910438537597656}}, {"xid": "W769452904", "name": "Raheen-a-Cluig", "rate": 7, "osm": "way/769452904", "wikidata": "Q28232156", "kinds": "religion,architecture,historic_architecture,churches,interesting_places,destroyed_objects,other_churches", "point": {"lon": -6.090531349182129, "lat": 53.19379806518555}}, {"xid": "N370018308", "name": "Monasterboice Abbey", "rate": 7, "osm": "node/370018308", "wikidata": "Q636450", "kinds": "religion,architecture,historic_architecture,monasteries,interesting_places,destroyed_objects", "point": {"lon": -6.417879581451416, "lat": 53.777835845947266}}, {"xid": "W58913159", "name": "Trim Castle Keep", "rate": 7, "osm": "way/58913159", "wikidata": "Q2165568", "kinds": "fortifications,historic,interesting_places,castles", "point": {"lon": -6.789775371551514, "lat": 53.55428695678711}}, {"xid": "W465116732", "name": "Castlekeeran", "rate": 7, "osm": "way/465116732", "wikidata": "Q28190268", "kinds": "cemeteries,historic,burial_places,interesting_places", "point": {"lon": -6.954251766204834, "lat": 53.74089813232422}}, {"xid": "W85160507", "name": "Kells Round Tower", "rate": 7, "osm": "way/85160507", "wikidata": "Q28195945", "kinds": "architecture,towers,interesting_places,other_towers", "point": {"lon": -6.880082130432129, "lat": 53.7273063659668}}, {"xid": "W771280689", "name": "Roodstown Castle", "rate": 7, "osm": "way/771280689", "wikidata": "Q26926966", "kinds": "architecture,historic_architecture,fortifications,historic,interesting_places,manor_houses,castles", "point": {"lon": -6.486708164215088, "lat": 53.87223815917969}}, {"xid": "R8385868", "name": "Doe Castle", "rate": 7, "osm": "relation/8385868", "wikidata": "Q2389189", "kinds": "fortifications,historic,interesting_places,castles", "point": {"lon": -7.864141941070557, "lat": 55.135047912597656}}, {"xid": "N1556302102", "name": "Dubh Artach Lighthouse", "rate": 7, "osm": "node/1556302102", "wikidata": "Q1262994", "kinds": "lighthouses,architecture,towers,interesting_places,other_towers", "point": {"lon": -6.63572359085083, "lat": 56.13105392456055}}, {"xid": "W309855804", "name": "Laphroaig Distillery", "rate": 7, "osm": "way/309855804", "wikidata": "Q51888", "kinds": "factories,industrial_facilities,interesting_places", "point": {"lon": -6.151274681091309, "lat": 55.62964630126953}}, {"xid": "W165325814", "name": "Port Askaig Hotel", "rate": 7, "osm": "way/165325814", "wikidata": "Q2104627", "kinds": "architecture,historic_architecture,accomodations,interesting_places,other_hotels,other_buildings_and_structures", "point": {"lon": -6.1054840087890625, "lat": 55.84762191772461}}, {"xid": "W804661378", "name": "St James", "rate": 7, "osm": "way/804661378", "wikidata": "Q21131848", "kinds": "religion,churches,interesting_places,other_churches", "point": {"lon": -4.554780006408691, "lat": 50.73415756225586}}, {"xid": "W34178421", "name": "St Helen's Church", "rate": 7, "osm": "way/34178421", "wikidata": "Q7593325", "kinds": "religion,churches,interesting_places,other_churches", "point": {"lon": -4.664762020111084, "lat": 51.16441345214844}}, {"xid": "N1556386877", "name": "South Bishop Lighthouse", "rate": 7, "osm": "node/1556386877", "wikidata": "Q7566333", "kinds": "lighthouses,architecture,towers,interesting_places,other_towers", "point": {"lon": -5.411891460418701, "lat": 51.8526611328125}}, {"xid": "N5590671686", "name": "Upton Castle Gardens", "rate": 7, "osm": "node/5590671686", "wikidata": "Q21999745", "kinds": "fortifications,historic,interesting_places,castles", "point": {"lon": -4.866345405578613, "lat": 51.70603561401367}}, {"xid": "W97006984", "name": "Carew Tidal Mill", "rate": 7, "osm": "way/97006984", "wikidata": "Q17741638", "kinds": "industrial_facilities,mills,interesting_places", "point": {"lon": -4.8353776931762695, "lat": 51.698997497558594}}, {"xid": "N6465606538", "name": "Gwal y Filiast", "rate": 7, "osm": "node/6465606538", "wikidata": "Q29981826", "kinds": "megaliths,historic,dolmens,monuments_and_memorials,archaeology,burial_places,interesting_places,monuments", "point": {"lon": -4.660450458526611, "lat": 51.89925003051758}}, {"xid": "W899916524", "name": "Castle View", "rate": 7, "osm": "way/899916524", "wikidata": "Q5050154", "kinds": "architecture,historic_architecture,interesting_places,foods,fast_food,tourist_facilities,other_buildings_and_structures", "point": {"lon": -4.464367389678955, "lat": 51.769493103027344}}, {"xid": "W231011842", "name": "Prestonbury Castle (fort)", "rate": 7, "osm": "way/231011842", "wikidata": "Q7242038", "kinds": "fortifications,historic,monuments_and_memorials,archaeology,interesting_places,other_archaeological_sites,hillforts,monuments", "point": {"lon": -3.7759411334991455, "lat": 50.69606018066406}}, {"xid": "W470750797", "name": "Danes Castle", "rate": 7, "osm": "way/470750797", "wikidata": "Q17668636", "kinds": "fortifications,historic,archaeology,interesting_places,castles,other_archaeological_sites", "point": {"lon": -3.5318655967712402, "lat": 50.729217529296875}}, {"xid": "W523290401", "name": "War memorial", "rate": 7, "osm": "way/523290401", "wikidata": "Q17547933", "kinds": "historic,monuments_and_memorials,burial_places,interesting_places,war_memorials,monuments", "point": {"lon": -3.5315260887145996, "lat": 50.72265625}}, {"xid": "W175330338", "name": "St Margaret's Church", "rate": 7, "osm": "way/175330338", "wikidata": "Q17527466", "kinds": "religion,churches,interesting_places,other_churches", "point": {"lon": -4.214076995849609, "lat": 51.04023361206055}}, {"xid": "N1770256921", "name": "Lee Abbey Christian Conference, Retreat and Holiday Centre", "rate": 7, "osm": "node/1770256921", "wikidata": "Q6512924", "kinds": "religion,other_temples,historical_places,historic,interesting_places,historic_districts", "point": {"lon": -3.865645170211792, "lat": 51.22775650024414}}, {"xid": "N1714498341", "name": "Sidbury Castle", "rate": 7, "osm": "node/1714498341", "wikidata": "Q7508010", "kinds": "fortifications,historic,monuments_and_memorials,archaeology,interesting_places,other_archaeological_sites,hillforts,monuments", "point": {"lon": -3.235734701156616, "lat": 50.71516799926758}}, {"xid": "N501901184", "name": "Cranmore Castle", "rate": 7, "osm": "node/501901184", "wikidata": "Q5182226", "kinds": "fortifications,historic,monuments_and_memorials,archaeology,interesting_places,other_archaeological_sites,hillforts,monuments", "point": {"lon": -3.4821882247924805, "lat": 50.89616394042969}}, {"xid": "N523943176", "name": "Castle Close", "rate": 7, "osm": "node/523943176", "wikidata": "Q5050024", "kinds": "fortifications,historic,monuments_and_memorials,archaeology,interesting_places,other_archaeological_sites,hillforts,monuments", "point": {"lon": -3.5144009590148926, "lat": 50.952632904052734}}, {"xid": "W532551009", "name": "Wolford Chapel", "rate": 7, "osm": "way/532551009", "wikidata": "Q8030176", "kinds": "religion,churches,interesting_places,other_churches", "point": {"lon": -3.22680926322937, "lat": 50.84020233154297}}, {"xid": "W42137047", "name": "Coldharbour Mill", "rate": 7, "osm": "way/42137047", "wikidata": "Q17510407", "kinds": "industrial_facilities,mills,cultural,museums,interesting_places,history_museums,local_museums", "point": {"lon": -3.335369348526001, "lat": 50.90141677856445}}, {"xid": "W43127886", "name": "Hawkesdown Hill Camp", "rate": 7, "osm": "way/43127886", "wikidata": "Q5685046", "kinds": "fortifications,historic,monuments_and_memorials,archaeology,interesting_places,other_archaeological_sites,hillforts,monuments", "point": {"lon": -3.0455679893493652, "lat": 50.71767807006836}}, {"xid": "N313297168", "name": "Membury Castle", "rate": 7, "osm": "node/313297168", "wikidata": "Q6815156", "kinds": "architecture,historic_architecture,fortifications,historic,monuments_and_memorials,archaeology,interesting_places,destroyed_objects,other_archaeological_sites,hillforts,monuments", "point": {"lon": -3.0197081565856934, "lat": 50.820838928222656}}, {"xid": "N3251049083", "name": "Bampton Castle", "rate": 7, "osm": "node/3251049083", "wikidata": "Q4853530", "kinds": "fortifications,historic,interesting_places,castles", "point": {"lon": -3.4854345321655273, "lat": 50.99275207519531}}, {"xid": "W815463714", "name": "St Mary Magdalene", "rate": 7, "osm": "way/815463714", "wikidata": "Q17556027", "kinds": "religion,churches,interesting_places,other_churches", "point": {"lon": -3.3535385131835938, "lat": 51.069915771484375}}, {"xid": "W214446302", "name": "St Thomas of Canterbury", "rate": 7, "osm": "way/214446302", "wikidata": "Q5117733", "kinds": "religion,churches,interesting_places,other_churches", "point": {"lon": -3.169994831085205, "lat": 51.08009338378906}}, {"xid": "W180007809", "name": "Cleeve Abbey", "rate": 7, "osm": "way/180007809", "wikidata": "Q775473", "kinds": "religion,architecture,historic_architecture,monasteries,interesting_places,destroyed_objects", "point": {"lon": -3.3636481761932373, "lat": 51.15763854980469}}, {"xid": "W131947449", "name": "All Saints", "rate": 7, "osm": "way/131947449", "wikidata": "Q5116812", "kinds": "religion,churches,interesting_places,other_churches", "point": {"lon": -3.1180174350738525, "lat": 50.9937858581543}}, {"xid": "W122226799", "name": "St John the Evangelist Church", "rate": 7, "osm": "way/122226799", "wikidata": "Q17530170", "kinds": "religion,churches,interesting_places,other_churches", "point": {"lon": -3.108553409576416, "lat": 51.01358413696289}}, {"xid": "W119614534", "name": "Taunton School", "rate": 7, "osm": "way/119614534", "wikidata": "Q7688807", "kinds": "architecture,historic_architecture,interesting_places,other_buildings_and_structures", "point": {"lon": -3.1156792640686035, "lat": 51.02653121948242}}, {"xid": "W195664780", "name": "All Saints Church", "rate": 7, "osm": "way/195664780", "wikidata": "Q151571", "kinds": "religion,churches,interesting_places,other_churches", "point": {"lon": -3.1087944507598877, "lat": 51.08222961425781}}, {"xid": "N4703530566", "name": "Dragons teeth", "rate": 7, "osm": "node/4703530566", "wikidata": "Q1320595", "kinds": "fortifications,historic,interesting_places,other_fortifications", "point": {"lon": -2.9729721546173096, "lat": 51.0988655090332}}, {"xid": "W134774102", "name": "Blessed Virgin Mary", "rate": 7, "osm": "way/134774102", "wikidata": "Q5117501", "kinds": "religion,churches,interesting_places,other_churches", "point": {"lon": -3.0135393142700195, "lat": 51.26693344116211}}, {"xid": "N8860561418", "name": "Ashton Windmill", "rate": 7, "osm": "node/8860561418", "wikidata": "Q4806085", "kinds": "industrial_facilities,mills,interesting_places", "point": {"lon": -2.8401191234588623, "lat": 51.24882888793945}}, {"xid": "N7768205785", "name": "Wedmore Windmill", "rate": 7, "osm": "node/7768205785", "wikidata": "Q4806085", "kinds": "industrial_facilities,mills,interesting_places", "point": {"lon": -2.8397536277770996, "lat": 51.24894332885742}}, {"xid": "W108157528", "name": "All Saints' Church", "rate": 7, "osm": "way/108157528", "wikidata": "Q17122662", "kinds": "religion,fortifications,churches,historic,interesting_places,other_fortifications,other_churches", "point": {"lon": -3.9975757598876953, "lat": 51.573707580566406}}, {"xid": "N262942557", "name": "St. Michael and All Angels", "rate": 7, "osm": "node/262942557", "wikidata": "Q17743800", "kinds": "religion,churches,interesting_places,other_churches", "point": {"lon": -3.5279557704925537, "lat": 51.46756362915039}}, {"xid": "N2315242139", "name": "Bush Inn", "rate": 7, "osm": "node/2315242139", "wikidata": "Q7720719", "kinds": "architecture,historic_architecture,interesting_places,pubs,foods,tourist_facilities,other_buildings_and_structures", "point": {"lon": -3.4179065227508545, "lat": 51.450069427490234}}, {"xid": "W105574901", "name": "Saint Paul's Church", "rate": 7, "osm": "way/105574901", "wikidata": "Q7595128", "kinds": "religion,churches,interesting_places,other_churches", "point": {"lon": -3.1847519874572754, "lat": 51.466129302978516}}, {"xid": "N6605149666", "name": "Cardiff Central", "rate": 7, "osm": "node/6605149666", "wikidata": "Q2292817", "kinds": "railway_stations,industrial_facilities,interesting_places", "point": {"lon": -3.1793363094329834, "lat": 51.475738525390625}}, {"xid": "W706672417", "name": "St Elli", "rate": 7, "osm": "way/706672417", "wikidata": "Q17743861", "kinds": "religion,churches,interesting_places,other_churches", "point": {"lon": -3.115483045578003, "lat": 51.827003479003906}}, {"xid": "W926312144", "name": "Lower Tresenny", "rate": 7, "osm": "way/926312144", "wikidata": "Q17743585", "kinds": "architecture,historic_architecture,interesting_places,farms", "point": {"lon": -2.861217975616455, "lat": 51.912010192871094}}, {"xid": "N3839811357", "name": "Caer y Twr Hillfort", "rate": 7, "osm": "node/3839811357", "wikidata": "Q5016875", "kinds": "fortifications,historic,monuments_and_memorials,archaeology,interesting_places,other_archaeological_sites,hillforts,monuments", "point": {"lon": -4.674214839935303, "lat": 53.31386947631836}}, {"xid": "W367508070", "name": "Holyhead Breakwater Lighthouse", "rate": 7, "osm": "way/367508070", "wikidata": "Q15224746", "kinds": "lighthouses,architecture,towers,interesting_places,other_towers", "point": {"lon": -4.619316101074219, "lat": 53.330909729003906}}, {"xid": "W517575130", "name": "Eglwys St Morhaiarn", "rate": 7, "osm": "way/517575130", "wikidata": "Q17742825", "kinds": "religion,churches,interesting_places,other_churches", "point": {"lon": -4.414356708526611, "lat": 53.257537841796875}}, {"xid": "W561648407", "name": "St Caian's Church", "rate": 7, "osm": "way/561648407", "wikidata": "Q7592737", "kinds": "religion,churches,interesting_places,other_churches", "point": {"lon": -4.324958801269531, "lat": 53.2916374206543}}, {"xid": "N166078169", "name": "Aberystwyth Castle", "rate": 7, "osm": "node/166078169", "wikidata": "Q319745", "kinds": "architecture,historic_architecture,fortifications,historic,archaeology,interesting_places,destroyed_objects,castles,other_archaeological_sites", "point": {"lon": -4.089515209197998, "lat": 52.413326263427734}}, {"xid": "N3419785114", "name": "Maesyronnen Chapel", "rate": 7, "osm": "node/3419785114", "wikidata": "Q6729371", "kinds": "religion,churches,interesting_places,other_churches", "point": {"lon": -3.2024295330047607, "lat": 52.0621223449707}}, {"xid": "W409422948", "name": "Castelltinboeth", "rate": 7, "osm": "way/409422948", "wikidata": "Q7808013", "kinds": "fortifications,historic,monuments_and_memorials,archaeology,interesting_places,castles,other_archaeological_sites,hillforts,monuments", "point": {"lon": -3.337772846221924, "lat": 52.36958694458008}}, {"xid": "N8564252598", "name": "St Mary The Virgin", "rate": 7, "osm": "node/8564252598", "wikidata": "Q24183387", "kinds": "religion,churches,interesting_places,other_churches", "point": {"lon": -3.1270883083343506, "lat": 52.073272705078125}}, {"xid": "N3397576489", "name": "Clifford Castle", "rate": 7, "osm": "node/3397576489", "wikidata": "Q5132895", "kinds": "architecture,historic_architecture,fortifications,historic,archaeology,interesting_places,destroyed_objects,castles,other_archaeological_sites", "point": {"lon": -3.105701446533203, "lat": 52.104312896728516}}, {"xid": "W873149390", "name": "Brampton Bryan Castle", "rate": 7, "osm": "way/873149390", "wikidata": "Q4956215", "kinds": "fortifications,historic,interesting_places,castles", "point": {"lon": -2.9258041381835938, "lat": 52.347652435302734}}, {"xid": "W343093805", "name": "Wigmore Castle", "rate": 7, "osm": "way/343093805", "wikidata": "Q7999673", "kinds": "architecture,historic_architecture,fortifications,historic,interesting_places,destroyed_objects,castles", "point": {"lon": -2.869205951690674, "lat": 52.318233489990234}}, {"xid": "W173586294", "name": "St Swithin's", "rate": 7, "osm": "way/173586294", "wikidata": "Q7595500", "kinds": "religion,churches,interesting_places,other_churches", "point": {"lon": -2.9264538288116455, "lat": 52.42024612426758}}, {"xid": "W346093073", "name": "Capel Salem", "rate": 7, "osm": "way/346093073", "wikidata": "Q17153072", "kinds": "religion,churches,interesting_places,other_churches", "point": {"lon": -4.075003623962402, "lat": 52.82572555541992}}, {"xid": "W968498259", "name": "All Saints Church", "rate": 7, "osm": "way/968498259", "wikidata": "Q4729457", "kinds": "religion,churches,interesting_places,other_churches", "point": {"lon": -3.826899528503418, "lat": 53.29413986206055}}, {"xid": "N4091096644", "name": "Holt Castle", "rate": 7, "osm": "node/4091096644", "wikidata": "Q5884534", "kinds": "fortifications,historic,archaeology,interesting_places,castles,other_archaeological_sites", "point": {"lon": -2.8802247047424316, "lat": 53.078121185302734}}, {"xid": "W118830892", "name": "Holt Castle Ruins", "rate": 7, "osm": "way/118830892", "wikidata": "Q5884534", "kinds": "fortifications,historic,archaeology,interesting_places,castles,other_archaeological_sites", "point": {"lon": -2.8802244663238525, "lat": 53.07796859741211}}, {"xid": "N3357024094", "name": "Denbigh Castle", "rate": 7, "osm": "node/3357024094", "wikidata": "Q1186885", "kinds": "architecture,historic_architecture,fortifications,historic,archaeology,interesting_places,destroyed_objects,castles,other_archaeological_sites", "point": {"lon": -3.4207582473754883, "lat": 53.1806526184082}}, {"xid": "W387636655", "name": "Brynbella", "rate": 7, "osm": "way/387636655", "wikidata": "Q4980930", "kinds": "architecture,historic_architecture,interesting_places,manor_houses", "point": {"lon": -3.377103805541992, "lat": 53.24104309082031}}, {"xid": "N2698247884", "name": "Dyserth Castle (Ruined)", "rate": 7, "osm": "node/2698247884", "wikidata": "Q18019468", "kinds": "architecture,historic_architecture,fortifications,historic,interesting_places,destroyed_objects,castles", "point": {"lon": -3.412705898284912, "lat": 53.307899475097656}}, {"xid": "W278837212", "name": "the chester grosvenor", "rate": 7, "osm": "way/278837212", "wikidata": "Q5093580", "kinds": "architecture,historic_architecture,accomodations,interesting_places,other_hotels,other_buildings_and_structures", "point": {"lon": -2.889058828353882, "lat": 53.190513610839844}}, {"xid": "W249467581", "name": "Lead Shot Tower", "rate": 7, "osm": "way/249467581", "wikidata": "Q5093713", "kinds": "architecture,towers,interesting_places,other_towers", "point": {"lon": -2.878084182739258, "lat": 53.1942024230957}}, {"xid": "W166682108", "name": "The Blue Coat School", "rate": 7, "osm": "way/166682108", "wikidata": "Q6658319", "kinds": "architecture,historic_architecture,interesting_places,other_buildings_and_structures", "point": {"lon": -2.9162116050720215, "lat": 53.39320373535156}}, {"xid": "N364097306", "name": "Brimstage Hall", "rate": 7, "osm": "node/364097306", "wikidata": "Q17530197", "kinds": "architecture,historic_architecture,interesting_places,other_buildings_and_structures", "point": {"lon": -3.046295642852783, "lat": 53.33662414550781}}, {"xid": "N255319408", "name": "Hamilton Square", "rate": 7, "osm": "node/255319408", "wikidata": "Q305403", "kinds": "railway_stations,industrial_facilities,interesting_places", "point": {"lon": -3.0140483379364014, "lat": 53.394317626953125}}, {"xid": "N880178527", "name": "Nelson Monument", "rate": 7, "osm": "node/880178527", "wikidata": "Q4343277", "kinds": "historic,monuments_and_memorials,cultural,urban_environment,interesting_places,sculptures,monuments", "point": {"lon": -2.9920239448547363, "lat": 53.4075813293457}}, {"xid": "W756558746", "name": "Huskisson Monument", "rate": 7, "osm": "way/756558746", "wikidata": "Q26504950", "kinds": "historic,monuments_and_memorials,interesting_places,monuments", "point": {"lon": -2.9719417095184326, "lat": 53.397064208984375}}, {"xid": "W80876422", "name": "St. Bride's Church", "rate": 7, "osm": "way/80876422", "wikidata": "Q7592709", "kinds": "religion,churches,interesting_places,other_churches", "point": {"lon": -2.969024658203125, "lat": 53.39728927612305}}, {"xid": "N618545413", "name": "Walker Art Gallery", "rate": 7, "osm": "node/618545413", "wikidata": "Q1536471", "kinds": "cultural,museums,interesting_places,art_galleries", "point": {"lon": -2.979628801345825, "lat": 53.41001892089844}}, {"xid": "W271727805", "name": "St Margaret of Antioch", "rate": 7, "osm": "way/271727805", "wikidata": "Q5117276", "kinds": "religion,churches,interesting_places,other_churches", "point": {"lon": -2.9657435417175293, "lat": 53.39546203613281}}, {"xid": "W566643156", "name": "Casbah Coffee Club", "rate": 7, "osm": "way/566643156", "wikidata": "Q7721474", "kinds": "architecture,historic_architecture,interesting_places,other_buildings_and_structures", "point": {"lon": -2.9120125770568848, "lat": 53.432437896728516}}, {"xid": "W516128867", "name": "Mendips", "rate": 7, "osm": "way/516128867", "wikidata": "Q2702874", "kinds": "biographical_museums,historic_house_museums,cultural,museums,interesting_places,history_museums", "point": {"lon": -2.881392240524292, "lat": 53.37724304199219}}, {"xid": "N2963327870", "name": "Abbotsbury Castle (Fort)", "rate": 7, "osm": "node/2963327870", "wikidata": "Q3662453", "kinds": "fortifications,historic,monuments_and_memorials,archaeology,interesting_places,other_archaeological_sites,hillforts,monuments", "point": {"lon": -2.628359794616699, "lat": 50.676265716552734}}, {"xid": "W779235102", "name": "Church of St Peter & St Paul", "rate": 7, "osm": "way/779235102", "wikidata": "Q17554763", "kinds": "religion,churches,interesting_places,other_churches", "point": {"lon": -2.759143590927124, "lat": 50.930816650390625}}, {"xid": "W512635043", "name": "St Michael and All Angels' Church", "rate": 7, "osm": "way/512635043", "wikidata": "Q17554772", "kinds": "religion,churches,interesting_places,other_churches", "point": {"lon": -2.657332181930542, "lat": 50.90731430053711}}, {"xid": "N367048284", "name": "Max Gate", "rate": 7, "osm": "node/367048284", "wikidata": "Q6794787", "kinds": "biographical_museums,historic_house_museums,cultural,museums,interesting_places,history_museums", "point": {"lon": -2.420012950897217, "lat": 50.70808410644531}}, {"xid": "N598207016", "name": "Lulworth Castle (English Heritage)", "rate": 7, "osm": "node/598207016", "wikidata": "Q1436731", "kinds": "biographical_museums,architecture,historic,accomodations,fortifications,museums,castles,alpine_hut,historic_house_museums,historic_architecture,cultural,interesting_places,history_museums,other_buildings_and_structures", "point": {"lon": -2.206468105316162, "lat": 50.63843536376953}}, {"xid": "W813386349", "name": "St Mary the Virgin", "rate": 7, "osm": "way/813386349", "wikidata": "Q17553786", "kinds": "religion,churches,interesting_places,other_churches", "point": {"lon": -2.674457311630249, "lat": 51.05242156982422}}, {"xid": "W334706656", "name": "Church of All Saints", "rate": 7, "osm": "way/334706656", "wikidata": "Q5116783", "kinds": "religion,churches,interesting_places,other_churches", "point": {"lon": -2.577305555343628, "lat": 51.13497543334961}}, {"xid": "W813258292", "name": "Holy Trinity", "rate": 7, "osm": "way/813258292", "wikidata": "Q5117940", "kinds": "religion,churches,interesting_places,other_churches", "point": {"lon": -2.4843292236328125, "lat": 51.1070556640625}}, {"xid": "W291787558", "name": "Pilton Tithe Barn", "rate": 7, "osm": "way/291787558", "wikidata": "Q7809947", "kinds": "religion,other_temples,interesting_places", "point": {"lon": -2.5890843868255615, "lat": 51.16340637207031}}, {"xid": "N409548418", "name": "Maesbury Castle", "rate": 7, "osm": "node/409548418", "wikidata": "Q6729291", "kinds": "fortifications,historic,monuments_and_memorials,archaeology,interesting_places,other_archaeological_sites,hillforts,monuments", "point": {"lon": -2.5595221519470215, "lat": 51.222530364990234}}, {"xid": "N1511395335", "name": "Cranmore Tower", "rate": 7, "osm": "node/1511395335", "wikidata": "Q5182227", "kinds": "architecture,towers,interesting_places,observation_towers", "point": {"lon": -2.464250087738037, "lat": 51.20349884033203}}, {"xid": "W863497576", "name": "Saint John the Baptist", "rate": 7, "osm": "way/863497576", "wikidata": "Q17552779", "kinds": "religion,churches,interesting_places,other_churches", "point": {"lon": -2.5074691772460938, "lat": 51.269718170166016}}, {"xid": "W246736739", "name": "Shaftesbury Abbey", "rate": 7, "osm": "way/246736739", "wikidata": "Q1128802", "kinds": "religion,architecture,historic_architecture,monasteries,interesting_places,destroyed_objects", "point": {"lon": -2.1983578205108643, "lat": 51.0052604675293}}, {"xid": "W237965211", "name": "St Mary's", "rate": 7, "osm": "way/237965211", "wikidata": "Q17529455", "kinds": "religion,churches,interesting_places,other_churches", "point": {"lon": -2.172330141067505, "lat": 51.0739860534668}}, {"xid": "W420029753", "name": "St Mary Magdalene", "rate": 7, "osm": "way/420029753", "wikidata": "Q5117552", "kinds": "religion,churches,interesting_places,other_churches", "point": {"lon": -2.364696502685547, "lat": 51.242530822753906}}, {"xid": "W481777876", "name": "The Church of St. Mary", "rate": 7, "osm": "way/481777876", "wikidata": "Q5117515", "kinds": "religion,churches,interesting_places,other_churches", "point": {"lon": -2.3707656860351562, "lat": 51.27158737182617}}, {"xid": "N6634567434", "name": "Bournemouth", "rate": 7, "osm": "node/6634567434", "wikidata": "Q4950306", "kinds": "railway_stations,industrial_facilities,interesting_places", "point": {"lon": -1.8641942739486694, "lat": 50.727210998535156}}, {"xid": "W194067383", "name": "The Needles Lighthouse", "rate": 7, "osm": "way/194067383", "wikidata": "Q5856530", "kinds": "lighthouses,architecture,towers,interesting_places,other_towers", "point": {"lon": -1.5917472839355469, "lat": 50.6622314453125}}, {"xid": "R2588390", "name": "Wilton House", "rate": 7, "osm": "relation/2588390", "wikidata": "Q1429120", "kinds": "architecture,historic_architecture,interesting_places,manor_houses", "point": {"lon": -1.8596268892288208, "lat": 51.07803726196289}}, {"xid": "N364537787", "name": "The Cloisters", "rate": 7, "osm": "node/364537787", "wikidata": "Q17546364", "kinds": "guest_houses,architecture,historic_architecture,accomodations,interesting_places,pubs,foods,tourist_facilities,other_buildings_and_structures", "point": {"lon": -1.7935571670532227, "lat": 51.0671272277832}}, {"xid": "W152664904", "name": "Vespasian's Camp", "rate": 7, "osm": "way/152664904", "wikidata": "Q7923272", "kinds": "fortifications,historic,monuments_and_memorials,archaeology,interesting_places,other_archaeological_sites,hillforts,monuments", "point": {"lon": -1.7924652099609375, "lat": 51.175228118896484}}, {"xid": "W658245208", "name": "Elms Colliery", "rate": 7, "osm": "way/658245208", "wikidata": "Q17642216", "kinds": "industrial_facilities,mineshafts,historic,archaeology,interesting_places,other_archaeological_sites", "point": {"lon": -2.7461884021759033, "lat": 51.43165969848633}}, {"xid": "N7940185886", "name": "Pensford Viaduct", "rate": 7, "osm": "node/7940185886", "wikidata": "Q15979235", "kinds": "bridges,architecture,interesting_places,viaducts", "point": {"lon": -2.5513832569122314, "lat": 51.37092971801758}}, {"xid": "N5882750183", "name": "Underfall yard", "rate": 7, "osm": "node/5882750183", "wikidata": "Q7883583", "kinds": "other_buildings,industrial_facilities,historical_places,historic,interesting_places,historic_districts", "point": {"lon": -2.617931842803955, "lat": 51.44694519042969}}, {"xid": "N6268688021", "name": "Underfall yard", "rate": 7, "osm": "node/6268688021", "wikidata": "Q7883583", "kinds": "other_buildings,industrial_facilities,historical_places,historic,interesting_places,historic_districts", "point": {"lon": -2.6167657375335693, "lat": 51.44660568237305}}, {"xid": "W366223634", "name": "The Shakespeare", "rate": 7, "osm": "way/366223634", "wikidata": "Q7462808", "kinds": "architecture,historic_architecture,interesting_places,pubs,foods,tourist_facilities,other_buildings_and_structures", "point": {"lon": -2.597097396850586, "lat": 51.44956588745117}}, {"xid": "N299952660", "name": "Quakers Friars", "rate": 7, "osm": "node/299952660", "wikidata": "Q7268584", "kinds": "religion,architecture,historic_architecture,churches,interesting_places,destroyed_objects,other_churches", "point": {"lon": -2.5874273777008057, "lat": 51.457218170166016}}, {"xid": "N7167271113", "name": "Bristol Temple Meads", "rate": 7, "osm": "node/7167271113", "wikidata": "Q800579", "kinds": "railway_stations,industrial_facilities,interesting_places", "point": {"lon": -2.5804028511047363, "lat": 51.449100494384766}}, {"xid": "N5449248493", "name": "Temple Meads Station", "rate": 7, "osm": "node/5449248493", "wikidata": "Q800579", "kinds": "railway_stations,industrial_facilities,interesting_places", "point": {"lon": -2.581150770187378, "lat": 51.44993209838867}}, {"xid": "N2268894728", "name": "Charles Wesley & Samuel Wesley", "rate": 7, "osm": "node/2268894728", "wikidata": "Q5083451", "kinds": "biographical_museums,historic_house_museums,cultural,museums,interesting_places,history_museums", "point": {"lon": -2.592381477355957, "lat": 51.46034240722656}}, {"xid": "N6374655775", "name": "Winterbourne Parish Church", "rate": 7, "osm": "node/6374655775", "wikidata": "Q7594795", "kinds": "religion,churches,interesting_places,other_churches", "point": {"lon": -2.5180041790008545, "lat": 51.52657699584961}}, {"xid": "W32452520", "name": "St. James the Great", "rate": 7, "osm": "way/32452520", "wikidata": "Q15210277", "kinds": "religion,churches,interesting_places,other_churches", "point": {"lon": -2.3653476238250732, "lat": 51.349586486816406}}, {"xid": "N6605149668", "name": "Bath Spa", "rate": 7, "osm": "node/6605149668", "wikidata": "Q637185", "kinds": "railway_stations,industrial_facilities,interesting_places", "point": {"lon": -2.3567190170288086, "lat": 51.377601623535156}}, {"xid": "N1046051207", "name": "Bath Spa Station", "rate": 7, "osm": "node/1046051207", "wikidata": "Q637185", "kinds": "railway_stations,industrial_facilities,interesting_places", "point": {"lon": -2.356771945953369, "lat": 51.377769470214844}}, {"xid": "W50845239", "name": "Cross Bath", "rate": 7, "osm": "way/50845239", "wikidata": "Q5188234", "kinds": "architecture,historic_architecture,interesting_places,baths_and_saunas,saunas,amusements,other_buildings_and_structures", "point": {"lon": -2.361391067504883, "lat": 51.38075637817383}}, {"xid": "W584167630", "name": "the swan hotel - bradford-on-avon", "rate": 7, "osm": "way/584167630", "wikidata": "Q17543681", "kinds": "architecture,historic_architecture,accomodations,interesting_places,other_hotels,pubs,foods,tourist_facilities,other_buildings_and_structures", "point": {"lon": -2.2510464191436768, "lat": 51.347557067871094}}, {"xid": "W225089429", "name": "Great Chalfield Manor", "rate": 7, "osm": "way/225089429", "wikidata": "Q5598949", "kinds": "architecture,historic_architecture,interesting_places,manor_houses", "point": {"lon": -2.20245361328125, "lat": 51.36732864379883}}, {"xid": "N26007739", "name": "Beverston", "rate": 7, "osm": "node/26007739", "wikidata": "Q4899641", "kinds": "fortifications,historical_places,historic,interesting_places,castles,historic_settlements", "point": {"lon": -2.2005696296691895, "lat": 51.643287658691406}}, {"xid": "W23148607", "name": "Tintern Abbey", "rate": 7, "osm": "way/23148607", "wikidata": "Q1439379", "kinds": "religion,architecture,historic_architecture,monasteries,interesting_places,destroyed_objects", "point": {"lon": -2.6767523288726807, "lat": 51.69694900512695}}, {"xid": "N1758984123", "name": "War Memorial", "rate": 7, "osm": "node/1758984123", "wikidata": "Q6901135", "kinds": "historic,burial_places,interesting_places,war_memorials", "point": {"lon": -2.711219310760498, "lat": 51.81308364868164}}, {"xid": "W167635379", "name": "Queens Head", "rate": 7, "osm": "way/167635379", "wikidata": "Q824346", "kinds": "guest_houses,architecture,historic_architecture,accomodations,interesting_places,pubs,foods,tourist_facilities,other_buildings_and_structures", "point": {"lon": -2.7115232944488525, "lat": 51.81220626831055}}, {"xid": "N1655253968", "name": "Kilpeck Castle", "rate": 7, "osm": "node/1655253968", "wikidata": "Q17640925", "kinds": "architecture,historic_architecture,fortifications,historic,interesting_places,destroyed_objects,castles", "point": {"lon": -2.810515880584717, "lat": 51.96998596191406}}, {"xid": "W692303801", "name": "Kilpeck Inn", "rate": 7, "osm": "way/692303801", "wikidata": "Q17640925", "kinds": "architecture,historic_architecture,fortifications,historic,interesting_places,castles,pubs,foods,tourist_facilities,other_buildings_and_structures", "point": {"lon": -2.8073337078094482, "lat": 51.9691276550293}}, {"xid": "N430018696", "name": "Ariconium", "rate": 7, "osm": "node/430018696", "wikidata": "Q4790311", "kinds": "historical_places,historic,archaeology,interesting_places,other_archaeological_sites,historic_settlements", "point": {"lon": -2.517426013946533, "lat": 51.91234588623047}}, {"xid": "W688224690", "name": "All Saints", "rate": 7, "osm": "way/688224690", "wikidata": "Q17530329", "kinds": "religion,churches,interesting_places,other_churches", "point": {"lon": -2.5924556255340576, "lat": 51.986297607421875}}, {"xid": "R5952350", "name": "Marling School", "rate": 7, "osm": "relation/5952350", "wikidata": "Q6771875", "kinds": "architecture,historic_architecture,interesting_places,other_buildings_and_structures", "point": {"lon": -2.2359659671783447, "lat": 51.74378204345703}}, {"xid": "W32197348", "name": "Brockworth Court", "rate": 7, "osm": "way/32197348", "wikidata": "Q17538547", "kinds": "architecture,historic_architecture,accomodations,interesting_places,manor_houses,other_hotels,farms", "point": {"lon": -2.158953905105591, "lat": 51.85187911987305}}, {"xid": "W415135455", "name": "Odda's Chapel", "rate": 7, "osm": "way/415135455", "wikidata": "Q7077455", "kinds": "religion,churches,interesting_places,other_churches", "point": {"lon": -2.1918528079986572, "lat": 51.966957092285156}}, {"xid": "N1797291179", "name": "Devizes Castle", "rate": 7, "osm": "node/1797291179", "wikidata": "Q5267588", "kinds": "fortifications,historic,interesting_places,castles", "point": {"lon": -1.9977545738220215, "lat": 51.351009368896484}}, {"xid": "W23102182", "name": "Marlborough College", "rate": 7, "osm": "way/23102182", "wikidata": "Q1902016", "kinds": "architecture,historic_architecture,interesting_places,other_buildings_and_structures", "point": {"lon": -1.7366522550582886, "lat": 51.415775299072266}}, {"xid": "N3192344907", "name": "Town & Manor of Hungerford", "rate": 7, "osm": "node/3192344907", "wikidata": "Q26505643", "kinds": "architecture,historic_architecture,interesting_places,other_buildings_and_structures", "point": {"lon": -1.5157536268234253, "lat": 51.41478729248047}}, {"xid": "N3192344903", "name": "Hungerford Town Council", "rate": 7, "osm": "node/3192344903", "wikidata": "Q26505643", "kinds": "architecture,historic_architecture,interesting_places,other_buildings_and_structures", "point": {"lon": -1.5155131816864014, "lat": 51.41533660888672}}, {"xid": "W349634594", "name": "Wayland's Smithy", "rate": 7, "osm": "way/349634594", "wikidata": "Q2553002", "kinds": "tumuluses,megaliths,historic,archaeology,burial_places,interesting_places", "point": {"lon": -1.596146583557129, "lat": 51.56678009033203}}, {"xid": "R12378110", "name": "153-159 Fairview Road", "rate": 7, "osm": "relation/12378110", "wikidata": "Q19869645", "kinds": "architecture,historic_architecture,interesting_places,other_buildings_and_structures", "point": {"lon": -2.0661370754241943, "lat": 51.89961624145508}}, {"xid": "N434196812", "name": "Toddington Manor", "rate": 7, "osm": "node/434196812", "wikidata": "Q7812737", "kinds": "architecture,historic_architecture,interesting_places,manor_houses", "point": {"lon": -1.9485582113265991, "lat": 51.9981689453125}}, {"xid": "W163315805", "name": "Chastleton House", "rate": 7, "osm": "way/163315805", "wikidata": "Q5087457", "kinds": "biographical_museums,historic_house_museums,cultural,museums,interesting_places,history_museums", "point": {"lon": -1.6401664018630981, "lat": 51.959693908691406}}, {"xid": "W266618325", "name": "Saint Mary", "rate": 7, "osm": "way/266618325", "wikidata": "Q7594298", "kinds": "religion,churches,interesting_places,other_churches", "point": {"lon": -1.6395760774612427, "lat": 51.959537506103516}}, {"xid": "W151227575", "name": "Wolverton Manor", "rate": 7, "osm": "way/151227575", "wikidata": "Q8030561", "kinds": "architecture,historic_architecture,interesting_places,manor_houses", "point": {"lon": -1.360940933227539, "lat": 50.639896392822266}}, {"xid": "N1636360947", "name": "Swainston Manor", "rate": 7, "osm": "node/1636360947", "wikidata": "Q7653046", "kinds": "architecture,historic_architecture,accomodations,interesting_places,manor_houses,other_hotels", "point": {"lon": -1.3767727613449097, "lat": 50.6883544921875}}, {"xid": "W444754634", "name": "Great East Standen Manor", "rate": 7, "osm": "way/444754634", "wikidata": "Q5599089", "kinds": "architecture,historic_architecture,interesting_places,manor_houses,farms", "point": {"lon": -1.2586734294891357, "lat": 50.68111801147461}}, {"xid": "W166079215", "name": "St Peters", "rate": 7, "osm": "way/166079215", "wikidata": "Q7591327", "kinds": "religion,churches,interesting_places,other_churches", "point": {"lon": -1.2063428163528442, "lat": 50.70964813232422}}, {"xid": "R1705919", "name": "Bembridge Fort", "rate": 7, "osm": "relation/1705919", "wikidata": "Q4885077", "kinds": "fortifications,historic,interesting_places,other_fortifications", "point": {"lon": -1.1174116134643555, "lat": 50.671051025390625}}, {"xid": "W428700966", "name": "Holy Cross Church", "rate": 7, "osm": "way/428700966", "wikidata": "Q5885108", "kinds": "religion,churches,interesting_places,other_churches", "point": {"lon": -1.1853077411651611, "lat": 50.731910705566406}}, {"xid": "N2291125601", "name": "Gosport Railway Station", "rate": 7, "osm": "node/2291125601", "wikidata": "Q5587450", "kinds": "railway_stations,industrial_facilities,abandoned_railway_stations,interesting_places", "point": {"lon": -1.1292686462402344, "lat": 50.79783248901367}}, {"xid": "W26920905", "name": "Netley Abbey", "rate": 7, "osm": "way/26920905", "wikidata": "Q846514", "kinds": "religion,architecture,historic_architecture,monasteries,interesting_places,destroyed_objects", "point": {"lon": -1.357016682624817, "lat": 50.87849426269531}}, {"xid": "N3594295499", "name": "God's house tower", "rate": 7, "osm": "node/3594295499", "wikidata": "Q12058728", "kinds": "architecture,towers,fortifications,defensive_walls,historic,interesting_places,other_towers", "point": {"lon": -1.4028841257095337, "lat": 50.896270751953125}}, {"xid": "N585219451", "name": "Bargate Street", "rate": 7, "osm": "node/585219451", "wikidata": "Q4860547", "kinds": "fortifications,defensive_walls,historic,interesting_places", "point": {"lon": -1.4053261280059814, "lat": 50.90262222290039}}, {"xid": "W481236778", "name": "St Anne's Church", "rate": 7, "osm": "way/481236778", "wikidata": "Q7592457", "kinds": "religion,churches,interesting_places,other_churches", "point": {"lon": -1.1049662828445435, "lat": 50.80123519897461}}, {"xid": "W778508091", "name": "St James Church and community hall.", "rate": 7, "osm": "way/778508091", "wikidata": "Q7593425", "kinds": "religion,churches,interesting_places,other_churches", "point": {"lon": -0.8325444459915161, "lat": 50.796600341796875}}, {"xid": "R5527857", "name": "Goodwood", "rate": 7, "osm": "relation/5527857", "wikidata": "Q1537630", "kinds": "biographical_museums,historic_house_museums,cultural,museums,interesting_places,history_museums", "point": {"lon": -0.7583854794502258, "lat": 50.85954284667969}}, {"xid": "W671921573", "name": "St John the Baptist, Westbourne", "rate": 7, "osm": "way/671921573", "wikidata": "Q7593741", "kinds": "religion,churches,interesting_places,other_churches", "point": {"lon": -0.9278116822242737, "lat": 50.86038589477539}}, {"xid": "N601733541", "name": "Harrow Inn", "rate": 7, "osm": "node/601733541", "wikidata": "Q18160160", "kinds": "guest_houses,architecture,historic_architecture,accomodations,interesting_places,pubs,foods,tourist_facilities,other_buildings_and_structures", "point": {"lon": -0.9302789568901062, "lat": 51.02050018310547}}, {"xid": "W360735097", "name": "All Saints Church", "rate": 7, "osm": "way/360735097", "wikidata": "Q4729305", "kinds": "religion,churches,interesting_places,other_churches", "point": {"lon": -0.9803026914596558, "lat": 51.145484924316406}}, {"xid": "N264944575", "name": "Coates", "rate": 7, "osm": "node/264944575", "wikidata": "Q5138610", "kinds": "historical_places,historic,interesting_places,historic_settlements", "point": {"lon": -0.5802029371261597, "lat": 50.952301025390625}}, {"xid": "N331244779", "name": "High Salvington Windmill", "rate": 7, "osm": "node/331244779", "wikidata": "Q15979008", "kinds": "industrial_facilities,mills,historic,monuments_and_memorials,interesting_places,monuments", "point": {"lon": -0.4065459966659546, "lat": 50.84862518310547}}, {"xid": "W44109437", "name": "Wiston House", "rate": 7, "osm": "way/44109437", "wikidata": "Q17379903", "kinds": "architecture,historic_architecture,interesting_places,manor_houses", "point": {"lon": -0.358979195356369, "lat": 50.899742126464844}}, {"xid": "W936107772", "name": "The Fountain", "rate": 7, "osm": "way/936107772", "wikidata": "Q8565023", "kinds": "guest_houses,architecture,historic_architecture,accomodations,interesting_places,pubs,foods,tourist_facilities,other_buildings_and_structures", "point": {"lon": -0.32205626368522644, "lat": 50.9326171875}}, {"xid": "W96651243", "name": "West Pier", "rate": 7, "osm": "way/96651243", "wikidata": "Q3081510", "kinds": "architecture,historic_architecture,interesting_places,destroyed_objects", "point": {"lon": -0.15200749039649963, "lat": 50.81899642944336}}, {"xid": "W359757474", "name": "St Pancras", "rate": 7, "osm": "way/359757474", "wikidata": "Q15979466", "kinds": "religion,churches,interesting_places,other_churches", "point": {"lon": -0.024442624300718307, "lat": 50.85630416870117}}, {"xid": "N6745947210", "name": "Plumpton", "rate": 7, "osm": "node/6745947210", "wikidata": "Q7205476", "kinds": "railway_stations,industrial_facilities,interesting_places", "point": {"lon": -0.05980994924902916, "lat": 50.928462982177734}}, {"xid": "W676324975", "name": "King Edward's School", "rate": 7, "osm": "way/676324975", "wikidata": "Q6411462", "kinds": "architecture,historic_architecture,interesting_places,other_buildings_and_structures", "point": {"lon": -0.6486636996269226, "lat": 51.138431549072266}}, {"xid": "R10549952", "name": "St Augustine's Abbey Benedictine Monastery", "rate": 7, "osm": "relation/10549952", "wikidata": "Q15979518", "kinds": "religion,monasteries,interesting_places", "point": {"lon": -0.5256074070930481, "lat": 51.20884704589844}}, {"xid": "W328625081", "name": "Our Lady of Consolation", "rate": 7, "osm": "way/328625081", "wikidata": "Q38251053", "kinds": "religion,churches,interesting_places,other_churches", "point": {"lon": -0.32459983229637146, "lat": 50.977745056152344}}, {"xid": "N6033800915", "name": "Brantridge Park", "rate": 7, "osm": "node/6033800915", "wikidata": "Q2547961", "kinds": "fortifications,historical_places,historic,interesting_places,castles,historic_settlements", "point": {"lon": -0.16362954676151276, "lat": 51.057281494140625}}, {"xid": "N4871665581", "name": "Box Hill & Westhumble", "rate": 7, "osm": "node/4871665581", "wikidata": "Q4951526", "kinds": "railway_stations,industrial_facilities,interesting_places", "point": {"lon": -0.328677773475647, "lat": 51.25398635864258}}, {"xid": "N5914752635", "name": "Bussock Camp", "rate": 7, "osm": "node/5914752635", "wikidata": "Q5002047", "kinds": "fortifications,historic,monuments_and_memorials,archaeology,interesting_places,other_archaeological_sites,hillforts,monuments", "point": {"lon": -1.329149603843689, "lat": 51.44890594482422}}, {"xid": "N9768081", "name": "Culham", "rate": 7, "osm": "node/9768081", "wikidata": "Q2740729", "kinds": "railway_stations,industrial_facilities,interesting_places", "point": {"lon": -1.2365831136703491, "lat": 51.653892517089844}}, {"xid": "N340020241", "name": "Wallingford Castle", "rate": 7, "osm": "node/340020241", "wikidata": "Q1632423", "kinds": "fortifications,historic,archaeology,interesting_places,castles,other_archaeological_sites", "point": {"lon": -1.1214030981063843, "lat": 51.6025276184082}}, {"xid": "N14099055", "name": "George Palmer", "rate": 7, "osm": "node/14099055", "wikidata": "Q20712276", "kinds": "historic,monuments_and_memorials,cultural,urban_environment,interesting_places,sculptures,monuments", "point": {"lon": -0.9386156797409058, "lat": 51.451942443847656}}, {"xid": "W765683470", "name": "St Peter & St Paul", "rate": 7, "osm": "way/765683470", "wikidata": "Q7595367", "kinds": "religion,churches,interesting_places,other_churches", "point": {"lon": -1.045015811920166, "lat": 51.54235076904297}}, {"xid": "W318532487", "name": "Hambleden Mill", "rate": 7, "osm": "way/318532487", "wikidata": "Q5644216", "kinds": "industrial_facilities,mills,interesting_places", "point": {"lon": -0.8697667717933655, "lat": 51.55880355834961}}, {"xid": "W123257499", "name": "St Thomas the Martyr", "rate": 7, "osm": "way/123257499", "wikidata": "Q7595583", "kinds": "religion,churches,interesting_places,other_churches", "point": {"lon": -1.2683809995651245, "lat": 51.751773834228516}}, {"xid": "W9057465", "name": "Wolfson College", "rate": 7, "osm": "way/9057465", "wikidata": "Q2007225", "kinds": "architecture,historic_architecture,interesting_places,other_buildings_and_structures", "point": {"lon": -1.2536170482635498, "lat": 51.7711067199707}}, {"xid": "W135110035", "name": "St.Michael and All Angels", "rate": 7, "osm": "way/135110035", "wikidata": "Q26413111", "kinds": "religion,churches,interesting_places,other_churches", "point": {"lon": -0.6501911282539368, "lat": 51.408817291259766}}, {"xid": "W157385920", "name": "Saint Mary Magdalene's Church", "rate": 7, "osm": "way/157385920", "wikidata": "Q166915", "kinds": "religion,churches,interesting_places,other_churches", "point": {"lon": -0.6474357843399048, "lat": 51.49028015136719}}, {"xid": "W49264083", "name": "Saint Michael's", "rate": 7, "osm": "way/49264083", "wikidata": "Q17361839", "kinds": "religion,churches,interesting_places,other_churches", "point": {"lon": -0.7021276354789734, "lat": 51.50911331176758}}, {"xid": "W559262688", "name": "Headstone Manor", "rate": 7, "osm": "way/559262688", "wikidata": "Q5690053", "kinds": "biographical_museums,historic_house_museums,architecture,historic_architecture,cultural,museums,interesting_places,manor_houses,history_museums", "point": {"lon": -0.3542185127735138, "lat": 51.594703674316406}}, {"xid": "W225337351", "name": "Bushey Rose Garden", "rate": 7, "osm": "way/225337351", "wikidata": "Q56277919", "kinds": "urban_environment,gardens_and_parks,cultural,interesting_places", "point": {"lon": -0.36050423979759216, "lat": 51.644065856933594}}, {"xid": "W345371355", "name": "St Michael's Fulwell", "rate": 7, "osm": "way/345371355", "wikidata": "Q20876369", "kinds": "religion,churches,interesting_places,other_churches", "point": {"lon": -0.3477455973625183, "lat": 51.43351364135742}}, {"xid": "W28410119", "name": "Ham House", "rate": 7, "osm": "way/28410119", "wikidata": "Q1572552", "kinds": "biographical_museums,historic_house_museums,cultural,museums,interesting_places,history_museums", "point": {"lon": -0.31404054164886475, "lat": 51.444236755371094}}, {"xid": "N419830270", "name": "The New Inn", "rate": 7, "osm": "node/419830270", "wikidata": "Q26355850", "kinds": "architecture,historic_architecture,interesting_places,pubs,foods,tourist_facilities,other_buildings_and_structures", "point": {"lon": -0.3050554692745209, "lat": 51.436180114746094}}, {"xid": "W852424587", "name": "St Michael", "rate": 7, "osm": "way/852424587", "wikidata": "Q26533705", "kinds": "religion,churches,interesting_places,other_churches", "point": {"lon": -0.2718103528022766, "lat": 51.487342834472656}}, {"xid": "N6023272581", "name": "Chiswick", "rate": 7, "osm": "node/6023272581", "wikidata": "Q2135035", "kinds": "railway_stations,industrial_facilities,interesting_places", "point": {"lon": -0.268175333738327, "lat": 51.48114776611328}}, {"xid": "W332723845", "name": "The Salutation", "rate": 7, "osm": "way/332723845", "wikidata": "Q15979280", "kinds": "architecture,historic_architecture,interesting_places,pubs,foods,tourist_facilities,other_buildings_and_structures", "point": {"lon": -0.23321668803691864, "lat": 51.4929313659668}}, {"xid": "N320788563", "name": "Swan", "rate": 7, "osm": "node/320788563", "wikidata": "Q15979572", "kinds": "architecture,historic_architecture,interesting_places,pubs,foods,tourist_facilities,other_buildings_and_structures", "point": {"lon": -0.22499077022075653, "lat": 51.49299621582031}}, {"xid": "W80693041", "name": "Gloucester Road Station", "rate": 7, "osm": "way/80693041", "wikidata": "Q1431088", "kinds": "railway_stations,industrial_facilities,interesting_places", "point": {"lon": -0.18288648128509521, "lat": 51.49435043334961}}, {"xid": "N6411992668", "name": "Gloucester Road", "rate": 7, "osm": "node/6411992668", "wikidata": "Q1431088", "kinds": "railway_stations,industrial_facilities,interesting_places", "point": {"lon": -0.18376965820789337, "lat": 51.49452590942383}}, {"xid": "N7839578185", "name": "Three Standing Figures", "rate": 7, "osm": "node/7839578185", "wikidata": "Q19691893", "kinds": "historic,monuments_and_memorials,urban_environment,cultural,interesting_places,sculptures,monuments", "point": {"lon": -0.15691061317920685, "lat": 51.47813034057617}}, {"xid": "N25524252", "name": "Blewcoat School", "rate": 7, "osm": "node/25524252", "wikidata": "Q4926413", "kinds": "architecture,historic_architecture,interesting_places,other_buildings_and_structures", "point": {"lon": -0.1360645592212677, "lat": 51.498294830322266}}, {"xid": "N6894060585", "name": "viewpoint for Buckingham Palace", "rate": 7, "osm": "node/6894060585", "wikidata": "Q42182", "kinds": "view_points,other,biographical_museums,historic_house_museums,palaces,architecture,historic_architecture,cultural,museums,interesting_places,history_museums", "point": {"lon": -0.1406744420528412, "lat": 51.501739501953125}}, {"xid": "W503405904", "name": "The Duke of Edinburgh", "rate": 7, "osm": "way/503405904", "wikidata": "Q21008652", "kinds": "architecture,historic_architecture,interesting_places,pubs,foods,tourist_facilities,other_buildings_and_structures", "point": {"lon": -0.12002209573984146, "lat": 51.463279724121094}}, {"xid": "N381106509", "name": "The Buxton Memorial", "rate": 7, "osm": "node/381106509", "wikidata": "Q2920532", "kinds": "historic,monuments_and_memorials,burial_places,urban_environment,cultural,interesting_places,other_burial_places,sculptures,monuments", "point": {"lon": -0.12474355101585388, "lat": 51.49616622924805}}, {"xid": "N59598355", "name": "The Cenotaph", "rate": 7, "osm": "node/59598355", "wikidata": "Q2896743", "kinds": "historic,monuments_and_memorials,burial_places,interesting_places,war_memorials,monuments", "point": {"lon": -0.12608666718006134, "lat": 51.50267028808594}}, {"xid": "N264797744", "name": "Old Red Lion", "rate": 7, "osm": "node/264797744", "wikidata": "Q17361860", "kinds": "architecture,historic_architecture,interesting_places,pubs,foods,tourist_facilities,other_buildings_and_structures", "point": {"lon": -0.10511807352304459, "lat": 51.489410400390625}}, {"xid": "N5883033865", "name": "Ladywell", "rate": 7, "osm": "node/5883033865", "wikidata": "Q2703794", "kinds": "railway_stations,industrial_facilities,interesting_places", "point": {"lon": -0.019191749393939972, "lat": 51.456024169921875}}, {"xid": "N565576232", "name": "New Zealand War Memorial", "rate": 7, "osm": "node/565576232", "wikidata": "Q19911519", "kinds": "historic,monuments_and_memorials,burial_places,urban_environment,cultural,interesting_places,war_memorials,sculptures,monuments", "point": {"lon": -0.009104212746024132, "lat": 51.48329544067383}}, {"xid": "W567265579", "name": "St Anne's Church", "rate": 7, "osm": "way/567265579", "wikidata": "Q7592480", "kinds": "religion,churches,interesting_places,other_churches", "point": {"lon": -0.13215050101280212, "lat": 51.512428283691406}}, {"xid": "N302168201", "name": "Acton Hill Church", "rate": 7, "osm": "node/302168201", "wikidata": "Q20665592", "kinds": "religion,churches,interesting_places,other_churches", "point": {"lon": -0.2756745517253876, "lat": 51.50813293457031}}, {"xid": "W300142285", "name": "Willesden Jewish Cemetery", "rate": 7, "osm": "way/300142285", "wikidata": "Q8003686", "kinds": "cemeteries,historic,burial_places,interesting_places", "point": {"lon": -0.24024946987628937, "lat": 51.54536819458008}}, {"xid": "N7499996604", "name": "Windsor Castle", "rate": 7, "osm": "node/7499996604", "wikidata": "Q15979613", "kinds": "architecture,historic_architecture,interesting_places,pubs,foods,tourist_facilities,other_buildings_and_structures", "point": {"lon": -0.19865702092647552, "lat": 51.506290435791016}}, {"xid": "N2998618605", "name": "Monken Hadley Common", "rate": 7, "osm": "node/2998618605", "wikidata": "Q27628300", "kinds": "historic,burial_places,interesting_places,war_memorials", "point": {"lon": -0.19300241768360138, "lat": 51.66102981567383}}, {"xid": "N8919527817", "name": "Monken Hadley War Memorial", "rate": 7, "osm": "node/8919527817", "wikidata": "Q27628300", "kinds": "historic,monuments_and_memorials,burial_places,interesting_places,war_memorials,monuments", "point": {"lon": -0.19228123128414154, "lat": 51.66201400756836}}, {"xid": "N5502341064", "name": "Florence Nightingale the 'Lady with the Lamp'", "rate": 7, "osm": "node/5502341064", "wikidata": "Q25311639", "kinds": "historic,monuments_and_memorials,urban_environment,cultural,interesting_places,sculptures,monuments", "point": {"lon": -0.13266687095165253, "lat": 51.50727844238281}}, {"xid": "N3060893053", "name": "The Royal Academy of Arts, Sackler Wing", "rate": 7, "osm": "node/3060893053", "wikidata": "Q270920", "kinds": "urban_environment,cultural,museums,interesting_places,installation,art_galleries", "point": {"lon": -0.14028510451316833, "lat": 51.509864807128906}}, {"xid": "W147991515", "name": "Saint Marylebone Parish Church Gardens", "rate": 7, "osm": "way/147991515", "wikidata": "Q211300", "kinds": "religion,churches,urban_environment,gardens_and_parks,cultural,interesting_places,other_churches", "point": {"lon": -0.1517564058303833, "lat": 51.52256393432617}}, {"xid": "N1427422092", "name": "Joseph Lister Monument", "rate": 7, "osm": "node/1427422092", "wikidata": "Q21541736", "kinds": "historic,monuments_and_memorials,burial_places,urban_environment,cultural,interesting_places,other_burial_places,sculptures,monuments", "point": {"lon": -0.14599402248859406, "lat": 51.522422790527344}}, {"xid": "N6414039764", "name": "Great Portland Street", "rate": 7, "osm": "node/6414039764", "wikidata": "Q946924", "kinds": "railway_stations,industrial_facilities,interesting_places", "point": {"lon": -0.1437048316001892, "lat": 51.5238151550293}}, {"xid": "W43015799", "name": "Saint Mark's", "rate": 7, "osm": "way/43015799", "wikidata": "Q27084451", "kinds": "religion,churches,interesting_places,other_churches", "point": {"lon": -0.1522107720375061, "lat": 51.537872314453125}}, {"xid": "N5585857405", "name": "Chalk Farm", "rate": 7, "osm": "node/5585857405", "wikidata": "Q599135", "kinds": "railway_stations,industrial_facilities,interesting_places", "point": {"lon": -0.1534811556339264, "lat": 51.54411315917969}}, {"xid": "N6096561898", "name": "Chalk Farm", "rate": 7, "osm": "node/6096561898", "wikidata": "Q599135", "kinds": "railway_stations,industrial_facilities,interesting_places", "point": {"lon": -0.1535933017730713, "lat": 51.54396438598633}}, {"xid": "W28416499", "name": "Freemasons' Hall", "rate": 7, "osm": "way/28416499", "wikidata": "Q1453586", "kinds": "cultural,museums,interesting_places,other_museums", "point": {"lon": -0.12079695612192154, "lat": 51.515296936035156}}, {"xid": "W151297138", "name": "Guards Memorial", "rate": 7, "osm": "way/151297138", "wikidata": "Q18160093", "kinds": "historic,monuments_and_memorials,burial_places,urban_environment,cultural,interesting_places,war_memorials,sculptures,monuments", "point": {"lon": -0.12951704859733582, "lat": 51.504459381103516}}, {"xid": "N305760823", "name": "The White Swan", "rate": 7, "osm": "node/305760823", "wikidata": "Q18393967", "kinds": "architecture,historic_architecture,interesting_places,pubs,foods,tourist_facilities,other_buildings_and_structures", "point": {"lon": -0.12552835047245026, "lat": 51.511104583740234}}, {"xid": "N25507022", "name": "Anglo-Belgian War Memorial", "rate": 7, "osm": "node/25507022", "wikidata": "Q18562303", "kinds": "historic,monuments_and_memorials,burial_places,urban_environment,cultural,interesting_places,war_memorials,sculptures,monuments", "point": {"lon": -0.12074177712202072, "lat": 51.5086555480957}}, {"xid": "W55976523", "name": "Central Saint Martins College of Art & Design", "rate": 7, "osm": "way/55976523", "wikidata": "Q15208489", "kinds": "architecture,historic_architecture,interesting_places,other_buildings_and_structures", "point": {"lon": -0.1202247217297554, "lat": 51.51884078979492}}, {"xid": "W126469807", "name": "The Guild Church of Saint Lawrence Jewry", "rate": 7, "osm": "way/126469807", "wikidata": "Q11704046", "kinds": "religion,churches,interesting_places,other_churches", "point": {"lon": -0.09238769859075546, "lat": 51.5152587890625}}, {"xid": "N7159162454", "name": "London King's Cross", "rate": 7, "osm": "node/7159162454", "wikidata": "Q219867", "kinds": "railway_stations,industrial_facilities,interesting_places", "point": {"lon": -0.1230224072933197, "lat": 51.53239440917969}}, {"xid": "W116464583", "name": "Highgate Cemetery", "rate": 7, "osm": "way/116464583", "wikidata": "Q533697", "kinds": "cemeteries,historic,burial_places,interesting_places", "point": {"lon": -0.14468179643154144, "lat": 51.565128326416016}}, {"xid": "N5482891929", "name": "Belsize Park", "rate": 7, "osm": "node/5482891929", "wikidata": "Q604060", "kinds": "railway_stations,industrial_facilities,interesting_places", "point": {"lon": -0.16461466252803802, "lat": 51.55030822753906}}, {"xid": "N4008243799", "name": "Highgate Cemetery Tours", "rate": 7, "osm": "node/4008243799", "wikidata": "Q533697", "kinds": "cemeteries,historic,burial_places,interesting_places", "point": {"lon": -0.14623475074768066, "lat": 51.56692886352539}}, {"xid": "N5482915472", "name": "Holloway Road", "rate": 7, "osm": "node/5482915472", "wikidata": "Q1624885", "kinds": "railway_stations,industrial_facilities,interesting_places", "point": {"lon": -0.11300955712795258, "lat": 51.5528678894043}}, {"xid": "W533228529", "name": "The Great Northern Railway Tavern", "rate": 7, "osm": "way/533228529", "wikidata": "Q17361849", "kinds": "architecture,historic_architecture,interesting_places,pubs,foods,tourist_facilities,other_buildings_and_structures", "point": {"lon": -0.116234190762043, "lat": 51.58810806274414}}, {"xid": "N259253467", "name": "The Ship", "rate": 7, "osm": "node/259253467", "wikidata": "Q26488103", "kinds": "architecture,historic_architecture,interesting_places,pubs,foods,tourist_facilities,other_buildings_and_structures", "point": {"lon": -0.08475818485021591, "lat": 51.511070251464844}}, {"xid": "W55421654", "name": "London Wall", "rate": 7, "osm": "way/55421654", "wikidata": "Q17645587", "kinds": "architecture,historic_architecture,fortifications,defensive_walls,historic,interesting_places,destroyed_objects", "point": {"lon": -0.07599414885044098, "lat": 51.50981521606445}}, {"xid": "W191304271", "name": "Poplar Public Baths", "rate": 7, "osm": "way/191304271", "wikidata": "Q7229378", "kinds": "sport,architecture,historic_architecture,interesting_places,pools,other_buildings_and_structures", "point": {"lon": -0.013849551789462566, "lat": 51.51074981689453}}, {"xid": "W59753592", "name": "St. Andrew's Church", "rate": 7, "osm": "way/59753592", "wikidata": "Q22313063", "kinds": "religion,churches,interesting_places,other_churches", "point": {"lon": -0.13220493495464325, "lat": 51.633872985839844}}, {"xid": "N5714876747", "name": "Ordnance Survey Obelisk", "rate": 7, "osm": "node/5714876747", "wikidata": "Q26318657", "kinds": "historic,monuments_and_memorials,urban_environment,cultural,interesting_places,sculptures,monuments", "point": {"lon": -0.0015651104040443897, "lat": 51.636329650878906}}, {"xid": "W78390091", "name": "St Mary The Virgin, Great Brickhill", "rate": 7, "osm": "way/78390091", "wikidata": "Q7590556", "kinds": "religion,churches,interesting_places,other_churches", "point": {"lon": -0.6896405220031738, "lat": 51.96823501586914}}, {"xid": "W88742365", "name": "St Nicholas", "rate": 7, "osm": "way/88742365", "wikidata": "Q5117653", "kinds": "religion,churches,interesting_places,other_churches", "point": {"lon": -0.5348209738731384, "lat": 51.981239318847656}}, {"xid": "W966535578", "name": "The Duke of York", "rate": 7, "osm": "way/966535578", "wikidata": "Q26397583", "kinds": "architecture,historic_architecture,interesting_places,pubs,foods,tourist_facilities,other_buildings_and_structures", "point": {"lon": -0.18715567886829376, "lat": 51.68152618408203}}, {"xid": "W487402590", "name": "Parish Church of Saint Helen", "rate": 7, "osm": "way/487402590", "wikidata": "Q7593320", "kinds": "cemeteries,religion,historic,churches,burial_places,interesting_places,other_churches", "point": {"lon": -0.2946119010448456, "lat": 51.812435150146484}}, {"xid": "W494420441", "name": "St George's Church", "rate": 7, "osm": "way/494420441", "wikidata": "Q26258377", "kinds": "religion,churches,interesting_places,other_churches", "point": {"lon": -0.22093597054481506, "lat": 51.98723220825195}}, {"xid": "W61749993", "name": "Knebworth House", "rate": 7, "osm": "way/61749993", "wikidata": "Q19841", "kinds": "biographical_museums,historic_house_museums,cultural,museums,interesting_places,history_museums", "point": {"lon": -0.21481367945671082, "lat": 51.87285232543945}}, {"xid": "W110453712", "name": "St Andrew", "rate": 7, "osm": "way/110453712", "wikidata": "Q7592329", "kinds": "religion,churches,interesting_places,other_churches", "point": {"lon": -0.023133348673582077, "lat": 51.98658752441406}}, {"xid": "N429144049", "name": "Sutton Walls (camp)", "rate": 7, "osm": "node/429144049", "wikidata": "Q7650343", "kinds": "fortifications,historic,monuments_and_memorials,archaeology,interesting_places,other_archaeological_sites,hillforts,monuments", "point": {"lon": -2.6950652599334717, "lat": 52.1137809753418}}, {"xid": "W659502685", "name": "St Bartholomew", "rate": 7, "osm": "way/659502685", "wikidata": "Q7592610", "kinds": "religion,churches,interesting_places,other_churches", "point": {"lon": -2.75810170173645, "lat": 52.328189849853516}}, {"xid": "N297476167", "name": "Ludlow Methodist Church", "rate": 7, "osm": "node/297476167", "wikidata": "Q7593931", "kinds": "religion,churches,interesting_places,other_churches", "point": {"lon": -2.718876600265503, "lat": 52.36670684814453}}, {"xid": "W69476612", "name": "Croome Court", "rate": 7, "osm": "way/69476612", "wikidata": "Q4242143", "kinds": "biographical_museums,historic_house_museums,cultural,museums,interesting_places,history_museums", "point": {"lon": -2.1694934368133545, "lat": 52.09963607788086}}, {"xid": "W258703540", "name": "Spetchley Hall", "rate": 7, "osm": "way/258703540", "wikidata": "Q7576438", "kinds": "architecture,historic_architecture,interesting_places,manor_houses", "point": {"lon": -2.1545047760009766, "lat": 52.183074951171875}}, {"xid": "W109187564", "name": "St Michael's, Churchill", "rate": 7, "osm": "way/109187564", "wikidata": "Q7594755", "kinds": "religion,churches,interesting_places,other_churches", "point": {"lon": -2.1143014430999756, "lat": 52.180110931396484}}, {"xid": "W456610839", "name": "Wilderhope Farm", "rate": 7, "osm": "way/456610839", "wikidata": "Q8001111", "kinds": "architecture,historic_architecture,accomodations,interesting_places,manor_houses,hostels,farms", "point": {"lon": -2.672808885574341, "lat": 52.53140640258789}}, {"xid": "W43164504", "name": "Wilderhope Manor", "rate": 7, "osm": "way/43164504", "wikidata": "Q8001111", "kinds": "manor_houses,accomodations,hostels,interesting_places,architecture,historic_architecture", "point": {"lon": -2.6718106269836426, "lat": 52.531883239746094}}, {"xid": "W356571150", "name": "Shrewsbury Bus Station", "rate": 7, "osm": "way/356571150", "wikidata": "Q1911181", "kinds": "railway_stations,industrial_facilities,interesting_places", "point": {"lon": -2.752438545227051, "lat": 52.710750579833984}}, {"xid": "N5071836748", "name": "Shrewsbury", "rate": 7, "osm": "node/5071836748", "wikidata": "Q1911181", "kinds": "railway_stations,industrial_facilities,interesting_places", "point": {"lon": -2.7494044303894043, "lat": 52.711849212646484}}, {"xid": "W816570431", "name": "St Giles", "rate": 7, "osm": "way/816570431", "wikidata": "Q7593259", "kinds": "religion,churches,interesting_places,other_churches", "point": {"lon": -2.506438970565796, "lat": 52.596561431884766}}, {"xid": "W278777475", "name": "Old Swinford Hospital School", "rate": 7, "osm": "way/278777475", "wikidata": "Q7085171", "kinds": "architecture,historic_architecture,interesting_places,other_buildings_and_structures", "point": {"lon": -2.144658088684082, "lat": 52.45075225830078}}, {"xid": "W151034446", "name": "Hanbury Hall", "rate": 7, "osm": "way/151034446", "wikidata": "Q5646978", "kinds": "biographical_museums,historic_house_museums,cultural,museums,interesting_places,history_museums", "point": {"lon": -2.0831809043884277, "lat": 52.271827697753906}}, {"xid": "W158013265", "name": "Old Thatch Tavern", "rate": 7, "osm": "way/158013265", "wikidata": "Q22004625", "kinds": "architecture,historic_architecture,interesting_places,pubs,foods,tourist_facilities,other_buildings_and_structures", "point": {"lon": -1.710402011871338, "lat": 52.192970275878906}}, {"xid": "W176382661", "name": "Holy Trinity Church", "rate": 7, "osm": "way/176382661", "wikidata": "Q5886537", "kinds": "religion,churches,interesting_places,other_churches", "point": {"lon": -1.5365015268325806, "lat": 52.295047760009766}}, {"xid": "W162593850", "name": "The Lad in the Lane", "rate": 7, "osm": "way/162593850", "wikidata": "Q6469209", "kinds": "architecture,historic_architecture,interesting_places,pubs,foods,tourist_facilities,other_buildings_and_structures", "point": {"lon": -1.8353785276412964, "lat": 52.514678955078125}}, {"xid": "R12940666", "name": "St Mary's Abbey", "rate": 7, "osm": "relation/12940666", "wikidata": "Q5641511", "kinds": "religion,architecture,historic_architecture,monasteries,interesting_places,destroyed_objects", "point": {"lon": -2.035905599594116, "lat": 52.44321823120117}}, {"xid": "W197635019", "name": "Priory Ruins", "rate": 7, "osm": "way/197635019", "wikidata": "Q5311953", "kinds": "religion,architecture,historic_architecture,monasteries,interesting_places,destroyed_objects", "point": {"lon": -2.0846121311187744, "lat": 52.51542282104492}}, {"xid": "W197635023", "name": "Dudley Priory Ruins", "rate": 7, "osm": "way/197635023", "wikidata": "Q5311953", "kinds": "religion,architecture,historic_architecture,monasteries,interesting_places,destroyed_objects", "point": {"lon": -2.0852653980255127, "lat": 52.51545715332031}}, {"xid": "N8378279820", "name": "Dudley Priory", "rate": 7, "osm": "node/8378279820", "wikidata": "Q5311953", "kinds": "religion,monasteries,interesting_places", "point": {"lon": -2.0848865509033203, "lat": 52.51544952392578}}, {"xid": "W197635020", "name": "Dudley Priory Ruins", "rate": 7, "osm": "way/197635020", "wikidata": "Q5311953", "kinds": "religion,architecture,historic_architecture,monasteries,interesting_places,destroyed_objects", "point": {"lon": -2.084834098815918, "lat": 52.5153923034668}}, {"xid": "W134640564", "name": "Great Barr Hall", "rate": 7, "osm": "way/134640564", "wikidata": "Q1544221", "kinds": "architecture,historic_architecture,interesting_places,destroyed_objects", "point": {"lon": -1.9208743572235107, "lat": 52.5562744140625}}, {"xid": "W58707040", "name": "St Edburgha's", "rate": 7, "osm": "way/58707040", "wikidata": "Q7592989", "kinds": "religion,churches,interesting_places,other_churches", "point": {"lon": -1.8026421070098877, "lat": 52.47453308105469}}, {"xid": "W168178453", "name": "The Church of St. Chad", "rate": 7, "osm": "way/168178453", "wikidata": "Q7592792", "kinds": "religion,churches,interesting_places,other_churches", "point": {"lon": -1.7407714128494263, "lat": 52.54872131347656}}, {"xid": "W25426858", "name": "Coventry Sports and Leisure", "rate": 7, "osm": "way/25426858", "wikidata": "Q26272795", "kinds": "architecture,historic_architecture,interesting_places,other_buildings_and_structures", "point": {"lon": -1.504625678062439, "lat": 52.409122467041016}}, {"xid": "W153455517", "name": "Bablake School", "rate": 7, "osm": "way/153455517", "wikidata": "Q4837957", "kinds": "architecture,historic_architecture,interesting_places,other_buildings_and_structures", "point": {"lon": -1.5206515789031982, "lat": 52.413909912109375}}, {"xid": "W193457121", "name": "Caludon Castle", "rate": 7, "osm": "way/193457121", "wikidata": "Q5024019", "kinds": "architecture,historic_architecture,fortifications,historic,archaeology,interesting_places,destroyed_objects,castles,other_archaeological_sites", "point": {"lon": -1.45166015625, "lat": 52.41802215576172}}, {"xid": "W833893012", "name": "St Michael & All Angels", "rate": 7, "osm": "way/833893012", "wikidata": "Q7594765", "kinds": "religion,churches,interesting_places,other_churches", "point": {"lon": -2.601994037628174, "lat": 52.752227783203125}}, {"xid": "N340524415", "name": "Cholmondeley Castle", "rate": 7, "osm": "node/340524415", "wikidata": "Q5104374", "kinds": "fortifications,historic,interesting_places,castles", "point": {"lon": -2.692981243133545, "lat": 53.05740737915039}}, {"xid": "W531169620", "name": "Saint James the Great", "rate": 7, "osm": "way/531169620", "wikidata": "Q7593424", "kinds": "religion,churches,interesting_places,other_churches", "point": {"lon": -2.5078513622283936, "lat": 52.9891357421875}}, {"xid": "N1642202473", "name": "Old Madeley Manor", "rate": 7, "osm": "node/1642202473", "wikidata": "Q6726977", "kinds": "architecture,historic_architecture,fortifications,historic,interesting_places,manor_houses,destroyed_objects,castles", "point": {"lon": -2.340080738067627, "lat": 52.97745132446289}}, {"xid": "W789341942", "name": "St John the Evangelist", "rate": 7, "osm": "way/789341942", "wikidata": "Q7593544", "kinds": "religion,churches,interesting_places,other_churches", "point": {"lon": -2.4443070888519287, "lat": 53.013126373291016}}, {"xid": "W789359277", "name": "St Chad's", "rate": 7, "osm": "way/789359277", "wikidata": "Q7592794", "kinds": "towers,religion,architecture,churches,interesting_places,other_towers,other_churches", "point": {"lon": -2.4543826580047607, "lat": 53.04544448852539}}, {"xid": "W882407470", "name": "All Saints Balterley", "rate": 7, "osm": "way/882407470", "wikidata": "Q4729441", "kinds": "religion,churches,interesting_places,other_churches", "point": {"lon": -2.3576676845550537, "lat": 53.05020523071289}}, {"xid": "N370148208", "name": "Bolesworth Castle", "rate": 7, "osm": "node/370148208", "wikidata": "Q4939213", "kinds": "fortifications,historic,interesting_places,castles", "point": {"lon": -2.755620241165161, "lat": 53.09899139404297}}, {"xid": "W165172061", "name": "St Boniface", "rate": 7, "osm": "way/165172061", "wikidata": "Q7592677", "kinds": "religion,churches,interesting_places,other_churches", "point": {"lon": -2.6452245712280273, "lat": 53.118263244628906}}, {"xid": "W198683570", "name": "Saint John The Evangelist, Kingsley", "rate": 7, "osm": "way/198683570", "wikidata": "Q7593783", "kinds": "religion,churches,interesting_places,other_churches", "point": {"lon": -2.6799428462982178, "lat": 53.27016830444336}}, {"xid": "W28035807", "name": "Halton Castle", "rate": 7, "osm": "way/28035807", "wikidata": "Q2301986", "kinds": "architecture,historic_architecture,fortifications,historic,interesting_places,destroyed_objects,castles", "point": {"lon": -2.695784568786621, "lat": 53.33319091796875}}, {"xid": "W456645076", "name": "St Nicholas Church", "rate": 7, "osm": "way/456645076", "wikidata": "Q17948158", "kinds": "religion,churches,interesting_places,other_churches", "point": {"lon": -2.8029215335845947, "lat": 53.40690231323242}}, {"xid": "N871783409", "name": "Saxon Crosses", "rate": 7, "osm": "node/871783409", "wikidata": "Q3003400", "kinds": "religion,other_temples,historic,monuments_and_memorials,urban_environment,cultural,interesting_places,sculptures,monuments", "point": {"lon": -2.3621020317077637, "lat": 53.14402389526367}}, {"xid": "W386522515", "name": "St James' Church, Gawsworth", "rate": 7, "osm": "way/386522515", "wikidata": "Q7593437", "kinds": "religion,churches,interesting_places,other_churches", "point": {"lon": -2.1660540103912354, "lat": 53.22414016723633}}, {"xid": "N4584254064", "name": "Macclesfield War Memorial", "rate": 7, "osm": "node/4584254064", "wikidata": "Q15979168", "kinds": "historic,monuments_and_memorials,burial_places,interesting_places,war_memorials,monuments", "point": {"lon": -2.1223561763763428, "lat": 53.255985260009766}}, {"xid": "W884754169", "name": "Warburton Old Church", "rate": 7, "osm": "way/884754169", "wikidata": "Q7595631", "kinds": "religion,churches,interesting_places,other_churches", "point": {"lon": -2.4573230743408203, "lat": 53.402137756347656}}, {"xid": "N307760946", "name": "Staircase House", "rate": 7, "osm": "node/307760946", "wikidata": "Q7597096", "kinds": "architecture,historic_architecture,interesting_places,other_buildings_and_structures", "point": {"lon": -2.156433343887329, "lat": 53.41163635253906}}, {"xid": "W304182508", "name": "Sandon Hall", "rate": 7, "osm": "way/304182508", "wikidata": "Q7416453", "kinds": "architecture,historic_architecture,interesting_places,manor_houses", "point": {"lon": -2.0657737255096436, "lat": 52.855751037597656}}, {"xid": "W418579939", "name": "All Saints Dalbury", "rate": 7, "osm": "way/418579939", "wikidata": "Q17546559", "kinds": "religion,churches,interesting_places,other_churches", "point": {"lon": -1.6096453666687012, "lat": 52.90536117553711}}, {"xid": "W310004380", "name": "St Martin's", "rate": 7, "osm": "way/310004380", "wikidata": "Q17546033", "kinds": "religion,churches,interesting_places,other_churches", "point": {"lon": -1.704174280166626, "lat": 52.99309158325195}}, {"xid": "W113504924", "name": "All Saints' Church", "rate": 7, "osm": "way/113504924", "wikidata": "Q4729483", "kinds": "religion,churches,interesting_places,other_churches", "point": {"lon": -1.536683440208435, "lat": 52.95924377441406}}, {"xid": "W104126667", "name": "All Saints' Church", "rate": 7, "osm": "way/104126667", "wikidata": "Q17525661", "kinds": "religion,churches,interesting_places,other_churches", "point": {"lon": -1.44911789894104, "lat": 52.954288482666016}}, {"xid": "N1875557706", "name": "Belper Mills", "rate": 7, "osm": "node/1875557706", "wikidata": "Q4884648", "kinds": "factories,industrial_facilities,interesting_places", "point": {"lon": -1.4858226776123047, "lat": 53.02781295776367}}, {"xid": "W247095017", "name": "St. Michael & All Angels", "rate": 7, "osm": "way/247095017", "wikidata": "Q19870701", "kinds": "religion,churches,interesting_places,other_churches", "point": {"lon": -1.7623043060302734, "lat": 53.0931282043457}}, {"xid": "W351689836", "name": "St. Margaret's Church", "rate": 7, "osm": "way/351689836", "wikidata": "Q17546214", "kinds": "religion,churches,interesting_places,other_churches", "point": {"lon": -1.8148000240325928, "lat": 53.26449203491211}}, {"xid": "W270969422", "name": "All Saints Church", "rate": 7, "osm": "way/270969422", "wikidata": "Q4729440", "kinds": "religion,churches,interesting_places,other_churches", "point": {"lon": -1.6970168352127075, "lat": 53.08675765991211}}, {"xid": "W172536162", "name": "St James' Bonsall", "rate": 7, "osm": "way/172536162", "wikidata": "Q17545904", "kinds": "religion,churches,interesting_places,other_churches", "point": {"lon": -1.5832692384719849, "lat": 53.119651794433594}}, {"xid": "N303571498", "name": "Doll Tor Stone Circle", "rate": 7, "osm": "node/303571498", "wikidata": "Q5289184", "kinds": "megaliths,historic,archaeology,interesting_places", "point": {"lon": -1.644445538520813, "lat": 53.16277313232422}}, {"xid": "W251106001", "name": "St Mary The Virgin, South Darley", "rate": 7, "osm": "way/251106001", "wikidata": "Q20714123", "kinds": "religion,churches,interesting_places,other_churches", "point": {"lon": -1.6011863946914673, "lat": 53.14990997314453}}, {"xid": "N254949910", "name": "Three Stags Heads", "rate": 7, "osm": "node/254949910", "wikidata": "Q18162323", "kinds": "architecture,historic_architecture,interesting_places,pubs,foods,tourist_facilities,other_buildings_and_structures", "point": {"lon": -1.7300660610198975, "lat": 53.27711486816406}}, {"xid": "N1020504876", "name": "Barbrook One", "rate": 7, "osm": "node/1020504876", "wikidata": "Q14949367", "kinds": "megaliths,historic,archaeology,interesting_places", "point": {"lon": -1.5836970806121826, "lat": 53.2764892578125}}, {"xid": "W101016076", "name": "Christ Church Stannington", "rate": 7, "osm": "way/101016076", "wikidata": "Q5108716", "kinds": "religion,churches,interesting_places,other_churches", "point": {"lon": -1.5470377206802368, "lat": 53.39183807373047}}, {"xid": "W4398703", "name": "Sheffield City Hall", "rate": 7, "osm": "way/4398703", "wikidata": "Q7492611", "kinds": "theatres_and_entertainments,concert_halls,cultural,interesting_places", "point": {"lon": -1.47244131565094, "lat": 53.380794525146484}}, {"xid": "W68458060", "name": "All Saints' Church", "rate": 7, "osm": "way/68458060", "wikidata": "Q17526546", "kinds": "religion,churches,interesting_places,other_churches", "point": {"lon": -1.076430320739746, "lat": 52.34098815917969}}, {"xid": "W152922840", "name": "St Mary's", "rate": 7, "osm": "way/152922840", "wikidata": "Q17530626", "kinds": "religion,churches,interesting_places,other_churches", "point": {"lon": -1.2031702995300293, "lat": 52.45529556274414}}, {"xid": "W95132227", "name": "Stanford Hall", "rate": 7, "osm": "way/95132227", "wikidata": "Q7598748", "kinds": "biographical_museums,historic_house_museums,cultural,museums,interesting_places,history_museums", "point": {"lon": -1.1380207538604736, "lat": 52.40858840942383}}, {"xid": "N30889327", "name": "Leicester Abbey", "rate": 7, "osm": "node/30889327", "wikidata": "Q1980614", "kinds": "religion,architecture,historic_architecture,monasteries,interesting_places,destroyed_objects", "point": {"lon": -1.1369949579238892, "lat": 52.64868927001953}}, {"xid": "W169098718", "name": "Martinsthorpe", "rate": 7, "osm": "way/169098718", "wikidata": "Q2482587", "kinds": "architecture,historic_architecture,historic,historical_places,interesting_places,destroyed_objects,historic_settlements", "point": {"lon": -0.7213873267173767, "lat": 52.63275146484375}}, {"xid": "W594350924", "name": "St Mary The Virgin", "rate": 7, "osm": "way/594350924", "wikidata": "Q7594677", "kinds": "religion,architecture,historic_architecture,churches,interesting_places,destroyed_objects,other_churches", "point": {"lon": -0.4096040427684784, "lat": 52.03734588623047}}, {"xid": "W492135676", "name": "All Hallows, Dean", "rate": 7, "osm": "way/492135676", "wikidata": "Q5116813", "kinds": "religion,churches,interesting_places,other_churches", "point": {"lon": -0.4664008617401123, "lat": 52.296939849853516}}, {"xid": "N4632555342", "name": "The Cock", "rate": 7, "osm": "node/4632555342", "wikidata": "Q17986576", "kinds": "architecture,historic_architecture,interesting_places,pubs,foods,tourist_facilities,other_buildings_and_structures", "point": {"lon": -0.29192110896110535, "lat": 52.07285690307617}}, {"xid": "N275941794", "name": "Wimpole's Folly", "rate": 7, "osm": "node/275941794", "wikidata": "Q8023564", "kinds": "architecture,historic_architecture,interesting_places,other_buildings_and_structures", "point": {"lon": -0.050527580082416534, "lat": 52.15068817138672}}, {"xid": "N3372080845", "name": "Huntingdon Castle", "rate": 7, "osm": "node/3372080845", "wikidata": "Q5945108", "kinds": "architecture,historic_architecture,fortifications,historic,interesting_places,destroyed_objects,castles", "point": {"lon": -0.1810961663722992, "lat": 52.327186584472656}}, {"xid": "W166030814", "name": "Lilford Hall", "rate": 7, "osm": "way/166030814", "wikidata": "Q6547596", "kinds": "architecture,historic_architecture,interesting_places,other_buildings_and_structures", "point": {"lon": -0.4862947463989258, "lat": 52.44514465332031}}, {"xid": "W223139031", "name": "Saint Mary the Virgin", "rate": 7, "osm": "way/223139031", "wikidata": "Q17529532", "kinds": "religion,churches,interesting_places,other_churches", "point": {"lon": -0.6362442970275879, "lat": 52.597042083740234}}, {"xid": "W241661523", "name": "St Michael's Church", "rate": 7, "osm": "way/241661523", "wikidata": "Q5117640", "kinds": "religion,churches,interesting_places,other_churches", "point": {"lon": -0.4777444303035736, "lat": 52.65247344970703}}, {"xid": "W137941856", "name": "St Thomas' (Pondersbridge Parish Church)", "rate": 7, "osm": "way/137941856", "wikidata": "Q26615455", "kinds": "religion,churches,interesting_places,other_churches", "point": {"lon": -0.14295335114002228, "lat": 52.510501861572266}}, {"xid": "W29420287", "name": "Parish Church of St George", "rate": 7, "osm": "way/29420287", "wikidata": "Q7588105", "kinds": "religion,churches,interesting_places,other_churches", "point": {"lon": -1.22494375705719, "lat": 52.889747619628906}}, {"xid": "W104281346", "name": "Church of St Mary the Virgin", "rate": 7, "osm": "way/104281346", "wikidata": "Q15979408", "kinds": "religion,churches,interesting_places,other_churches", "point": {"lon": -1.135761022567749, "lat": 52.8607177734375}}, {"xid": "W152216494", "name": "Annesley Hall", "rate": 7, "osm": "way/152216494", "wikidata": "Q4769022", "kinds": "architecture,historic_architecture,interesting_places,destroyed_objects", "point": {"lon": -1.2498456239700317, "lat": 53.06576919555664}}, {"xid": "N1253293290", "name": "Woodborough Methodist Church", "rate": 7, "osm": "node/1253293290", "wikidata": "Q7595503", "kinds": "religion,churches,interesting_places,other_churches", "point": {"lon": -1.060593843460083, "lat": 53.0233039855957}}, {"xid": "R5514628", "name": "Medieval village", "rate": 7, "osm": "relation/5514628", "wikidata": "Q2341624", "kinds": "historic,historical_places,archaeology,interesting_places,other_archaeological_sites,historic_settlements", "point": {"lon": -0.8658477067947388, "lat": 52.999969482421875}}, {"xid": "N324786493", "name": "Sibthorpe", "rate": 7, "osm": "node/324786493", "wikidata": "Q2341624", "kinds": "historic,historical_places,interesting_places,historic_settlements", "point": {"lon": -0.864072322845459, "lat": 53.00234603881836}}, {"xid": "W395819902", "name": "St. Mary's", "rate": 7, "osm": "way/395819902", "wikidata": "Q7594439", "kinds": "religion,churches,interesting_places,other_churches", "point": {"lon": -1.110832691192627, "lat": 53.431251525878906}}, {"xid": "N248488743", "name": "Tickhill Castle", "rate": 7, "osm": "node/248488743", "wikidata": "Q2970813", "kinds": "fortifications,historic,interesting_places,castles", "point": {"lon": -1.1088379621505737, "lat": 53.42903137207031}}, {"xid": "W224835018", "name": "St Giles", "rate": 7, "osm": "way/224835018", "wikidata": "Q15979355", "kinds": "religion,churches,interesting_places,other_churches", "point": {"lon": -0.8018079400062561, "lat": 53.123111724853516}}, {"xid": "W641025552", "name": "Saint Wilfrids Church", "rate": 7, "osm": "way/641025552", "wikidata": "Q7595649", "kinds": "religion,churches,interesting_places,other_churches", "point": {"lon": -0.7932367324829102, "lat": 53.215484619140625}}, {"xid": "W328043786", "name": "Mattersey Priory", "rate": 7, "osm": "way/328043786", "wikidata": "Q6789767", "kinds": "religion,architecture,historic_architecture,monasteries,interesting_places,destroyed_objects", "point": {"lon": -0.9437836408615112, "lat": 53.39823532104492}}, {"xid": "W767501848", "name": "St Martin", "rate": 7, "osm": "way/767501848", "wikidata": "Q15979400", "kinds": "religion,churches,interesting_places,other_churches", "point": {"lon": -0.8094412088394165, "lat": 53.37484359741211}}, {"xid": "W617371851", "name": "St Andrew & St Mary", "rate": 7, "osm": "way/617371851", "wikidata": "Q17531676", "kinds": "religion,churches,interesting_places,other_churches", "point": {"lon": -0.6349676847457886, "lat": 52.83582305908203}}, {"xid": "N3402020974", "name": "Grantham House", "rate": 7, "osm": "node/3402020974", "wikidata": "Q5596627", "kinds": "biographical_museums,historic_house_museums,cultural,museums,interesting_places,history_museums", "point": {"lon": -0.6400548219680786, "lat": 52.91498565673828}}, {"xid": "W173210438", "name": "Sleaford Methodist Church", "rate": 7, "osm": "way/173210438", "wikidata": "Q2317971", "kinds": "religion,churches,interesting_places,other_churches", "point": {"lon": -0.4096033275127411, "lat": 53.00054168701172}}, {"xid": "W348790075", "name": "Maud Foster Mill", "rate": 7, "osm": "way/348790075", "wikidata": "Q6792220", "kinds": "industrial_facilities,mills,interesting_places", "point": {"lon": -0.01781606860458851, "lat": 52.983642578125}}, {"xid": "W730333626", "name": "Jew's Court", "rate": 7, "osm": "way/730333626", "wikidata": "Q3178465", "kinds": "architecture,historic_architecture,interesting_places,other_buildings_and_structures", "point": {"lon": -0.5387333035469055, "lat": 53.23223876953125}}, {"xid": "W59807251", "name": "St Benedict's Church", "rate": 7, "osm": "way/59807251", "wikidata": "Q7592637", "kinds": "religion,churches,interesting_places,other_churches", "point": {"lon": -0.13786029815673828, "lat": 53.157142639160156}}, {"xid": "W775781232", "name": "Whithorn Priory", "rate": 7, "osm": "way/775781232", "wikidata": "Q2445404", "kinds": "religion,architecture,historic_architecture,monasteries,interesting_places,destroyed_objects", "point": {"lon": -4.41749906539917, "lat": 54.733497619628906}}, {"xid": "N4584167593", "name": "Ravenstone Castle", "rate": 7, "osm": "node/4584167593", "wikidata": "Q17570954", "kinds": "architecture,historic_architecture,fortifications,historic,interesting_places,destroyed_objects,castles", "point": {"lon": -4.474396705627441, "lat": 54.76723098754883}}, {"xid": "W464793708", "name": "Scotch Piper", "rate": 7, "osm": "way/464793708", "wikidata": "Q7435526", "kinds": "architecture,historic_architecture,interesting_places,pubs,foods,tourist_facilities,other_buildings_and_structures", "point": {"lon": -2.960078716278076, "lat": 53.536415100097656}}, {"xid": "W275507201", "name": "St Peter's", "rate": 7, "osm": "way/275507201", "wikidata": "Q7595243", "kinds": "religion,churches,interesting_places,other_churches", "point": {"lon": -3.0093636512756348, "lat": 53.92387771606445}}, {"xid": "W439140854", "name": "Ashton Hall", "rate": 7, "osm": "way/439140854", "wikidata": "Q4806040", "kinds": "architecture,historic_architecture,fortifications,historic,interesting_places,manor_houses,castles", "point": {"lon": -2.822704792022705, "lat": 54.00887680053711}}, {"xid": "N1840023594", "name": "Duddon Furnace", "rate": 7, "osm": "node/1840023594", "wikidata": "Q5311681", "kinds": "architecture,historic_architecture,interesting_places,destroyed_objects", "point": {"lon": -3.23549747467041, "lat": 54.28402328491211}}, {"xid": "W500180987", "name": "Blacksmith's Arms", "rate": 7, "osm": "way/500180987", "wikidata": "Q17985947", "kinds": "architecture,historic_architecture,interesting_places,pubs,foods,tourist_facilities,other_buildings_and_structures", "point": {"lon": -3.1969985961914062, "lat": 54.30439376831055}}, {"xid": "W231764097", "name": "Holy Trinity", "rate": 7, "osm": "way/231764097", "wikidata": "Q5886595", "kinds": "religion,churches,interesting_places,other_churches", "point": {"lon": -3.18776273727417, "lat": 54.35490798950195}}, {"xid": "W123095098", "name": "St Mary & St Michael", "rate": 7, "osm": "way/123095098", "wikidata": "Q7594616", "kinds": "religion,churches,interesting_places,other_churches", "point": {"lon": -3.1218340396881104, "lat": 54.158287048339844}}, {"xid": "W772171532", "name": "St John, Osmotherley", "rate": 7, "osm": "way/772171532", "wikidata": "Q7593789", "kinds": "religion,churches,interesting_places,other_churches", "point": {"lon": -3.1077382564544678, "lat": 54.229976654052734}}, {"xid": "W268666869", "name": "St Mary's Church, Stavely in Cartmel", "rate": 7, "osm": "way/268666869", "wikidata": "Q7594427", "kinds": "religion,churches,interesting_places,other_churches", "point": {"lon": -2.954350233078003, "lat": 54.26529312133789}}, {"xid": "W281057775", "name": "St Anthony's Church", "rate": 7, "osm": "way/281057775", "wikidata": "Q7592498", "kinds": "religion,churches,interesting_places,other_churches", "point": {"lon": -2.897751808166504, "lat": 54.28486633300781}}, {"xid": "W126668321", "name": "Mirehouse", "rate": 7, "osm": "way/126668321", "wikidata": "Q6873094", "kinds": "biographical_museums,historic_house_museums,cultural,museums,interesting_places,history_museums", "point": {"lon": -3.1915769577026367, "lat": 54.6446533203125}}, {"xid": "W324501822", "name": "St Michael's Church", "rate": 7, "osm": "way/324501822", "wikidata": "Q7594785", "kinds": "religion,churches,interesting_places,other_churches", "point": {"lon": -3.235309362411499, "lat": 54.74690246582031}}, {"xid": "N5695242505", "name": "Castlerigg Stone Circle", "rate": 7, "osm": "node/5695242505", "wikidata": "Q1850757", "kinds": "megaliths,historic,archaeology,interesting_places", "point": {"lon": -3.0984063148498535, "lat": 54.60367965698242}}, {"xid": "N5695242506", "name": "Castlerigg Stone Circle", "rate": 7, "osm": "node/5695242506", "wikidata": "Q1850757", "kinds": "megaliths,historic,archaeology,interesting_places", "point": {"lon": -3.098405599594116, "lat": 54.60369110107422}}, {"xid": "W382825377", "name": "Lochinch", "rate": 7, "osm": "way/382825377", "wikidata": "Q17567852", "kinds": "fortifications,historic,historical_places,interesting_places,castles,historic_districts", "point": {"lon": -4.955629825592041, "lat": 54.91507339477539}}, {"xid": "W255503811", "name": "Kildonan Dun", "rate": 7, "osm": "way/255503811", "wikidata": "Q1265212", "kinds": "architecture,historic_architecture,fortifications,historic,interesting_places,destroyed_objects,other_fortifications", "point": {"lon": -5.51497220993042, "lat": 55.49339294433594}}, {"xid": "W422665539", "name": "Giant's Graves", "rate": 7, "osm": "way/422665539", "wikidata": "Q15857795", "kinds": "historic,monuments_and_memorials,burial_places,archaeology,interesting_places,other_archaeological_sites,other_burial_places,monuments", "point": {"lon": -5.098060607910156, "lat": 55.4765510559082}}, {"xid": "N6009916213", "name": "Meallach's Grave", "rate": 7, "osm": "node/6009916213", "wikidata": "Q1427610", "kinds": "historic,monuments_and_memorials,burial_places,archaeology,interesting_places,other_archaeological_sites,other_burial_places,monuments", "point": {"lon": -5.1413092613220215, "lat": 55.513484954833984}},